{"address_components": [{"long_name": "Block 460", "short_name": "Block 460", "types": ["premise"]}, {"long_name": "460", "short_name": "460", "types": ["street_number"]}, {"long_name": "Choa Chu Kang Avenue 4", "short_name": "Choa Chu Kang Ave 4", "types": ["route"]}, {"long_name": "Choa Chu Kang", "short_name": "Choa Chu Kang", "types": ["neighborhood", "political"]}, {"long_name": "Singapore", "short_name": "Singapore", "types": ["locality", "political"]}, {"long_name": "Singapore", "short_name": "SG", "types": ["country", "political"]}, {"long_name": "680460", "short_name": "680460", "types": ["postal_code"]}], "formatted_address": "460 Choa Chu Kang Ave 4, Block 460, Singapore 680460", "geometry": {"bounds": {"northeast": {"lat": 1.3781525, "lng": 103.7352038}, "southwest": {"lat": 1.3776701, "lng": 103.7347852}}, "location": {"lat": 1.3778993, "lng": 103.7349354}, "location_type": "ROOFTOP", "viewport": {"northeast": {"lat": 1.379260280291502, "lng": 103.7363434802915}, "southwest": {"lat": 1.376562319708498, "lng": 103.7336455197085}}}, "place_id": "ChIJnwzQ49sR2jERcwhxnh7AUgM", "types": ["premise"]}