{"address_components": [{"long_name": "Block 825", "short_name": "Block 825", "types": ["premise"]}, {"long_name": "825", "short_name": "825", "types": ["street_number"]}, {"long_name": "Yishun Street 81", "short_name": "Yishun Street 81", "types": ["route"]}, {"long_name": "Yishun", "short_name": "Yishun", "types": ["neighborhood", "political"]}, {"long_name": "Singapore", "short_name": "Singapore", "types": ["locality", "political"]}, {"long_name": "Singapore", "short_name": "SG", "types": ["country", "political"]}, {"long_name": "760825", "short_name": "760825", "types": ["postal_code"]}], "formatted_address": "825 Yishun Street 81, Block 825, Singapore 760825", "geometry": {"bounds": {"northeast": {"lat": 1.4145258, "lng": 103.8334113}, "southwest": {"lat": 1.4139479, "lng": 103.8324993}}, "location": {"lat": 1.4142715, "lng": 103.8329022}, "location_type": "ROOFTOP", "viewport": {"northeast": {"lat": 1.415585830291502, "lng": 103.8343042802915}, "southwest": {"lat": 1.412887869708498, "lng": 103.8316063197085}}}, "place_id": "ChIJgRp9IQ4U2jERfjENDfBEB8o", "types": ["premise"]}