{"address_components": [{"long_name": "Block 414", "short_name": "Block 414", "types": ["premise"]}, {"long_name": "414", "short_name": "414", "types": ["street_number"]}, {"long_name": "Hougang Avenue 10", "short_name": "Hougang Ave 10", "types": ["route"]}, {"long_name": "Hougang", "short_name": "Hougang", "types": ["neighborhood", "political"]}, {"long_name": "Singapore", "short_name": "Singapore", "types": ["locality", "political"]}, {"long_name": "Singapore", "short_name": "SG", "types": ["country", "political"]}, {"long_name": "530414", "short_name": "530414", "types": ["postal_code"]}], "formatted_address": "414 Hougang Ave 10, Block 414, Singapore 530414", "geometry": {"bounds": {"northeast": {"lat": 1.3751199, "lng": 103.8962732}, "southwest": {"lat": 1.3749569, "lng": 103.8956113}}, "location": {"lat": 1.375043, "lng": 103.8959572}, "location_type": "ROOFTOP", "viewport": {"northeast": {"lat": 1.376387380291502, "lng": 103.8972912302915}, "southwest": {"lat": 1.373689419708498, "lng": 103.8945932697085}}}, "place_id": "ChIJozUEmjkW2jERxLb9bP70g50", "types": ["premise"]}