{"address_components": [{"long_name": "Block 353C", "short_name": "Block 353C", "types": ["premise"]}, {"long_name": "353C", "short_name": "353C", "types": ["street_number"]}, {"long_name": "Admiralty Drive", "short_name": "Admiralty Dr", "types": ["route"]}, {"long_name": "Sembawang", "short_name": "Sembawang", "types": ["neighborhood", "political"]}, {"long_name": "Singapore", "short_name": "Singapore", "types": ["locality", "political"]}, {"long_name": "Singapore", "short_name": "SG", "types": ["country", "political"]}, {"long_name": "752356", "short_name": "752356", "types": ["postal_code"]}], "formatted_address": "353C Admiralty Dr, Block 353C, Singapore 752356", "geometry": {"bounds": {"northeast": {"lat": 1.449923, "lng": 103.8195474}, "southwest": {"lat": 1.4495054, "lng": 103.8190319}}, "location": {"lat": 1.449724, "lng": 103.8193166}, "location_type": "ROOFTOP", "viewport": {"northeast": {"lat": 1.451063180291502, "lng": 103.8206386302915}, "southwest": {"lat": 1.448365219708498, "lng": 103.8179406697085}}}, "place_id": "ChIJU1mZ3WIT2jERxcxuZQntbJI", "types": ["premise"]}