{"address_components": [{"long_name": "Block 239", "short_name": "Block 239", "types": ["premise"]}, {"long_name": "239", "short_name": "239", "types": ["street_number"]}, {"long_name": "Hougang Street 22", "short_name": "Hougang Street 22", "types": ["route"]}, {"long_name": "Hougang", "short_name": "Hougang", "types": ["neighborhood", "political"]}, {"long_name": "Singapore", "short_name": "Singapore", "types": ["locality", "political"]}, {"long_name": "Singapore", "short_name": "SG", "types": ["country", "political"]}, {"long_name": "530239", "short_name": "530239", "types": ["postal_code"]}], "formatted_address": "239 Hougang Street 22, Block 239, Singapore 530239", "geometry": {"bounds": {"northeast": {"lat": 1.3565044, "lng": 103.890926}, "southwest": {"lat": 1.3559413, "lng": 103.8901852}}, "location": {"lat": 1.3560334, "lng": 103.8903391}, "location_type": "ROOFTOP", "viewport": {"northeast": {"lat": 1.357571830291502, "lng": 103.8919045802915}, "southwest": {"lat": 1.354873869708498, "lng": 103.8892066197085}}}, "place_id": "ChIJtZu9z7cX2jERfyADEeN5Czo", "types": ["premise"]}