{"address_components": [{"long_name": "Block 685C", "short_name": "Block 685C", "types": ["premise"]}, {"long_name": "685C", "short_name": "685C", "types": ["street_number"]}, {"long_name": "Choa Chu Kang Crescent", "short_name": "Choa Chu Kang Cres", "types": ["route"]}, {"long_name": "Choa Chu Kang", "short_name": "Choa Chu Kang", "types": ["neighborhood", "political"]}, {"long_name": "Singapore", "short_name": "Singapore", "types": ["locality", "political"]}, {"long_name": "Singapore", "short_name": "SG", "types": ["country", "political"]}, {"long_name": "683685", "short_name": "683685", "types": ["postal_code"]}], "formatted_address": "685C Choa Chu Kang Cres, Block 685C, Singapore 683685", "geometry": {"bounds": {"northeast": {"lat": 1.4035618, "lng": 103.7489155}, "southwest": {"lat": 1.4033132, "lng": 103.7485729}}, "location": {"lat": 1.4034466, "lng": 103.748627}, "location_type": "ROOFTOP", "viewport": {"northeast": {"lat": 1.404786480291502, "lng": 103.7500931802915}, "southwest": {"lat": 1.402088519708498, "lng": 103.7473952197085}}}, "place_id": "ChIJzf7lSB4S2jER2XIkQvAZ2Fg", "types": ["premise"]}