{"address_components": [{"long_name": "Block 246", "short_name": "Block 246", "types": ["premise"]}, {"long_name": "246", "short_name": "246", "types": ["street_number"]}, {"long_name": "Serangoon Avenue 3", "short_name": "Serangoon Ave 3", "types": ["route"]}, {"long_name": "Serangoon", "short_name": "Serangoon", "types": ["neighborhood", "political"]}, {"long_name": "Singapore", "short_name": "Singapore", "types": ["locality", "political"]}, {"long_name": "Singapore", "short_name": "SG", "types": ["country", "political"]}, {"long_name": "550246", "short_name": "550246", "types": ["postal_code"]}], "formatted_address": "246 Serangoon Ave 3, Block 246, Singapore 550246", "geometry": {"bounds": {"northeast": {"lat": 1.3523037, "lng": 103.8699836}, "southwest": {"lat": 1.3518628, "lng": 103.8693485}}, "location": {"lat": 1.3519807, "lng": 103.8695902}, "location_type": "ROOFTOP", "viewport": {"northeast": {"lat": 1.353432230291502, "lng": 103.8710150302915}, "southwest": {"lat": 1.350734269708498, "lng": 103.8683170697085}}}, "place_id": "ChIJOQiTCqcX2jERCZhRJ62PyuQ", "types": ["premise"]}