{"address_components": [{"long_name": "Block 143", "short_name": "Block 143", "types": ["premise"]}, {"long_name": "143", "short_name": "143", "types": ["street_number"]}, {"long_name": "Petir Road", "short_name": "Petir Rd", "types": ["route"]}, {"long_name": "Bukit Panjang", "short_name": "Bukit Panjang", "types": ["neighborhood", "political"]}, {"long_name": "Singapore", "short_name": "Singapore", "types": ["locality", "political"]}, {"long_name": "Singapore", "short_name": "SG", "types": ["country", "political"]}, {"long_name": "670143", "short_name": "670143", "types": ["postal_code"]}], "formatted_address": "143 Petir Rd, Block 143, Singapore 670143", "geometry": {"bounds": {"northeast": {"lat": 1.3765521, "lng": 103.7679659}, "southwest": {"lat": 1.3759429, "lng": 103.767084}}, "location": {"lat": 1.3762416, "lng": 103.7675227}, "location_type": "ROOFTOP", "viewport": {"northeast": {"lat": 1.377596480291502, "lng": 103.7688739302915}, "southwest": {"lat": 1.374898519708498, "lng": 103.7661759697085}}}, "place_id": "ChIJ3TDFTKQR2jER5A3C4hBl_gw", "types": ["premise"]}