{"address_components": [{"long_name": "Block 696", "short_name": "Block 696", "types": ["premise"]}, {"long_name": "696", "short_name": "696", "types": ["street_number"]}, {"long_name": "Jurong West Central 1", "short_name": "Jurong West Central 1", "types": ["route"]}, {"long_name": "Jurong West", "short_name": "Jurong West", "types": ["neighborhood", "political"]}, {"long_name": "Singapore", "short_name": "Singapore", "types": ["locality", "political"]}, {"long_name": "Singapore", "short_name": "SG", "types": ["country", "political"]}, {"long_name": "640696", "short_name": "640696", "types": ["postal_code"]}], "formatted_address": "696 Jurong West Central 1, Block 696, Singapore 640696", "geometry": {"bounds": {"northeast": {"lat": 1.3425836, "lng": 103.7078676}, "southwest": {"lat": 1.3420036, "lng": 103.7072586}}, "location": {"lat": 1.3422214, "lng": 103.7076949}, "location_type": "ROOFTOP", "viewport": {"northeast": {"lat": 1.343642580291502, "lng": 103.7089120802915}, "southwest": {"lat": 1.340944619708498, "lng": 103.7062141197085}}}, "place_id": "ChIJQXysbusP2jERm-8OjL9XZtI", "types": ["premise"]}