{"address_components": [{"long_name": "Block 114", "short_name": "Block 114", "types": ["premise"]}, {"long_name": "114", "short_name": "114", "types": ["street_number"]}, {"long_name": "Hougang Avenue 1", "short_name": "Hougang Ave 1", "types": ["route"]}, {"long_name": "Hougang", "short_name": "Hougang", "types": ["neighborhood", "political"]}, {"long_name": "Singapore", "short_name": "Singapore", "types": ["locality", "political"]}, {"long_name": "Singapore", "short_name": "SG", "types": ["country", "political"]}, {"long_name": "530114", "short_name": "530114", "types": ["postal_code"]}], "formatted_address": "114 Hougang Ave 1, Block 114, Singapore 530114", "geometry": {"bounds": {"northeast": {"lat": 1.3534985, "lng": 103.8892675}, "southwest": {"lat": 1.3527761, "lng": 103.8884221}}, "location": {"lat": 1.3531119, "lng": 103.8890705}, "location_type": "ROOFTOP", "viewport": {"northeast": {"lat": 1.354486280291502, "lng": 103.8901937802915}, "southwest": {"lat": 1.351788319708498, "lng": 103.8874958197085}}}, "place_id": "ChIJhf6xSbgX2jERpPyOruFqknk", "types": ["premise"]}