{"address_components": [{"long_name": "Block 18", "short_name": "Block 18", "types": ["premise"]}, {"long_name": "18", "short_name": "18", "types": ["street_number"]}, {"long_name": "Toh Yi Drive", "short_name": "Toh Yi Dr", "types": ["route"]}, {"long_name": "Bukit Timah", "short_name": "Bukit Timah", "types": ["neighborhood", "political"]}, {"long_name": "Singapore", "short_name": "Singapore", "types": ["locality", "political"]}, {"long_name": "Singapore", "short_name": "SG", "types": ["country", "political"]}, {"long_name": "590018", "short_name": "590018", "types": ["postal_code"]}], "formatted_address": "18 Toh Yi Dr, Block 18, Singapore 590018", "geometry": {"bounds": {"northeast": {"lat": 1.3400817, "lng": 103.773575}, "southwest": {"lat": 1.3398358, "lng": 103.77288}}, "location": {"lat": 1.3400227, "lng": 103.7731526}, "location_type": "ROOFTOP", "viewport": {"northeast": {"lat": 1.341307730291502, "lng": 103.7745764802915}, "southwest": {"lat": 1.338609769708498, "lng": 103.7718785197085}}}, "place_id": "ChIJn-FOOGIQ2jERTgUbpN7Jiao", "types": ["premise"]}