{"address_components": [{"long_name": "Block 439", "short_name": "Block 439", "types": ["premise"]}, {"long_name": "439", "short_name": "439", "types": ["street_number"]}, {"long_name": "Yishun Avenue 11", "short_name": "Yishun Ave 11", "types": ["route"]}, {"long_name": "Yishun", "short_name": "Yishun", "types": ["neighborhood", "political"]}, {"long_name": "Singapore", "short_name": "Singapore", "types": ["locality", "political"]}, {"long_name": "Singapore", "short_name": "SG", "types": ["country", "political"]}, {"long_name": "760439", "short_name": "760439", "types": ["postal_code"]}], "formatted_address": "439 Yishun Ave 11, Block 439, Singapore 760439", "geometry": {"bounds": {"northeast": {"lat": 1.422157, "lng": 103.8470082}, "southwest": {"lat": 1.4220069, "lng": 103.8459122}}, "location": {"lat": 1.4221089, "lng": 103.846761}, "location_type": "ROOFTOP", "viewport": {"northeast": {"lat": 1.423430930291502, "lng": 103.8478091802915}, "southwest": {"lat": 1.420732969708498, "lng": 103.8451112197085}}}, "place_id": "ChIJh4rcR0AU2jERiyGZ7VYyAUw", "types": ["premise"]}