{"address_components": [{"long_name": "Block 536", "short_name": "Block 536", "types": ["premise"]}, {"long_name": "536", "short_name": "536", "types": ["street_number"]}, {"long_name": "Jurong West Street 52", "short_name": "Jurong West Street 52", "types": ["route"]}, {"long_name": "Jurong West", "short_name": "Jurong West", "types": ["neighborhood", "political"]}, {"long_name": "Singapore", "short_name": "Singapore", "types": ["locality", "political"]}, {"long_name": "Singapore", "short_name": "SG", "types": ["country", "political"]}, {"long_name": "640536", "short_name": "640536", "types": ["postal_code"]}], "formatted_address": "536 Jurong West Street 52, Block 536, Singapore 640536", "geometry": {"bounds": {"northeast": {"lat": 1.3501987, "lng": 103.7171157}, "southwest": {"lat": 1.3495407, "lng": 103.7163827}}, "location": {"lat": 1.3498698, "lng": 103.7165666}, "location_type": "ROOFTOP", "viewport": {"northeast": {"lat": 1.351218680291502, "lng": 103.7180981802915}, "southwest": {"lat": 1.348520719708498, "lng": 103.7154002197085}}}, "place_id": "ChIJI1cuT8MP2jER8Jysacc_aLE", "types": ["premise"]}