{"address_components": [{"long_name": "Block 484", "short_name": "Block 484", "types": ["premise"]}, {"long_name": "484", "short_name": "484", "types": ["street_number"]}, {"long_name": "Segar Road", "short_name": "Segar Rd", "types": ["route"]}, {"long_name": "Bukit Panjang", "short_name": "Bukit Panjang", "types": ["neighborhood", "political"]}, {"long_name": "Singapore", "short_name": "Singapore", "types": ["locality", "political"]}, {"long_name": "Singapore", "short_name": "SG", "types": ["country", "political"]}, {"long_name": "670484", "short_name": "670484", "types": ["postal_code"]}], "formatted_address": "484 Segar Rd, Block 484, Singapore 670484", "geometry": {"bounds": {"northeast": {"lat": 1.3886649, "lng": 103.7720164}, "southwest": {"lat": 1.3882519, "lng": 103.7717146}}, "location": {"lat": 1.3885317, "lng": 103.7718683}, "location_type": "ROOFTOP", "viewport": {"northeast": {"lat": 1.389807380291502, "lng": 103.7732144802915}, "southwest": {"lat": 1.387109419708498, "lng": 103.7705165197085}}}, "partial_match": true, "place_id": "ChIJj8UvLpwR2jERwIm7Ai4mkvc", "types": ["premise"]}