{"address_components": [{"long_name": "Block 444", "short_name": "Block 444", "types": ["premise"]}, {"long_name": "444", "short_name": "444", "types": ["street_number"]}, {"long_name": "Choa Chu Kang Avenue 4", "short_name": "Choa Chu Kang Ave 4", "types": ["route"]}, {"long_name": "Choa Chu Kang", "short_name": "Choa Chu Kang", "types": ["neighborhood", "political"]}, {"long_name": "Singapore", "short_name": "Singapore", "types": ["locality", "political"]}, {"long_name": "Singapore", "short_name": "SG", "types": ["country", "political"]}, {"long_name": "680444", "short_name": "680444", "types": ["postal_code"]}], "formatted_address": "444 Choa Chu Kang Ave 4, Block 444, Singapore 680444", "geometry": {"bounds": {"northeast": {"lat": 1.3818699, "lng": 103.7375531}, "southwest": {"lat": 1.38142, "lng": 103.736896}}, "location": {"lat": 1.3816244, "lng": 103.7372887}, "location_type": "ROOFTOP", "viewport": {"northeast": {"lat": 1.382993930291502, "lng": 103.7385735302915}, "southwest": {"lat": 1.380295969708498, "lng": 103.7358755697085}}}, "place_id": "ChIJUQ5Ur90R2jER8WCZTs8G07M", "types": ["premise"]}