{"address_components": [{"long_name": "Block 713", "short_name": "Block 713", "types": ["premise"]}, {"long_name": "713", "short_name": "713", "types": ["street_number"]}, {"long_name": "Jurong West Street 71", "short_name": "Jurong West Street 71", "types": ["route"]}, {"long_name": "Jurong West", "short_name": "Jurong West", "types": ["neighborhood", "political"]}, {"long_name": "Singapore", "short_name": "Singapore", "types": ["locality", "political"]}, {"long_name": "Singapore", "short_name": "SG", "types": ["country", "political"]}, {"long_name": "640713", "short_name": "640713", "types": ["postal_code"]}], "formatted_address": "713 Jurong West Street 71, Block 713, Singapore 640713", "geometry": {"bounds": {"northeast": {"lat": 1.343951, "lng": 103.6964567}, "southwest": {"lat": 1.3432449, "lng": 103.6957026}}, "location": {"lat": 1.3436305, "lng": 103.6961359}, "location_type": "ROOFTOP", "viewport": {"northeast": {"lat": 1.344946930291502, "lng": 103.6974286302915}, "southwest": {"lat": 1.342248969708498, "lng": 103.6947306697085}}}, "place_id": "ChIJR54TCZcP2jERMtICivbYyL0", "types": ["premise"]}