{"address_components": [{"long_name": "Block 541", "short_name": "Block 541", "types": ["premise"]}, {"long_name": "541", "short_name": "541", "types": ["street_number"]}, {"long_name": "Serangoon North Avenue 4", "short_name": "Serangoon North Ave 4", "types": ["route"]}, {"long_name": "Serangoon", "short_name": "Serangoon", "types": ["neighborhood", "political"]}, {"long_name": "Singapore", "short_name": "Singapore", "types": ["locality", "political"]}, {"long_name": "Singapore", "short_name": "SG", "types": ["country", "political"]}, {"long_name": "550541", "short_name": "550541", "types": ["postal_code"]}], "formatted_address": "541 Serangoon North Ave 4, Block 541, Singapore 550541", "geometry": {"bounds": {"northeast": {"lat": 1.374353, "lng": 103.8730729}, "southwest": {"lat": 1.374175, "lng": 103.8720032}}, "location": {"lat": 1.3742952, "lng": 103.8726702}, "location_type": "ROOFTOP", "viewport": {"northeast": {"lat": 1.375612980291502, "lng": 103.8738870302915}, "southwest": {"lat": 1.372915019708498, "lng": 103.8711890697085}}}, "place_id": "ChIJfwPv6lkW2jERy6E5YpIIqQQ", "types": ["premise"]}