{"address_components": [{"long_name": "Block 172C", "short_name": "Block 172C", "types": ["premise"]}, {"long_name": "172C", "short_name": "172C", "types": ["street_number"]}, {"long_name": "Edgedale Plains", "short_name": "Edgedale Plains", "types": ["route"]}, {"long_name": "Punggol", "short_name": "Punggol", "types": ["neighborhood", "political"]}, {"long_name": "Singapore", "short_name": "Singapore", "types": ["locality", "political"]}, {"long_name": "Singapore", "short_name": "SG", "types": ["country", "political"]}, {"long_name": "823172", "short_name": "823172", "types": ["postal_code"]}], "formatted_address": "172C Edgedale Plains, Block 172C, Singapore 823172", "geometry": {"bounds": {"northeast": {"lat": 1.3957059, "lng": 103.912645}, "southwest": {"lat": 1.39523, "lng": 103.9120991}}, "location": {"lat": 1.3954612, "lng": 103.9123599}, "location_type": "ROOFTOP", "viewport": {"northeast": {"lat": 1.396816930291502, "lng": 103.9137210302915}, "southwest": {"lat": 1.394118969708498, "lng": 103.9110230697085}}}, "place_id": "ChIJLaalOQIW2jERpzrRBX1SaHk", "types": ["premise"]}