{"address_components": [{"long_name": "Block 734", "short_name": "Block 734", "types": ["premise"]}, {"long_name": "734", "short_name": "734", "types": ["street_number"]}, {"long_name": "Jurong West Street 73", "short_name": "Jurong West Street 73", "types": ["route"]}, {"long_name": "Jurong West", "short_name": "Jurong West", "types": ["neighborhood", "political"]}, {"long_name": "Singapore", "short_name": "Singapore", "types": ["locality", "political"]}, {"long_name": "Singapore", "short_name": "SG", "types": ["country", "political"]}, {"long_name": "640734", "short_name": "640734", "types": ["postal_code"]}], "formatted_address": "734 Jurong West Street 73, Block 734, Singapore 640734", "geometry": {"bounds": {"northeast": {"lat": 1.3458144, "lng": 103.700671}, "southwest": {"lat": 1.3452417, "lng": 103.7002891}}, "location": {"lat": 1.3456216, "lng": 103.7004356}, "location_type": "ROOFTOP", "viewport": {"northeast": {"lat": 1.346877030291502, "lng": 103.7018290302915}, "southwest": {"lat": 1.344179069708498, "lng": 103.6991310697085}}}, "place_id": "ChIJKc_a5JUP2jERcE0d9RmjMZo", "types": ["premise"]}