{"address_components": [{"long_name": "Block 121A", "short_name": "Block 121A", "types": ["premise"]}, {"long_name": "121A", "short_name": "121A", "types": ["street_number"]}, {"long_name": "Kim Tian Place", "short_name": "Kim Tian Pl", "types": ["route"]}, {"long_name": "Bukit Merah", "short_name": "Bukit Merah", "types": ["neighborhood", "political"]}, {"long_name": "Singapore", "short_name": "Singapore", "types": ["locality", "political"]}, {"long_name": "Singapore", "short_name": "SG", "types": ["country", "political"]}, {"long_name": "161121", "short_name": "161121", "types": ["postal_code"]}], "formatted_address": "121A Kim Tian Pl, Block 121A, Singapore 161121", "geometry": {"bounds": {"northeast": {"lat": 1.2828794, "lng": 103.8283305}, "southwest": {"lat": 1.2825465, "lng": 103.8280039}}, "location": {"lat": 1.282705, "lng": 103.8281924}, "location_type": "ROOFTOP", "viewport": {"northeast": {"lat": 1.284061930291502, "lng": 103.8295161802915}, "southwest": {"lat": 1.281363969708498, "lng": 103.8268182197085}}}, "place_id": "ChIJ46xxhXsZ2jERd6jSJW37_eM", "types": ["premise"]}