{"address_components": [{"long_name": "Block 770", "short_name": "Block 770", "types": ["premise"]}, {"long_name": "770", "short_name": "770", "types": ["street_number"]}, {"long_name": "Pasir Ris Street 71", "short_name": "Pasir Ris Street 71", "types": ["route"]}, {"long_name": "Pasir Ris", "short_name": "Pasir Ris", "types": ["neighborhood", "political"]}, {"long_name": "Singapore", "short_name": "Singapore", "types": ["locality", "political"]}, {"long_name": "Singapore", "short_name": "SG", "types": ["country", "political"]}, {"long_name": "510770", "short_name": "510770", "types": ["postal_code"]}], "formatted_address": "770 Pasir Ris Street 71, Block 770, Singapore 510770", "geometry": {"bounds": {"northeast": {"lat": 1.3753912, "lng": 103.9362148}, "southwest": {"lat": 1.3749231, "lng": 103.9358929}}, "location": {"lat": 1.3752256, "lng": 103.9360838}, "location_type": "ROOFTOP", "viewport": {"northeast": {"lat": 1.376506130291502, "lng": 103.9374028302915}, "southwest": {"lat": 1.373808169708498, "lng": 103.9347048697085}}}, "place_id": "ChIJPcJMS5Y92jERth9ovjstqA0", "types": ["premise"]}