{"address_components": [{"long_name": "Block 221", "short_name": "Block 221", "types": ["premise"]}, {"long_name": "221", "short_name": "221", "types": ["street_number"]}, {"long_name": "Lorong 8 Toa Payoh", "short_name": "Lor 8 Toa Payoh", "types": ["route"]}, {"long_name": "Toa Payoh", "short_name": "Toa Payoh", "types": ["neighborhood", "political"]}, {"long_name": "Singapore", "short_name": "Singapore", "types": ["locality", "political"]}, {"long_name": "Singapore", "short_name": "SG", "types": ["country", "political"]}, {"long_name": "310221", "short_name": "310221", "types": ["postal_code"]}], "formatted_address": "221 Lor 8 Toa Payoh, Block 221, Singapore 310221", "geometry": {"bounds": {"northeast": {"lat": 1.3428779, "lng": 103.8570021}, "southwest": {"lat": 1.342384, "lng": 103.8569049}}, "location": {"lat": 1.3426271, "lng": 103.8569747}, "location_type": "ROOFTOP", "viewport": {"northeast": {"lat": 1.343979930291502, "lng": 103.8583024802915}, "southwest": {"lat": 1.341281969708498, "lng": 103.8556045197085}}}, "place_id": "ChIJiwuKfHIX2jERMH3zNSw6_OE", "types": ["premise"]}