{"address_components": [{"long_name": "Block 477", "short_name": "Block 477", "types": ["premise"]}, {"long_name": "477", "short_name": "477", "types": ["street_number"]}, {"long_name": "Sembawang Drive", "short_name": "Sembawang Dr", "types": ["route"]}, {"long_name": "Sembawang", "short_name": "Sembawang", "types": ["neighborhood", "political"]}, {"long_name": "Singapore", "short_name": "Singapore", "types": ["locality", "political"]}, {"long_name": "Singapore", "short_name": "SG", "types": ["country", "political"]}, {"long_name": "750477", "short_name": "750477", "types": ["postal_code"]}], "formatted_address": "477 Sembawang Dr, Block 477, Singapore 750477", "geometry": {"bounds": {"northeast": {"lat": 1.4522626, "lng": 103.8168508}, "southwest": {"lat": 1.4519905, "lng": 103.8163047}}, "location": {"lat": 1.4520717, "lng": 103.8166223}, "location_type": "ROOFTOP", "viewport": {"northeast": {"lat": 1.453475530291502, "lng": 103.8179267302915}, "southwest": {"lat": 1.450777569708498, "lng": 103.8152287697085}}}, "place_id": "ChIJfURDjWMT2jERw0Mg0QWWFw8", "types": ["premise"]}