{"address_components": [{"long_name": "Block 293", "short_name": "Block 293", "types": ["premise"]}, {"long_name": "293", "short_name": "293", "types": ["street_number"]}, {"long_name": "Bishan Street 22", "short_name": "Bishan Street 22", "types": ["route"]}, {"long_name": "Bishan", "short_name": "Bishan", "types": ["neighborhood", "political"]}, {"long_name": "Singapore", "short_name": "Singapore", "types": ["locality", "political"]}, {"long_name": "Singapore", "short_name": "SG", "types": ["country", "political"]}, {"long_name": "570293", "short_name": "570293", "types": ["postal_code"]}], "formatted_address": "293 Bishan Street 22, Block 293, Singapore 570293", "geometry": {"bounds": {"northeast": {"lat": 1.3564797, "lng": 103.8461802}, "southwest": {"lat": 1.3561217, "lng": 103.8458112}}, "location": {"lat": 1.3563291, "lng": 103.845991}, "location_type": "ROOFTOP", "viewport": {"northeast": {"lat": 1.357649680291502, "lng": 103.8473446802915}, "southwest": {"lat": 1.354951719708498, "lng": 103.8446467197085}}}, "place_id": "ChIJpwsSbxgX2jERmQj3D9DvBCA", "types": ["premise"]}