{"address_components": [{"long_name": "Block 63", "short_name": "Block 63", "types": ["premise"]}, {"long_name": "63", "short_name": "63", "types": ["street_number"]}, {"long_name": "Telok Blangah Heights", "short_name": "Telok Blangah Heights", "types": ["route"]}, {"long_name": "Bukit Merah", "short_name": "Bukit Merah", "types": ["neighborhood", "political"]}, {"long_name": "Singapore", "short_name": "Singapore", "types": ["locality", "political"]}, {"long_name": "Singapore", "short_name": "SG", "types": ["country", "political"]}, {"long_name": "100063", "short_name": "100063", "types": ["postal_code"]}], "formatted_address": "63 Telok Blangah Heights, Block 63, Singapore 100063", "geometry": {"bounds": {"northeast": {"lat": 1.2750601, "lng": 103.8112599}, "southwest": {"lat": 1.274622, "lng": 103.8104451}}, "location": {"lat": 1.2748311, "lng": 103.8108943}, "location_type": "ROOFTOP", "viewport": {"northeast": {"lat": 1.276190030291502, "lng": 103.8122014802915}, "southwest": {"lat": 1.273492069708498, "lng": 103.8095035197085}}}, "place_id": "ChIJAZ29pdwb2jERM3tWEX31SRU", "types": ["premise"]}