{"address_components": [{"long_name": "Block 730", "short_name": "Block 730", "types": ["premise"]}, {"long_name": "730", "short_name": "730", "types": ["street_number"]}, {"long_name": "Clementi West Street 2", "short_name": "Clementi West Street 2", "types": ["route"]}, {"long_name": "Clementi", "short_name": "Clementi", "types": ["neighborhood", "political"]}, {"long_name": "Singapore", "short_name": "Singapore", "types": ["locality", "political"]}, {"long_name": "Singapore", "short_name": "SG", "types": ["country", "political"]}, {"long_name": "120730", "short_name": "120730", "types": ["postal_code"]}], "formatted_address": "730 Clementi West Street 2, Block 730, Singapore 120730", "geometry": {"bounds": {"northeast": {"lat": 1.3050396, "lng": 103.7633776}, "southwest": {"lat": 1.3044857, "lng": 103.7628775}}, "location": {"lat": 1.3047887, "lng": 103.7631773}, "location_type": "ROOFTOP", "viewport": {"northeast": {"lat": 1.306111630291502, "lng": 103.7644765302915}, "southwest": {"lat": 1.303413669708498, "lng": 103.7617785697085}}}, "place_id": "ChIJe9Yyje0a2jERgfOvGwD0zAU", "types": ["premise"]}