{"address_components": [{"long_name": "Block 13", "short_name": "Block 13", "types": ["premise"]}, {"long_name": "13", "short_name": "13", "types": ["street_number"]}, {"long_name": "Upper Boon Keng Road", "short_name": "Upper Boon Keng Rd", "types": ["route"]}, {"long_name": "Kallang", "short_name": "Kallang", "types": ["neighborhood", "political"]}, {"long_name": "Singapore", "short_name": "Singapore", "types": ["locality", "political"]}, {"long_name": "Singapore", "short_name": "SG", "types": ["country", "political"]}, {"long_name": "380013", "short_name": "380013", "types": ["postal_code"]}], "formatted_address": "13 Upper Boon Keng Rd, Block 13, Singapore 380013", "geometry": {"bounds": {"northeast": {"lat": 1.3148093, "lng": 103.8707778}, "southwest": {"lat": 1.3144203, "lng": 103.8702098}}, "location": {"lat": 1.3145569, "lng": 103.8704735}, "location_type": "ROOFTOP", "viewport": {"northeast": {"lat": 1.315963780291502, "lng": 103.8718427802915}, "southwest": {"lat": 1.313265819708498, "lng": 103.8691448197085}}}, "place_id": "ChIJ-ZJWAjMY2jERykeHOsmLQ08", "types": ["premise"]}