{"address_components": [{"long_name": "Block 540", "short_name": "Block 540", "types": ["premise"]}, {"long_name": "540", "short_name": "540", "types": ["street_number"]}, {"long_name": "Jelapang Road", "short_name": "Jelapang Rd", "types": ["route"]}, {"long_name": "Bukit Panjang", "short_name": "Bukit Panjang", "types": ["neighborhood", "political"]}, {"long_name": "Singapore", "short_name": "Singapore", "types": ["locality", "political"]}, {"long_name": "Singapore", "short_name": "SG", "types": ["country", "political"]}, {"long_name": "670540", "short_name": "670540", "types": ["postal_code"]}], "formatted_address": "540 Jelapang Rd, Block 540, Singapore 670540", "geometry": {"bounds": {"northeast": {"lat": 1.3835533, "lng": 103.7638039}, "southwest": {"lat": 1.3832427, "lng": 103.7633226}}, "location": {"lat": 1.3833751, "lng": 103.76363}, "location_type": "ROOFTOP", "viewport": {"northeast": {"lat": 1.384746980291502, "lng": 103.7649122302915}, "southwest": {"lat": 1.382049019708498, "lng": 103.7622142697085}}}, "place_id": "ChIJKduk_5cR2jERns_hdqxiQUo", "types": ["premise"]}