{"address_components": [{"long_name": "Block 253", "short_name": "Block 253", "types": ["premise"]}, {"long_name": "253", "short_name": "253", "types": ["street_number"]}, {"long_name": "Bukit Batok East Avenue 5", "short_name": "Bukit Batok East Ave 5", "types": ["route"]}, {"long_name": "Bukit Batok", "short_name": "Bukit Batok", "types": ["neighborhood", "political"]}, {"long_name": "Singapore", "short_name": "Singapore", "types": ["locality", "political"]}, {"long_name": "Singapore", "short_name": "SG", "types": ["country", "political"]}, {"long_name": "650253", "short_name": "650253", "types": ["postal_code"]}], "formatted_address": "253 Bukit Batok East Ave 5, Block 253, Singapore 650253", "geometry": {"bounds": {"northeast": {"lat": 1.3504607, "lng": 103.7576054}, "southwest": {"lat": 1.3499207, "lng": 103.7573084}}, "location": {"lat": 1.3502018, "lng": 103.7575001}, "location_type": "ROOFTOP", "viewport": {"northeast": {"lat": 1.351539680291502, "lng": 103.7588058802915}, "southwest": {"lat": 1.348841719708498, "lng": 103.7561079197085}}}, "place_id": "ChIJfS_iU0EQ2jERcvSCrgeMKK0", "types": ["premise"]}