{"address_components": [{"long_name": "Block 192", "short_name": "Block 192", "types": ["premise"]}, {"long_name": "192", "short_name": "192", "types": ["street_number"]}, {"long_name": "Bukit Batok West Avenue 6", "short_name": "Bukit Batok West Ave 6", "types": ["route"]}, {"long_name": "Bukit Batok", "short_name": "Bukit Batok", "types": ["neighborhood", "political"]}, {"long_name": "Singapore", "short_name": "Singapore", "types": ["locality", "political"]}, {"long_name": "Singapore", "short_name": "SG", "types": ["country", "political"]}, {"long_name": "650192", "short_name": "650192", "types": ["postal_code"]}], "formatted_address": "192 Bukit Batok West Ave 6, Block 192, Singapore 650192", "geometry": {"bounds": {"northeast": {"lat": 1.345837, "lng": 103.7451265}, "southwest": {"lat": 1.345486, "lng": 103.7446394}}, "location": {"lat": 1.345697, "lng": 103.7447811}, "location_type": "ROOFTOP", "viewport": {"northeast": {"lat": 1.347010480291502, "lng": 103.7462319302915}, "southwest": {"lat": 1.344312519708498, "lng": 103.7435339697085}}}, "place_id": "ChIJ1SxkHxYQ2jERXp4dt8kpypM", "types": ["premise"]}