{"address_components": [{"long_name": "Block 418", "short_name": "Block 418", "types": ["premise"]}, {"long_name": "418", "short_name": "418", "types": ["street_number"]}, {"long_name": "Ang Mo Kio Avenue 10", "short_name": "Ang Mo Kio Ave 10", "types": ["route"]}, {"long_name": "Ang Mo Kio", "short_name": "Ang Mo Kio", "types": ["neighborhood", "political"]}, {"long_name": "Singapore", "short_name": "Singapore", "types": ["locality", "political"]}, {"long_name": "Singapore", "short_name": "SG", "types": ["country", "political"]}, {"long_name": "560418", "short_name": "560418", "types": ["postal_code"]}], "formatted_address": "418 Ang Mo Kio Ave 10, Block 418, Singapore 560418", "geometry": {"bounds": {"northeast": {"lat": 1.3652761, "lng": 103.8545085}, "southwest": {"lat": 1.364778, "lng": 103.8535202}}, "location": {"lat": 1.365035, "lng": 103.8540079}, "location_type": "ROOFTOP", "viewport": {"northeast": {"lat": 1.366376030291502, "lng": 103.8553633302915}, "southwest": {"lat": 1.363678069708498, "lng": 103.8526653697085}}}, "place_id": "ChIJn-BijOIW2jERrhzvuRJjwLE", "types": ["premise"]}