{"address_components": [{"long_name": "Block 271A", "short_name": "Block 271A", "types": ["premise"]}, {"long_name": "271A", "short_name": "271A", "types": ["street_number"]}, {"long_name": "Jurong West Street 24", "short_name": "Jurong West Street 24", "types": ["route"]}, {"long_name": "Jurong West", "short_name": "Jurong West", "types": ["neighborhood", "political"]}, {"long_name": "Singapore", "short_name": "Singapore", "types": ["locality", "political"]}, {"long_name": "Singapore", "short_name": "SG", "types": ["country", "political"]}, {"long_name": "641271", "short_name": "641271", "types": ["postal_code"]}], "formatted_address": "271A Jurong West Street 24, Block 271A, Singapore 641271", "geometry": {"bounds": {"northeast": {"lat": 1.3511077, "lng": 103.7042913}, "southwest": {"lat": 1.3507057, "lng": 103.7039253}}, "location": {"lat": 1.3508208, "lng": 103.7040787}, "location_type": "ROOFTOP", "viewport": {"northeast": {"lat": 1.352255680291502, "lng": 103.7054572802915}, "southwest": {"lat": 1.349557719708498, "lng": 103.7027593197085}}}, "place_id": "ChIJS7kDy7gP2jERImw7VUp1n_c", "types": ["premise"]}