{"address_components": [{"long_name": "Block 155", "short_name": "Block 155", "types": ["premise"]}, {"long_name": "155", "short_name": "155", "types": ["street_number"]}, {"long_name": "Simei Road", "short_name": "Simei Rd", "types": ["route"]}, {"long_name": "Tampines", "short_name": "Tampines", "types": ["neighborhood", "political"]}, {"long_name": "Singapore", "short_name": "Singapore", "types": ["locality", "political"]}, {"long_name": "Singapore", "short_name": "SG", "types": ["country", "political"]}, {"long_name": "520155", "short_name": "520155", "types": ["postal_code"]}], "formatted_address": "155 Simei Rd, Block 155, Singapore 520155", "geometry": {"bounds": {"northeast": {"lat": 1.3449678, "lng": 103.9590148}, "southwest": {"lat": 1.3446338, "lng": 103.9579848}}, "location": {"lat": 1.3447278, "lng": 103.9584973}, "location_type": "ROOFTOP", "viewport": {"northeast": {"lat": 1.346149780291502, "lng": 103.9598487802915}, "southwest": {"lat": 1.343451819708498, "lng": 103.9571508197085}}}, "place_id": "ChIJHe6phx892jERrV7htRrFgLY", "types": ["premise"]}