{"address_components": [{"long_name": "Block 124B", "short_name": "Block 124B", "types": ["premise"]}, {"long_name": "124B", "short_name": "124B", "types": ["street_number"]}, {"long_name": "Bukit Merah View", "short_name": "Bukit Merah View", "types": ["route"]}, {"long_name": "Bukit Merah", "short_name": "Bukit Merah", "types": ["neighborhood", "political"]}, {"long_name": "Singapore", "short_name": "Singapore", "types": ["locality", "political"]}, {"long_name": "Singapore", "short_name": "SG", "types": ["country", "political"]}, {"long_name": "152124", "short_name": "152124", "types": ["postal_code"]}], "formatted_address": "124B Bukit Merah View, Block 124B, Singapore 152124", "geometry": {"bounds": {"northeast": {"lat": 1.2855036, "lng": 103.8234213}, "southwest": {"lat": 1.2850696, "lng": 103.8228133}}, "location": {"lat": 1.2853651, "lng": 103.8231205}, "location_type": "ROOFTOP", "viewport": {"northeast": {"lat": 1.286635580291502, "lng": 103.8244662802915}, "southwest": {"lat": 1.283937619708498, "lng": 103.8217683197085}}}, "place_id": "ChIJ5_AhE34Z2jER-BwTA12dVZ4", "types": ["premise"]}