{"address_components": [{"long_name": "Block 683A", "short_name": "Block 683A", "types": ["premise"]}, {"long_name": "683A", "short_name": "683A", "types": ["street_number"]}, {"long_name": "Jurong West Central 1", "short_name": "Jurong West Central 1", "types": ["route"]}, {"long_name": "Jurong West", "short_name": "Jurong West", "types": ["neighborhood", "political"]}, {"long_name": "Singapore", "short_name": "Singapore", "types": ["locality", "political"]}, {"long_name": "Singapore", "short_name": "SG", "types": ["country", "political"]}, {"long_name": "641683", "short_name": "641683", "types": ["postal_code"]}], "formatted_address": "683A Jurong West Central 1, Block 683A, Singapore 641683", "geometry": {"bounds": {"northeast": {"lat": 1.342826, "lng": 103.705072}, "southwest": {"lat": 1.342524, "lng": 103.704757}}, "location": {"lat": 1.342677, "lng": 103.7048897}, "location_type": "ROOFTOP", "viewport": {"northeast": {"lat": 1.344023980291502, "lng": 103.7062634802915}, "southwest": {"lat": 1.341326019708498, "lng": 103.7035655197085}}}, "place_id": "ChIJ9_q5x5QP2jERhY-oS3gVo_Y", "types": ["premise"]}