{"address_components": [{"long_name": "Block 815", "short_name": "Block 815", "types": ["premise"]}, {"long_name": "815", "short_name": "815", "types": ["street_number"]}, {"long_name": "Jellicoe Road", "short_name": "Jellicoe Rd", "types": ["route"]}, {"long_name": "Kallang", "short_name": "Kallang", "types": ["neighborhood", "political"]}, {"long_name": "Singapore", "short_name": "Singapore", "types": ["locality", "political"]}, {"long_name": "Singapore", "short_name": "SG", "types": ["country", "political"]}, {"long_name": "200815", "short_name": "200815", "types": ["postal_code"]}], "formatted_address": "815 Jellicoe Rd, Block 815, Singapore 200815", "geometry": {"bounds": {"northeast": {"lat": 1.307061, "lng": 103.8618939}, "southwest": {"lat": 1.3067511, "lng": 103.861488}}, "location": {"lat": 1.3068711, "lng": 103.8616176}, "location_type": "ROOFTOP", "viewport": {"northeast": {"lat": 1.308255030291502, "lng": 103.8630399302915}, "southwest": {"lat": 1.305557069708498, "lng": 103.8603419697085}}}, "place_id": "ChIJD7aMDrYZ2jERMoEmncxPObo", "types": ["premise"]}