{"address_components": [{"long_name": "Block 159", "short_name": "Block 159", "types": ["premise"]}, {"long_name": "159", "short_name": "159", "types": ["street_number"]}, {"long_name": "Hougang Street 11", "short_name": "Hougang Street 11", "types": ["route"]}, {"long_name": "Hougang", "short_name": "Hougang", "types": ["neighborhood", "political"]}, {"long_name": "Singapore", "short_name": "Singapore", "types": ["locality", "political"]}, {"long_name": "Singapore", "short_name": "SG", "types": ["country", "political"]}, {"long_name": "530159", "short_name": "530159", "types": ["postal_code"]}], "formatted_address": "159 Hougang Street 11, Block 159, Singapore 530159", "geometry": {"bounds": {"northeast": {"lat": 1.3517579, "lng": 103.879833}, "southwest": {"lat": 1.351419, "lng": 103.879002}}, "location": {"lat": 1.3514844, "lng": 103.8793753}, "location_type": "ROOFTOP", "viewport": {"northeast": {"lat": 1.352937430291502, "lng": 103.8807664802915}, "southwest": {"lat": 1.350239469708498, "lng": 103.8780685197085}}}, "place_id": "ChIJuTxg0qQX2jERjqNVZIeo3UY", "types": ["premise"]}