{"address_components": [{"long_name": "Block 234", "short_name": "Block 234", "types": ["premise"]}, {"long_name": "234", "short_name": "234", "types": ["street_number"]}, {"long_name": "Simei Street 4", "short_name": "Simei Street 4", "types": ["route"]}, {"long_name": "Tampines", "short_name": "Tampines", "types": ["neighborhood", "political"]}, {"long_name": "Singapore", "short_name": "Singapore", "types": ["locality", "political"]}, {"long_name": "Singapore", "short_name": "SG", "types": ["country", "political"]}, {"long_name": "520234", "short_name": "520234", "types": ["postal_code"]}], "formatted_address": "234 Simei Street 4, Block 234, Singapore 520234", "geometry": {"bounds": {"northeast": {"lat": 1.3438229, "lng": 103.9557945}, "southwest": {"lat": 1.343037, "lng": 103.9550305}}, "location": {"lat": 1.343429, "lng": 103.9553243}, "location_type": "ROOFTOP", "viewport": {"northeast": {"lat": 1.344778930291502, "lng": 103.9567614802915}, "southwest": {"lat": 1.342080969708498, "lng": 103.9540635197085}}}, "place_id": "ChIJ44JV8yE92jERPMViLMsW-Lw", "types": ["premise"]}