{"address_components": [{"long_name": "307D", "short_name": "307D", "types": ["street_number"]}, {"long_name": "Anchorvale Road", "short_name": "Anchorvale Rd", "types": ["route"]}, {"long_name": "Sengkang", "short_name": "Sengkang", "types": ["neighborhood", "political"]}, {"long_name": "Singapore", "short_name": "Singapore", "types": ["locality", "political"]}, {"long_name": "Singapore", "short_name": "SG", "types": ["country", "political"]}, {"long_name": "544307", "short_name": "544307", "types": ["postal_code"]}], "formatted_address": "307D Anchorvale Rd, Singapore 544307", "geometry": {"bounds": {"northeast": {"lat": 1.3906293, "lng": 103.8864664}, "southwest": {"lat": 1.390195, "lng": 103.8859416}}, "location": {"lat": 1.3904153, "lng": 103.8861709}, "location_type": "ROOFTOP", "viewport": {"northeast": {"lat": 1.391761130291502, "lng": 103.8875529802915}, "southwest": {"lat": 1.389063169708498, "lng": 103.8848550197085}}}, "place_id": "ChIJD9m8xG0W2jERBJk6cAa2atc", "types": ["premise"]}