{"address_components": [{"long_name": "Block 605", "short_name": "Block 605", "types": ["premise"]}, {"long_name": "605", "short_name": "605", "types": ["street_number"]}, {"long_name": "Woodlands Drive 42", "short_name": "Woodlands Drive 42", "types": ["route"]}, {"long_name": "Woodlands", "short_name": "Woodlands", "types": ["neighborhood", "political"]}, {"long_name": "Singapore", "short_name": "Singapore", "types": ["locality", "political"]}, {"long_name": "Singapore", "short_name": "SG", "types": ["country", "political"]}, {"long_name": "730605", "short_name": "730605", "types": ["postal_code"]}], "formatted_address": "605 Woodlands Drive 42, Block 605, Singapore 730605", "geometry": {"bounds": {"northeast": {"lat": 1.4376269, "lng": 103.7972551}, "southwest": {"lat": 1.437127, "lng": 103.796892}}, "location": {"lat": 1.4373269, "lng": 103.7971977}, "location_type": "ROOFTOP", "viewport": {"northeast": {"lat": 1.438725930291502, "lng": 103.7984225302915}, "southwest": {"lat": 1.436027969708498, "lng": 103.7957245697085}}}, "place_id": "ChIJ9QkNNqAT2jERBp_Mo1hxjjA", "types": ["premise"]}