{"address_components": [{"long_name": "Block 876", "short_name": "Block 876", "types": ["premise"]}, {"long_name": "876", "short_name": "876", "types": ["street_number"]}, {"long_name": "Woodlands Avenue 9", "short_name": "Woodlands Ave 9", "types": ["route"]}, {"long_name": "Woodlands", "short_name": "Woodlands", "types": ["neighborhood", "political"]}, {"long_name": "Singapore", "short_name": "Singapore", "types": ["locality", "political"]}, {"long_name": "Singapore", "short_name": "SG", "types": ["country", "political"]}, {"long_name": "730876", "short_name": "730876", "types": ["postal_code"]}], "formatted_address": "876 Woodlands Ave 9, Block 876, Singapore 730876", "geometry": {"bounds": {"northeast": {"lat": 1.444967, "lng": 103.790891}, "southwest": {"lat": 1.4443929, "lng": 103.7902069}}, "location": {"lat": 1.444782, "lng": 103.7905423}, "location_type": "ROOFTOP", "viewport": {"northeast": {"lat": 1.446028930291502, "lng": 103.7918979302915}, "southwest": {"lat": 1.443330969708498, "lng": 103.7891999697085}}}, "place_id": "ChIJIZ3zzw4T2jERWR_fJuA7HTY", "types": ["premise"]}