{"address_components": [{"long_name": "Block 879", "short_name": "Block 879", "types": ["premise"]}, {"long_name": "879", "short_name": "879", "types": ["street_number"]}, {"long_name": "Yishun Street 81", "short_name": "Yishun Street 81", "types": ["route"]}, {"long_name": "Yishun", "short_name": "Yishun", "types": ["neighborhood", "political"]}, {"long_name": "Singapore", "short_name": "Singapore", "types": ["locality", "political"]}, {"long_name": "Singapore", "short_name": "SG", "types": ["country", "political"]}, {"long_name": "760879", "short_name": "760879", "types": ["postal_code"]}], "formatted_address": "879 Yishun Street 81, Block 879, Singapore 760879", "geometry": {"bounds": {"northeast": {"lat": 1.4147136, "lng": 103.836599}, "southwest": {"lat": 1.4141866, "lng": 103.8357327}}, "location": {"lat": 1.4143978, "lng": 103.8362536}, "location_type": "ROOFTOP", "viewport": {"northeast": {"lat": 1.415799080291502, "lng": 103.8375148302915}, "southwest": {"lat": 1.413101119708498, "lng": 103.8348168697085}}}, "place_id": "ChIJTUgioBEU2jERnaOKHMHx9-U", "types": ["premise"]}