{"address_components": [{"long_name": "Block 710", "short_name": "Block 710", "types": ["premise"]}, {"long_name": "710", "short_name": "710", "types": ["street_number"]}, {"long_name": "Woodlands Drive 70", "short_name": "Woodlands Drive 70", "types": ["route"]}, {"long_name": "Woodlands", "short_name": "Woodlands", "types": ["neighborhood", "political"]}, {"long_name": "Singapore", "short_name": "Singapore", "types": ["locality", "political"]}, {"long_name": "Singapore", "short_name": "SG", "types": ["country", "political"]}, {"long_name": "730710", "short_name": "730710", "types": ["postal_code"]}], "formatted_address": "710 Woodlands Drive 70, Block 710, Singapore 730710", "geometry": {"bounds": {"northeast": {"lat": 1.440883, "lng": 103.7977471}, "southwest": {"lat": 1.440479, "lng": 103.7970299}}, "location": {"lat": 1.4407566, "lng": 103.797492}, "location_type": "ROOFTOP", "viewport": {"northeast": {"lat": 1.442029980291502, "lng": 103.7987374802915}, "southwest": {"lat": 1.439332019708498, "lng": 103.7960395197085}}}, "place_id": "ChIJY84xxwoT2jERh4QOC5RcmNo", "types": ["premise"]}