{"address_components": [{"long_name": "673B", "short_name": "673B", "types": ["street_number"]}, {"long_name": "Edgefield Plains", "short_name": "Edgefield Plains", "types": ["route"]}, {"long_name": "Punggol", "short_name": "Punggol", "types": ["neighborhood", "political"]}, {"long_name": "Singapore", "short_name": "Singapore", "types": ["locality", "political"]}, {"long_name": "Singapore", "short_name": "SG", "types": ["country", "political"]}, {"long_name": "822673", "short_name": "822673", "types": ["postal_code"]}], "formatted_address": "673B Edgefield Plains, Singapore 822673", "geometry": {"bounds": {"northeast": {"lat": 1.4070688, "lng": 103.9113011}, "southwest": {"lat": 1.4068408, "lng": 103.9109471}}, "location": {"lat": 1.4069768, "lng": 103.9110911}, "location_type": "ROOFTOP", "viewport": {"northeast": {"lat": 1.408303780291502, "lng": 103.9124730802915}, "southwest": {"lat": 1.405605819708498, "lng": 103.9097751197085}}}, "place_id": "ChIJPX0eIvkV2jER9Swce_0im7s", "types": ["establishment", "premise"]}