{"address_components": [{"long_name": "Block 618", "short_name": "Block 618", "types": ["premise"]}, {"long_name": "618", "short_name": "618", "types": ["street_number"]}, {"long_name": "Senja Road", "short_name": "Senja Rd", "types": ["route"]}, {"long_name": "Bukit Panjang", "short_name": "Bukit Panjang", "types": ["neighborhood", "political"]}, {"long_name": "Singapore", "short_name": "Singapore", "types": ["locality", "political"]}, {"long_name": "Singapore", "short_name": "SG", "types": ["country", "political"]}, {"long_name": "670618", "short_name": "670618", "types": ["postal_code"]}], "formatted_address": "618 Senja Rd, Block 618, Singapore 670618", "geometry": {"bounds": {"northeast": {"lat": 1.3856168, "lng": 103.7614821}, "southwest": {"lat": 1.3851589, "lng": 103.761036}}, "location": {"lat": 1.3854234, "lng": 103.7612989}, "location_type": "ROOFTOP", "viewport": {"northeast": {"lat": 1.386736830291502, "lng": 103.7626080302915}, "southwest": {"lat": 1.384038869708498, "lng": 103.7599100697085}}}, "place_id": "ChIJba5IqZcR2jERuBPJrgJ4Vto", "types": ["premise"]}