{"address_components": [{"long_name": "Block 169", "short_name": "Block 169", "types": ["premise"]}, {"long_name": "169", "short_name": "169", "types": ["street_number"]}, {"long_name": "Bedok South Avenue 3", "short_name": "Bedok South Ave 3", "types": ["route"]}, {"long_name": "Bedok", "short_name": "Bedok", "types": ["neighborhood", "political"]}, {"long_name": "Singapore", "short_name": "Singapore", "types": ["locality", "political"]}, {"long_name": "Singapore", "short_name": "SG", "types": ["country", "political"]}, {"long_name": "460169", "short_name": "460169", "types": ["postal_code"]}], "formatted_address": "169 Bedok South Ave 3, Block 169, Singapore 460169", "geometry": {"bounds": {"northeast": {"lat": 1.320611, "lng": 103.9454935}, "southwest": {"lat": 1.320167, "lng": 103.9446936}}, "location": {"lat": 1.3203356, "lng": 103.9449444}, "location_type": "ROOFTOP", "viewport": {"northeast": {"lat": 1.321737980291502, "lng": 103.9464425302915}, "southwest": {"lat": 1.319040019708498, "lng": 103.9437445697085}}}, "place_id": "ChIJlzagls4i2jER_QfMiqA51Zo", "types": ["premise"]}