{"address_components": [{"long_name": "Block 141", "short_name": "Block 141", "types": ["premise"]}, {"long_name": "141", "short_name": "141", "types": ["street_number"]}, {"long_name": "Bedok Reservoir Road", "short_name": "Bedok Reservoir Rd", "types": ["route"]}, {"long_name": "Bedok", "short_name": "Bedok", "types": ["neighborhood", "political"]}, {"long_name": "Singapore", "short_name": "Singapore", "types": ["locality", "political"]}, {"long_name": "Singapore", "short_name": "SG", "types": ["country", "political"]}, {"long_name": "470141", "short_name": "470141", "types": ["postal_code"]}], "formatted_address": "141 Bedok Reservoir Rd, Block 141, Singapore 470141", "geometry": {"bounds": {"northeast": {"lat": 1.3356274, "lng": 103.9138093}, "southwest": {"lat": 1.3351294, "lng": 103.9129385}}, "location": {"lat": 1.335547, "lng": 103.9137193}, "location_type": "ROOFTOP", "viewport": {"northeast": {"lat": 1.336727380291502, "lng": 103.9147228802915}, "southwest": {"lat": 1.334029419708498, "lng": 103.9120249197085}}}, "place_id": "ChIJuwhDTP0X2jEREcDPrZSYghc", "types": ["premise"]}