{"address_components": [{"long_name": "Block 57", "short_name": "Block 57", "types": ["premise"]}, {"long_name": "57", "short_name": "57", "types": ["street_number"]}, {"long_name": "Telok Blangah Heights", "short_name": "Telok Blangah Heights", "types": ["route"]}, {"long_name": "Bukit Merah", "short_name": "Bukit Merah", "types": ["neighborhood", "political"]}, {"long_name": "Singapore", "short_name": "Singapore", "types": ["locality", "political"]}, {"long_name": "Singapore", "short_name": "SG", "types": ["country", "political"]}, {"long_name": "100057", "short_name": "100057", "types": ["postal_code"]}], "formatted_address": "57 Telok Blangah Heights, Block 57, Singapore 100057", "geometry": {"bounds": {"northeast": {"lat": 1.27489, "lng": 103.8130899}, "southwest": {"lat": 1.274332, "lng": 103.8119669}}, "location": {"lat": 1.2746029, "lng": 103.8125244}, "location_type": "ROOFTOP", "viewport": {"northeast": {"lat": 1.275959980291502, "lng": 103.8138773802915}, "southwest": {"lat": 1.273262019708498, "lng": 103.8111794197085}}}, "place_id": "ChIJ5WNQj9wb2jERA70_3A_SiVk", "types": ["premise"]}