{"address_components": [{"long_name": "Block 736", "short_name": "Block 736", "types": ["premise"]}, {"long_name": "736", "short_name": "736", "types": ["street_number"]}, {"long_name": "Tampines Street 72", "short_name": "Tampines Street 72", "types": ["route"]}, {"long_name": "Tampines", "short_name": "Tampines", "types": ["neighborhood", "political"]}, {"long_name": "Singapore", "short_name": "Singapore", "types": ["locality", "political"]}, {"long_name": "Singapore", "short_name": "SG", "types": ["country", "political"]}, {"long_name": "520736", "short_name": "520736", "types": ["postal_code"]}], "formatted_address": "736 Tampines Street 72, Block 736, Singapore 520736", "geometry": {"bounds": {"northeast": {"lat": 1.3594097, "lng": 103.9344515}, "southwest": {"lat": 1.3587526, "lng": 103.9342064}}, "location": {"lat": 1.3590699, "lng": 103.9343843}, "location_type": "ROOFTOP", "viewport": {"northeast": {"lat": 1.360430130291502, "lng": 103.9356779302915}, "southwest": {"lat": 1.357732169708498, "lng": 103.9329799697085}}}, "place_id": "ChIJfztPeXQ92jERsCAOt_5zOjg", "types": ["premise"]}