{"address_components": [{"long_name": "Block 541", "short_name": "Block 541", "types": ["premise"]}, {"long_name": "541", "short_name": "541", "types": ["street_number"]}, {"long_name": "Bukit Panjang Ring Road", "short_name": "Bukit Panjang Ring Rd", "types": ["route"]}, {"long_name": "Bukit Panjang", "short_name": "Bukit Panjang", "types": ["neighborhood", "political"]}, {"long_name": "Singapore", "short_name": "Singapore", "types": ["locality", "political"]}, {"long_name": "Singapore", "short_name": "SG", "types": ["country", "political"]}, {"long_name": "670541", "short_name": "670541", "types": ["postal_code"]}], "formatted_address": "541 Bukit Panjang Ring Rd, Block 541, Singapore 670541", "geometry": {"bounds": {"northeast": {"lat": 1.3828069, "lng": 103.763612}, "southwest": {"lat": 1.3822479, "lng": 103.7629971}}, "location": {"lat": 1.3825885, "lng": 103.763381}, "location_type": "ROOFTOP", "viewport": {"northeast": {"lat": 1.383876380291502, "lng": 103.7646535302915}, "southwest": {"lat": 1.381178419708498, "lng": 103.7619555697085}}}, "place_id": "ChIJyVqATr0R2jERJs8qaT_BrYc", "types": ["premise"]}