{"address_components": [{"long_name": "118", "short_name": "118", "types": ["street_number"]}, {"long_name": "Yishun Ring Road", "short_name": "Yishun Ring Rd", "types": ["route"]}, {"long_name": "Yishun", "short_name": "Yishun", "types": ["neighborhood", "political"]}, {"long_name": "Singapore", "short_name": "Singapore", "types": ["locality", "political"]}, {"long_name": "Singapore", "short_name": "SG", "types": ["country", "political"]}, {"long_name": "760118", "short_name": "760118", "types": ["postal_code"]}], "formatted_address": "118 Yishun Ring Rd, Singapore 760118", "geometry": {"bounds": {"northeast": {"lat": 1.4360562, "lng": 103.8291318}, "southwest": {"lat": 1.4356073, "lng": 103.8280959}}, "location": {"lat": 1.436015, "lng": 103.8284641}, "location_type": "ROOFTOP", "viewport": {"northeast": {"lat": 1.437180730291502, "lng": 103.8299628302915}, "southwest": {"lat": 1.434482769708498, "lng": 103.8272648697085}}}, "place_id": "ChIJg_ScPnwU2jERE7FhTDcZLjk", "types": ["premise"]}