{"address_components": [{"long_name": "Block 405", "short_name": "Block 405", "types": ["premise"]}, {"long_name": "405", "short_name": "405", "types": ["street_number"]}, {"long_name": "Choa Chu Kang Avenue 3", "short_name": "Choa Chu Kang Ave 3", "types": ["route"]}, {"long_name": "Choa Chu Kang", "short_name": "Choa Chu Kang", "types": ["neighborhood", "political"]}, {"long_name": "Singapore", "short_name": "Singapore", "types": ["locality", "political"]}, {"long_name": "Singapore", "short_name": "SG", "types": ["country", "political"]}, {"long_name": "680405", "short_name": "680405", "types": ["postal_code"]}], "formatted_address": "405 Choa Chu Kang Ave 3, Block 405, Singapore 680405", "geometry": {"bounds": {"northeast": {"lat": 1.3803, "lng": 103.739641}, "southwest": {"lat": 1.3799111, "lng": 103.739224}}, "location": {"lat": 1.3801448, "lng": 103.7395515}, "location_type": "ROOFTOP", "viewport": {"northeast": {"lat": 1.381454530291502, "lng": 103.7407814802915}, "southwest": {"lat": 1.378756569708498, "lng": 103.7380835197085}}}, "place_id": "ChIJpWzKxtwR2jERyzORjNcqwE4", "types": ["premise"]}