{"address_components": [{"long_name": "Block 105", "short_name": "Block 105", "types": ["premise"]}, {"long_name": "105", "short_name": "105", "types": ["street_number"]}, {"long_name": "Woodlands Street 13", "short_name": "Woodlands Street 13", "types": ["route"]}, {"long_name": "Woodlands", "short_name": "Woodlands", "types": ["neighborhood", "political"]}, {"long_name": "Singapore", "short_name": "Singapore", "types": ["locality", "political"]}, {"long_name": "Singapore", "short_name": "SG", "types": ["country", "political"]}, {"long_name": "730105", "short_name": "730105", "types": ["postal_code"]}], "formatted_address": "105 Woodlands Street 13, Block 105, Singapore 730105", "geometry": {"bounds": {"northeast": {"lat": 1.436936, "lng": 103.7820053}, "southwest": {"lat": 1.436782, "lng": 103.7811593}}, "location": {"lat": 1.436891, "lng": 103.7815558}, "location_type": "ROOFTOP", "viewport": {"northeast": {"lat": 1.438207980291502, "lng": 103.7829312802915}, "southwest": {"lat": 1.435510019708498, "lng": 103.7802333197085}}}, "place_id": "ChIJuxRgeakT2jERBwvSYrhMrxk", "types": ["premise"]}