{"address_components": [{"long_name": "Block 643", "short_name": "Block 643", "types": ["premise"]}, {"long_name": "643", "short_name": "643", "types": ["street_number"]}, {"long_name": "Ang Mo Kio Avenue 5", "short_name": "Ang Mo Kio Ave 5", "types": ["route"]}, {"long_name": "Ang Mo Kio", "short_name": "Ang Mo Kio", "types": ["neighborhood", "political"]}, {"long_name": "Singapore", "short_name": "Singapore", "types": ["locality", "political"]}, {"long_name": "Singapore", "short_name": "SG", "types": ["country", "political"]}, {"long_name": "560643", "short_name": "560643", "types": ["postal_code"]}], "formatted_address": "643 Ang Mo Kio Ave 5, Block 643, Singapore 560643", "geometry": {"bounds": {"northeast": {"lat": 1.377618, "lng": 103.8409809}, "southwest": {"lat": 1.377372, "lng": 103.839967}}, "location": {"lat": 1.3774964, "lng": 103.8405108}, "location_type": "ROOFTOP", "viewport": {"northeast": {"lat": 1.378843980291502, "lng": 103.8418229302915}, "southwest": {"lat": 1.376146019708498, "lng": 103.8391249697085}}}, "place_id": "ChIJg9CnwsMW2jERa03b58WsF7A", "types": ["premise"]}