{"address_components": [{"long_name": "Block 262", "short_name": "Block 262", "types": ["premise"]}, {"long_name": "262", "short_name": "262", "types": ["street_number"]}, {"long_name": "Bukit Batok East Avenue 4", "short_name": "Bukit Batok East Ave 4", "types": ["route"]}, {"long_name": "Bukit Batok", "short_name": "Bukit Batok", "types": ["neighborhood", "political"]}, {"long_name": "Singapore", "short_name": "Singapore", "types": ["locality", "political"]}, {"long_name": "Singapore", "short_name": "SG", "types": ["country", "political"]}, {"long_name": "650262", "short_name": "650262", "types": ["postal_code"]}], "formatted_address": "262 Bukit Batok East Ave 4, Block 262, Singapore 650262", "geometry": {"bounds": {"northeast": {"lat": 1.3507901, "lng": 103.7595669}, "southwest": {"lat": 1.350565, "lng": 103.7591189}}, "location": {"lat": 1.3506309, "lng": 103.7593107}, "location_type": "ROOFTOP", "viewport": {"northeast": {"lat": 1.352026530291502, "lng": 103.7606918802915}, "southwest": {"lat": 1.349328569708498, "lng": 103.7579939197085}}}, "place_id": "ChIJbyVBC0QQ2jERLB8ZFsoJnek", "types": ["premise"]}