{"address_components": [{"long_name": "Block 399", "short_name": "Block 399", "types": ["premise"]}, {"long_name": "399", "short_name": "399", "types": ["street_number"]}, {"long_name": "Yishun Avenue 6", "short_name": "Yishun Ave 6", "types": ["route"]}, {"long_name": "Yishun", "short_name": "Yishun", "types": ["neighborhood", "political"]}, {"long_name": "Singapore", "short_name": "Singapore", "types": ["locality", "political"]}, {"long_name": "Singapore", "short_name": "SG", "types": ["country", "political"]}, {"long_name": "760399", "short_name": "760399", "types": ["postal_code"]}], "formatted_address": "399 Yishun Ave 6, Block 399, Singapore 760399", "geometry": {"bounds": {"northeast": {"lat": 1.4275985, "lng": 103.8478014}, "southwest": {"lat": 1.4274539, "lng": 103.8468539}}, "location": {"lat": 1.4275343, "lng": 103.8473045}, "location_type": "ROOFTOP", "viewport": {"northeast": {"lat": 1.428875180291502, "lng": 103.8486766302915}, "southwest": {"lat": 1.426177219708498, "lng": 103.8459786697085}}}, "place_id": "ChIJUdxP-UIU2jERCl53FQvjV4Y", "types": ["premise"]}