{"address_components": [{"long_name": "Block 602", "short_name": "Block 602", "types": ["premise"]}, {"long_name": "602", "short_name": "602", "types": ["street_number"]}, {"long_name": "Woodlands Drive 42", "short_name": "Woodlands Drive 42", "types": ["route"]}, {"long_name": "Woodlands", "short_name": "Woodlands", "types": ["neighborhood", "political"]}, {"long_name": "Singapore", "short_name": "Singapore", "types": ["locality", "political"]}, {"long_name": "Singapore", "short_name": "SG", "types": ["country", "political"]}, {"long_name": "730602", "short_name": "730602", "types": ["postal_code"]}], "formatted_address": "602 Woodlands Drive 42, Block 602, Singapore 730602", "geometry": {"bounds": {"northeast": {"lat": 1.438438, "lng": 103.7967729}, "southwest": {"lat": 1.4379249, "lng": 103.795938}}, "location": {"lat": 1.4381948, "lng": 103.7963148}, "location_type": "ROOFTOP", "viewport": {"northeast": {"lat": 1.439530430291502, "lng": 103.7977044302915}, "southwest": {"lat": 1.436832469708498, "lng": 103.7950064697085}}}, "place_id": "ChIJZ5S9QqAT2jEREcc1NLRtQjQ", "types": ["premise"]}