{"address_components": [{"long_name": "Block 418", "short_name": "Block 418", "types": ["premise"]}, {"long_name": "418", "short_name": "418", "types": ["street_number"]}, {"long_name": "Woodlands Street 41", "short_name": "Woodlands Street 41", "types": ["route"]}, {"long_name": "Woodlands", "short_name": "Woodlands", "types": ["neighborhood", "political"]}, {"long_name": "Singapore", "short_name": "Singapore", "types": ["locality", "political"]}, {"long_name": "Singapore", "short_name": "SG", "types": ["country", "political"]}, {"long_name": "730418", "short_name": "730418", "types": ["postal_code"]}], "formatted_address": "418 Woodlands Street 41, Block 418, Singapore 730418", "geometry": {"bounds": {"northeast": {"lat": 1.4290985, "lng": 103.7753409}, "southwest": {"lat": 1.4288332, "lng": 103.774365}}, "location": {"lat": 1.4290054, "lng": 103.774856}, "location_type": "ROOFTOP", "viewport": {"northeast": {"lat": 1.430314830291502, "lng": 103.7762019302915}, "southwest": {"lat": 1.427616869708498, "lng": 103.7735039697085}}}, "place_id": "ChIJMxP7Nk0S2jERQUmu2W_G9aQ", "types": ["premise"]}