{"address_components": [{"long_name": "Block 664", "short_name": "Block 664", "types": ["premise"]}, {"long_name": "664", "short_name": "664", "types": ["street_number"]}, {"long_name": "Woodlands Ring Road", "short_name": "Woodlands Ring Rd", "types": ["route"]}, {"long_name": "Woodlands", "short_name": "Woodlands", "types": ["neighborhood", "political"]}, {"long_name": "Singapore", "short_name": "Singapore", "types": ["locality", "political"]}, {"long_name": "Singapore", "short_name": "SG", "types": ["country", "political"]}, {"long_name": "730664", "short_name": "730664", "types": ["postal_code"]}], "formatted_address": "664 Woodlands Ring Rd, Block 664, Singapore 730664", "geometry": {"bounds": {"northeast": {"lat": 1.4365429, "lng": 103.797995}, "southwest": {"lat": 1.4358051, "lng": 103.797714}}, "location": {"lat": 1.4363504, "lng": 103.7978542}, "location_type": "ROOFTOP", "viewport": {"northeast": {"lat": 1.437522980291502, "lng": 103.7992034802915}, "southwest": {"lat": 1.434825019708498, "lng": 103.7965055197085}}}, "place_id": "ChIJQy1926ET2jER2nPzuHiEf_c", "types": ["premise"]}