{"address_components": [{"long_name": "Block 854", "short_name": "Block 854", "types": ["premise"]}, {"long_name": "854", "short_name": "854", "types": ["street_number"]}, {"long_name": "Tampines Street 82", "short_name": "Tampines Street 82", "types": ["route"]}, {"long_name": "Tampines", "short_name": "Tampines", "types": ["neighborhood", "political"]}, {"long_name": "Singapore", "short_name": "Singapore", "types": ["locality", "political"]}, {"long_name": "Singapore", "short_name": "SG", "types": ["country", "political"]}, {"long_name": "520854", "short_name": "520854", "types": ["postal_code"]}], "formatted_address": "854 Tampines Street 82, Block 854, Singapore 520854", "geometry": {"bounds": {"northeast": {"lat": 1.353228, "lng": 103.9369401}, "southwest": {"lat": 1.3528201, "lng": 103.9361949}}, "location": {"lat": 1.3529801, "lng": 103.9366504}, "location_type": "ROOFTOP", "viewport": {"northeast": {"lat": 1.354373030291502, "lng": 103.9379164802915}, "southwest": {"lat": 1.351675069708498, "lng": 103.9352185197085}}}, "place_id": "ChIJgUU4R2092jER4I3oD-_A7hs", "types": ["premise"]}