{"address_components": [{"long_name": "Block 5", "short_name": "Block 5", "types": ["premise"]}, {"long_name": "5", "short_name": "5", "types": ["street_number"]}, {"long_name": "Boon Keng Road", "short_name": "Boon Keng Rd", "types": ["route"]}, {"long_name": "Kallang", "short_name": "Kallang", "types": ["neighborhood", "political"]}, {"long_name": "Singapore", "short_name": "Singapore", "types": ["locality", "political"]}, {"long_name": "Singapore", "short_name": "SG", "types": ["country", "political"]}, {"long_name": "330005", "short_name": "330005", "types": ["postal_code"]}], "formatted_address": "5 Boon Keng Rd, Block 5, Singapore 330005", "geometry": {"bounds": {"northeast": {"lat": 1.3169221, "lng": 103.8607234}, "southwest": {"lat": 1.3161781, "lng": 103.8600872}}, "location": {"lat": 1.316755, "lng": 103.8604412}, "location_type": "ROOFTOP", "viewport": {"northeast": {"lat": 1.317899080291502, "lng": 103.8617542802915}, "southwest": {"lat": 1.315201119708498, "lng": 103.8590563197085}}}, "place_id": "ChIJ70LGJM4Z2jERBgtBuC7rakI", "types": ["premise"]}