{"address_components": [{"long_name": "Block 775", "short_name": "Block 775", "types": ["premise"]}, {"long_name": "775", "short_name": "775", "types": ["street_number"]}, {"long_name": "Pasir Ris Street 71", "short_name": "Pasir Ris Street 71", "types": ["route"]}, {"long_name": "Pasir Ris", "short_name": "Pasir Ris", "types": ["neighborhood", "political"]}, {"long_name": "Singapore", "short_name": "Singapore", "types": ["locality", "political"]}, {"long_name": "Singapore", "short_name": "SG", "types": ["country", "political"]}, {"long_name": "510775", "short_name": "510775", "types": ["postal_code"]}], "formatted_address": "775 Pasir Ris Street 71, Block 775, Singapore 510775", "geometry": {"bounds": {"northeast": {"lat": 1.374547, "lng": 103.9372189}, "southwest": {"lat": 1.3740819, "lng": 103.9368988}}, "location": {"lat": 1.3742675, "lng": 103.9370809}, "location_type": "ROOFTOP", "viewport": {"northeast": {"lat": 1.375663430291502, "lng": 103.9384078302915}, "southwest": {"lat": 1.372965469708498, "lng": 103.9357098697085}}}, "place_id": "ChIJSTZTw5c92jERwY6q93GbRV4", "types": ["premise"]}