{"address_components": [{"long_name": "Block 14", "short_name": "Block 14", "types": ["premise"]}, {"long_name": "14", "short_name": "14", "types": ["street_number"]}, {"long_name": "Toh Yi Drive", "short_name": "Toh Yi Dr", "types": ["route"]}, {"long_name": "Bukit Timah", "short_name": "Bukit Timah", "types": ["neighborhood", "political"]}, {"long_name": "Singapore", "short_name": "Singapore", "types": ["locality", "political"]}, {"long_name": "Singapore", "short_name": "SG", "types": ["country", "political"]}, {"long_name": "590014", "short_name": "590014", "types": ["postal_code"]}], "formatted_address": "14 Toh Yi Dr, Block 14, Singapore 590014", "geometry": {"bounds": {"northeast": {"lat": 1.339182, "lng": 103.7730171}, "southwest": {"lat": 1.3389709, "lng": 103.7721761}}, "location": {"lat": 1.339067, "lng": 103.7725926}, "location_type": "ROOFTOP", "viewport": {"northeast": {"lat": 1.340425430291502, "lng": 103.7739455802915}, "southwest": {"lat": 1.337727469708498, "lng": 103.7712476197085}}}, "place_id": "ChIJlcyxU2IQ2jEROhAmPXmE8g8", "types": ["premise"]}