{"address_components": [{"long_name": "Block 569", "short_name": "Block 569", "types": ["premise"]}, {"long_name": "569", "short_name": "569", "types": ["street_number"]}, {"long_name": "Choa Chu Kang Street 52", "short_name": "Choa Chu Kang Street 52", "types": ["route"]}, {"long_name": "Choa Chu Kang", "short_name": "Choa Chu Kang", "types": ["neighborhood", "political"]}, {"long_name": "Singapore", "short_name": "Singapore", "types": ["locality", "political"]}, {"long_name": "Singapore", "short_name": "SG", "types": ["country", "political"]}, {"long_name": "680569", "short_name": "680569", "types": ["postal_code"]}], "formatted_address": "569 Choa Chu Kang Street 52, Block 569, Singapore 680569", "geometry": {"bounds": {"northeast": {"lat": 1.3964173, "lng": 103.7466929}, "southwest": {"lat": 1.3959613, "lng": 103.7463059}}, "location": {"lat": 1.3961436, "lng": 103.7465437}, "location_type": "ROOFTOP", "viewport": {"northeast": {"lat": 1.397538280291502, "lng": 103.7478483802915}, "southwest": {"lat": 1.394840319708498, "lng": 103.7451504197085}}}, "place_id": "ChIJna273_MR2jER9ydTIyMi4bs", "types": ["premise"]}