{"address_components": [{"long_name": "Block 364", "short_name": "Block 364", "types": ["premise"]}, {"long_name": "364", "short_name": "364", "types": ["street_number"]}, {"long_name": "Woodlands Avenue 5", "short_name": "Woodlands Ave 5", "types": ["route"]}, {"long_name": "Woodlands", "short_name": "Woodlands", "types": ["neighborhood", "political"]}, {"long_name": "Singapore", "short_name": "Singapore", "types": ["locality", "political"]}, {"long_name": "Singapore", "short_name": "SG", "types": ["country", "political"]}, {"long_name": "730364", "short_name": "730364", "types": ["postal_code"]}], "formatted_address": "364 Woodlands Ave 5, Block 364, Singapore 730364", "geometry": {"bounds": {"northeast": {"lat": 1.4342237, "lng": 103.7871247}, "southwest": {"lat": 1.4338126, "lng": 103.7864997}}, "location": {"lat": 1.4339973, "lng": 103.7866262}, "location_type": "ROOFTOP", "viewport": {"northeast": {"lat": 1.435367130291502, "lng": 103.7881611802915}, "southwest": {"lat": 1.432669169708498, "lng": 103.7854632197085}}}, "place_id": "ChIJ-aD7WK8T2jERdiomWmo9MBE", "types": ["premise"]}