{"address_components": [{"long_name": "Block 30", "short_name": "Block 30", "types": ["premise"]}, {"long_name": "30", "short_name": "30", "types": ["street_number"]}, {"long_name": "Jalan Bahagia", "short_name": "Jln Bahagia", "types": ["route"]}, {"long_name": "Novena", "short_name": "Novena", "types": ["neighborhood", "political"]}, {"long_name": "Singapore", "short_name": "Singapore", "types": ["locality", "political"]}, {"long_name": "Singapore", "short_name": "SG", "types": ["country", "political"]}, {"long_name": "320030", "short_name": "320030", "types": ["postal_code"]}], "formatted_address": "30 Jln Bahagia, Block 30, Singapore 320030", "geometry": {"bounds": {"northeast": {"lat": 1.3259729, "lng": 103.8584873}, "southwest": {"lat": 1.3255038, "lng": 103.8578202}}, "location": {"lat": 1.3257668, "lng": 103.8581751}, "location_type": "ROOFTOP", "viewport": {"northeast": {"lat": 1.327087330291502, "lng": 103.8595027302915}, "southwest": {"lat": 1.324389369708498, "lng": 103.8568047697085}}}, "place_id": "ChIJ3RXKw9cZ2jERAa8N_AffH0k", "types": ["premise"]}