{"address_components": [{"long_name": "Block 969", "short_name": "Block 969", "types": ["premise"]}, {"long_name": "969", "short_name": "969", "types": ["street_number"]}, {"long_name": "Hougang Street 91", "short_name": "Hougang Street 91", "types": ["route"]}, {"long_name": "Hougang", "short_name": "Hougang", "types": ["neighborhood", "political"]}, {"long_name": "Singapore", "short_name": "Singapore", "types": ["locality", "political"]}, {"long_name": "Singapore", "short_name": "SG", "types": ["country", "political"]}, {"long_name": "530969", "short_name": "530969", "types": ["postal_code"]}], "formatted_address": "969 Hougang Street 91, Block 969, Singapore 530969", "geometry": {"bounds": {"northeast": {"lat": 1.3788434, "lng": 103.8798489}, "southwest": {"lat": 1.3785974, "lng": 103.8790598}}, "location": {"lat": 1.3787263, "lng": 103.8792836}, "location_type": "ROOFTOP", "viewport": {"northeast": {"lat": 1.380069380291502, "lng": 103.8808033302915}, "southwest": {"lat": 1.377371419708498, "lng": 103.8781053697085}}}, "place_id": "ChIJOV5ws1wW2jERWZM5fbl9QQ0", "types": ["premise"]}