{"address_components": [{"long_name": "Block 607", "short_name": "Block 607", "types": ["premise"]}, {"long_name": "607", "short_name": "607", "types": ["street_number"]}, {"long_name": "Hougang Avenue 4", "short_name": "Hougang Ave 4", "types": ["route"]}, {"long_name": "Hougang", "short_name": "Hougang", "types": ["neighborhood", "political"]}, {"long_name": "Singapore", "short_name": "Singapore", "types": ["locality", "political"]}, {"long_name": "Singapore", "short_name": "SG", "types": ["country", "political"]}, {"long_name": "530607", "short_name": "530607", "types": ["postal_code"]}], "formatted_address": "607 Hougang Ave 4, Block 607, Singapore 530607", "geometry": {"bounds": {"northeast": {"lat": 1.3703928, "lng": 103.8867147}, "southwest": {"lat": 1.3700708, "lng": 103.8856634}}, "location": {"lat": 1.3701923, "lng": 103.8862615}, "location_type": "ROOFTOP", "viewport": {"northeast": {"lat": 1.371580780291502, "lng": 103.8875380302915}, "southwest": {"lat": 1.368882819708498, "lng": 103.8848400697085}}}, "place_id": "ChIJc3dbJUkW2jERVIaWabH5WcY", "types": ["premise"]}