{"address_components": [{"long_name": "Block 859A", "short_name": "Block 859A", "types": ["premise"]}, {"long_name": "859A", "short_name": "859A", "types": ["street_number"]}, {"long_name": "Tampines Avenue 5", "short_name": "Tampines Ave 5", "types": ["route"]}, {"long_name": "Tampines", "short_name": "Tampines", "types": ["neighborhood", "political"]}, {"long_name": "Singapore", "short_name": "Singapore", "types": ["locality", "political"]}, {"long_name": "Singapore", "short_name": "SG", "types": ["country", "political"]}, {"long_name": "521859", "short_name": "521859", "types": ["postal_code"]}], "formatted_address": "859A Tampines Ave 5, Block 859A, Singapore 521859", "geometry": {"bounds": {"northeast": {"lat": 1.355268, "lng": 103.938327}, "southwest": {"lat": 1.3548809, "lng": 103.937704}}, "location": {"lat": 1.3550951, "lng": 103.93801}, "location_type": "ROOFTOP", "viewport": {"northeast": {"lat": 1.356423430291502, "lng": 103.9393644802915}, "southwest": {"lat": 1.353725469708498, "lng": 103.9366665197085}}}, "place_id": "ChIJ97doSQ092jEROSO7Y9QzlHM", "types": ["premise"]}