{"address_components": [{"long_name": "Block 606", "short_name": "Block 606", "types": ["premise"]}, {"long_name": "606", "short_name": "606", "types": ["street_number"]}, {"long_name": "Hougang Avenue 4", "short_name": "Hougang Ave 4", "types": ["route"]}, {"long_name": "Hougang", "short_name": "Hougang", "types": ["neighborhood", "political"]}, {"long_name": "Singapore", "short_name": "Singapore", "types": ["locality", "political"]}, {"long_name": "Singapore", "short_name": "SG", "types": ["country", "political"]}, {"long_name": "530606", "short_name": "530606", "types": ["postal_code"]}], "formatted_address": "606 Hougang Ave 4, Block 606, Singapore 530606", "geometry": {"bounds": {"northeast": {"lat": 1.3708794, "lng": 103.8863457}, "southwest": {"lat": 1.3706086, "lng": 103.8855877}}, "location": {"lat": 1.370781, "lng": 103.8858085}, "location_type": "ROOFTOP", "viewport": {"northeast": {"lat": 1.372092980291502, "lng": 103.8873156802915}, "southwest": {"lat": 1.369395019708498, "lng": 103.8846177197085}}}, "place_id": "ChIJt4KpKUkW2jERIKqW9K-SwGQ", "types": ["premise"]}