{"address_components": [{"long_name": "815A", "short_name": "815A", "types": ["street_number"]}, {"long_name": "Choa Chu Kang Avenue 7", "short_name": "Choa Chu Kang Ave 7", "types": ["route"]}, {"long_name": "Choa Chu Kang", "short_name": "Choa Chu Kang", "types": ["neighborhood", "political"]}, {"long_name": "Singapore", "short_name": "Singapore", "types": ["locality", "political"]}, {"long_name": "Singapore", "short_name": "SG", "types": ["country", "political"]}, {"long_name": "681815", "short_name": "681815", "types": ["postal_code"]}], "formatted_address": "815A Choa Chu Kang Ave 7, Singapore 681815", "geometry": {"bounds": {"northeast": {"lat": 1.3763552, "lng": 103.7470972}, "southwest": {"lat": 1.376038, "lng": 103.7465551}}, "location": {"lat": 1.3761986, "lng": 103.74677}, "location_type": "ROOFTOP", "viewport": {"northeast": {"lat": 1.377545580291502, "lng": 103.7481751302915}, "southwest": {"lat": 1.374847619708498, "lng": 103.7454771697085}}}, "place_id": "ChIJXcYVesYR2jERPrrr_Z-1jGw", "types": ["premise"]}