{"address_components": [{"long_name": "Block 876", "short_name": "Block 876", "types": ["premise"]}, {"long_name": "876", "short_name": "876", "types": ["street_number"]}, {"long_name": "Tampines Street 84", "short_name": "Tampines Street 84", "types": ["route"]}, {"long_name": "Tampines", "short_name": "Tampines", "types": ["neighborhood", "political"]}, {"long_name": "Singapore", "short_name": "Singapore", "types": ["locality", "political"]}, {"long_name": "Singapore", "short_name": "SG", "types": ["country", "political"]}, {"long_name": "520876", "short_name": "520876", "types": ["postal_code"]}], "formatted_address": "876 Tampines Street 84, Block 876, Singapore 520876", "geometry": {"bounds": {"northeast": {"lat": 1.3532704, "lng": 103.9315513}, "southwest": {"lat": 1.3529184, "lng": 103.930861}}, "location": {"lat": 1.3531584, "lng": 103.9312118}, "location_type": "ROOFTOP", "viewport": {"northeast": {"lat": 1.354443380291502, "lng": 103.9325551302915}, "southwest": {"lat": 1.351745419708498, "lng": 103.9298571697085}}}, "place_id": "ChIJ-2DfDG492jERx_kw9dMx0go", "types": ["premise"]}