{"address_components": [{"long_name": "Block 58", "short_name": "Block 58", "types": ["premise"]}, {"long_name": "58", "short_name": "58", "types": ["street_number"]}, {"long_name": "Strathmore Avenue", "short_name": "Strathmore Ave", "types": ["route"]}, {"long_name": "Queenstown", "short_name": "Queenstown", "types": ["neighborhood", "political"]}, {"long_name": "Singapore", "short_name": "Singapore", "types": ["locality", "political"]}, {"long_name": "Singapore", "short_name": "SG", "types": ["country", "political"]}, {"long_name": "142058", "short_name": "142058", "types": ["postal_code"]}], "formatted_address": "58 Strathmore Ave, Block 58, Singapore 142058", "geometry": {"bounds": {"northeast": {"lat": 1.2933557, "lng": 103.8108528}, "southwest": {"lat": 1.2930566, "lng": 103.8105747}}, "location": {"lat": 1.2932038, "lng": 103.8106905}, "location_type": "ROOFTOP", "viewport": {"northeast": {"lat": 1.294555130291502, "lng": 103.8120627302915}, "southwest": {"lat": 1.291857169708498, "lng": 103.8093647697085}}}, "place_id": "ChIJs4Ov8S0a2jERoLc_04jXTA0", "types": ["premise"]}