{"address_components": [{"long_name": "Block 102", "short_name": "Block 102", "types": ["premise"]}, {"long_name": "102", "short_name": "102", "types": ["street_number"]}, {"long_name": "Jalan Rajah", "short_name": "Jln Rajah", "types": ["route"]}, {"long_name": "Novena", "short_name": "Novena", "types": ["neighborhood", "political"]}, {"long_name": "Singapore", "short_name": "Singapore", "types": ["locality", "political"]}, {"long_name": "Singapore", "short_name": "SG", "types": ["country", "political"]}, {"long_name": "321102", "short_name": "321102", "types": ["postal_code"]}], "formatted_address": "102 Jln Rajah, Block 102, Singapore 321102", "geometry": {"bounds": {"northeast": {"lat": 1.3287665, "lng": 103.852161}, "southwest": {"lat": 1.3281016, "lng": 103.850822}}, "location": {"lat": 1.3282172, "lng": 103.851563}, "location_type": "ROOFTOP", "viewport": {"northeast": {"lat": 1.329783030291502, "lng": 103.8528404802915}, "southwest": {"lat": 1.327085069708498, "lng": 103.8501425197085}}}, "place_id": "ChIJS0SvMWIX2jERP8U3L0BA-6w", "types": ["premise"]}