{"address_components": [{"long_name": "Block 6", "short_name": "Block 6", "types": ["premise"]}, {"long_name": "6", "short_name": "6", "types": ["street_number"]}, {"long_name": "Lorong 7 Toa Payoh", "short_name": "Lor 7 Toa Payoh", "types": ["route"]}, {"long_name": "Toa Payoh", "short_name": "Toa Payoh", "types": ["neighborhood", "political"]}, {"long_name": "Singapore", "short_name": "Singapore", "types": ["locality", "political"]}, {"long_name": "Singapore", "short_name": "SG", "types": ["country", "political"]}, {"long_name": "310006", "short_name": "310006", "types": ["postal_code"]}], "formatted_address": "6 Lor 7 Toa Payoh, Block 6, Singapore 310006", "geometry": {"bounds": {"northeast": {"lat": 1.3386496, "lng": 103.8574832}, "southwest": {"lat": 1.3383836, "lng": 103.856848}}, "location": {"lat": 1.3385844, "lng": 103.8570908}, "location_type": "ROOFTOP", "viewport": {"northeast": {"lat": 1.339865580291502, "lng": 103.8585145802915}, "southwest": {"lat": 1.337167619708498, "lng": 103.8558166197085}}}, "place_id": "ChIJwWjw0XEX2jERKor8or8Odg0", "types": ["premise"]}