{"address_components": [{"long_name": "Block 607", "short_name": "Block 607", "types": ["premise"]}, {"long_name": "607", "short_name": "607", "types": ["street_number"]}, {"long_name": "Clementi West Street 1", "short_name": "Clementi West Street 1", "types": ["route"]}, {"long_name": "Clementi", "short_name": "Clementi", "types": ["neighborhood", "political"]}, {"long_name": "Singapore", "short_name": "Singapore", "types": ["locality", "political"]}, {"long_name": "Singapore", "short_name": "SG", "types": ["country", "political"]}, {"long_name": "120607", "short_name": "120607", "types": ["postal_code"]}], "formatted_address": "607 Clementi West Street 1, Block 607, Singapore 120607", "geometry": {"bounds": {"northeast": {"lat": 1.30446, "lng": 103.7681889}, "southwest": {"lat": 1.304036, "lng": 103.7673559}}, "location": {"lat": 1.3042508, "lng": 103.7677943}, "location_type": "ROOFTOP", "viewport": {"northeast": {"lat": 1.305596980291502, "lng": 103.7691213802915}, "southwest": {"lat": 1.302899019708498, "lng": 103.7664234197085}}}, "place_id": "ChIJ__YRw_Ma2jERj9orGwki_10", "types": ["premise"]}