{"address_components": [{"long_name": "Block 611", "short_name": "Block 611", "types": ["premise"]}, {"long_name": "611", "short_name": "611", "types": ["street_number"]}, {"long_name": "Clementi West Street 1", "short_name": "Clementi West Street 1", "types": ["route"]}, {"long_name": "Clementi", "short_name": "Clementi", "types": ["neighborhood", "political"]}, {"long_name": "Singapore", "short_name": "Singapore", "types": ["locality", "political"]}, {"long_name": "Singapore", "short_name": "SG", "types": ["country", "political"]}, {"long_name": "120611", "short_name": "120611", "types": ["postal_code"]}], "formatted_address": "611 Clementi West Street 1, Block 611, Singapore 120611", "geometry": {"bounds": {"northeast": {"lat": 1.3044, "lng": 103.7699211}, "southwest": {"lat": 1.303569, "lng": 103.768939}}, "location": {"lat": 1.3038022, "lng": 103.7695145}, "location_type": "ROOFTOP", "viewport": {"northeast": {"lat": 1.305333480291502, "lng": 103.7707790302915}, "southwest": {"lat": 1.302635519708498, "lng": 103.7680810697085}}}, "place_id": "ChIJYYuH-PMa2jER0kWSn3w8vQg", "types": ["premise"]}