{"address_components": [{"long_name": "Block 204", "short_name": "Block 204", "types": ["premise"]}, {"long_name": "204", "short_name": "204", "types": ["street_number"]}, {"long_name": "Toa Payoh North", "short_name": "Toa Payoh N", "types": ["route"]}, {"long_name": "Toa Payoh", "short_name": "Toa Payoh", "types": ["neighborhood", "political"]}, {"long_name": "Singapore", "short_name": "Singapore", "types": ["locality", "political"]}, {"long_name": "Singapore", "short_name": "SG", "types": ["country", "political"]}, {"long_name": "310204", "short_name": "310204", "types": ["postal_code"]}], "formatted_address": "204 Toa Payoh N, Block 204, Singapore 310204", "geometry": {"bounds": {"northeast": {"lat": 1.3415644, "lng": 103.8494149}, "southwest": {"lat": 1.3414294, "lng": 103.8486681}}, "location": {"lat": 1.3414833, "lng": 103.8490256}, "location_type": "ROOFTOP", "viewport": {"northeast": {"lat": 1.342845880291502, "lng": 103.8503904802915}, "southwest": {"lat": 1.340147919708498, "lng": 103.8476925197085}}}, "partial_match": true, "place_id": "ChIJUSZ2wWsX2jERj-NVi3aWebk", "types": ["premise"]}