{"address_components": [{"long_name": "Block 478", "short_name": "Block 478", "types": ["premise"]}, {"long_name": "478", "short_name": "478", "types": ["street_number"]}, {"long_name": "Sembawang Drive", "short_name": "Sembawang Dr", "types": ["route"]}, {"long_name": "Sembawang", "short_name": "Sembawang", "types": ["neighborhood", "political"]}, {"long_name": "Singapore", "short_name": "Singapore", "types": ["locality", "political"]}, {"long_name": "Singapore", "short_name": "SG", "types": ["country", "political"]}, {"long_name": "750478", "short_name": "750478", "types": ["postal_code"]}], "formatted_address": "478 Sembawang Dr, Block 478, Singapore 750478", "geometry": {"bounds": {"northeast": {"lat": 1.4527956, "lng": 103.8167255}, "southwest": {"lat": 1.4523107, "lng": 103.8158675}}, "location": {"lat": 1.4525509, "lng": 103.8163053}, "location_type": "ROOFTOP", "viewport": {"northeast": {"lat": 1.453902130291502, "lng": 103.8176454802915}, "southwest": {"lat": 1.451204169708498, "lng": 103.8149475197085}}}, "place_id": "ChIJHydQ8WMT2jERG6kDz85OV_Y", "types": ["premise"]}