{"address_components": [{"long_name": "Block 108", "short_name": "Block 108", "types": ["premise"]}, {"long_name": "108", "short_name": "108", "types": ["street_number"]}, {"long_name": "Tampines Street 11", "short_name": "Tampines Street 11", "types": ["route"]}, {"long_name": "Tampines", "short_name": "Tampines", "types": ["neighborhood", "political"]}, {"long_name": "Singapore", "short_name": "Singapore", "types": ["locality", "political"]}, {"long_name": "Singapore", "short_name": "SG", "types": ["country", "political"]}, {"long_name": "521108", "short_name": "521108", "types": ["postal_code"]}], "formatted_address": "108 Tampines Street 11, Block 108, Singapore 521108", "geometry": {"bounds": {"northeast": {"lat": 1.3479815, "lng": 103.9490386}, "southwest": {"lat": 1.347774, "lng": 103.9481096}}, "location": {"lat": 1.3478594, "lng": 103.9486159}, "location_type": "ROOFTOP", "viewport": {"northeast": {"lat": 1.349226730291502, "lng": 103.9499230802915}, "southwest": {"lat": 1.346528769708498, "lng": 103.9472251197085}}}, "place_id": "ChIJS9UAZhc92jERDAturivdhM4", "types": ["premise"]}