{"address_components": [{"long_name": "Block 109", "short_name": "Block 109", "types": ["premise"]}, {"long_name": "109", "short_name": "109", "types": ["street_number"]}, {"long_name": "Jalan Bukit Merah", "short_name": "Jalan Bukit Merah", "types": ["route"]}, {"long_name": "Bukit Merah", "short_name": "Bukit Merah", "types": ["neighborhood", "political"]}, {"long_name": "Singapore", "short_name": "Singapore", "types": ["locality", "political"]}, {"long_name": "Singapore", "short_name": "SG", "types": ["country", "political"]}, {"long_name": "160109", "short_name": "160109", "types": ["postal_code"]}], "formatted_address": "109 Jalan Bukit Merah, Block 109, Singapore 160109", "geometry": {"bounds": {"northeast": {"lat": 1.2797444, "lng": 103.8264754}, "southwest": {"lat": 1.2792234, "lng": 103.8256473}}, "location": {"lat": 1.2794991, "lng": 103.8260265}, "location_type": "ROOFTOP", "viewport": {"northeast": {"lat": 1.280832880291502, "lng": 103.8274103302915}, "southwest": {"lat": 1.278134919708498, "lng": 103.8247123697085}}}, "place_id": "ChIJee_bSWMZ2jERXvHqCtcuzxo", "types": ["premise"]}