{"address_components": [{"long_name": "Block 22", "short_name": "Block 22", "types": ["premise"]}, {"long_name": "22", "short_name": "22", "types": ["street_number"]}, {"long_name": "Haig Road", "short_name": "Haig Rd", "types": ["route"]}, {"long_name": "Geylang", "short_name": "Geylang", "types": ["neighborhood", "political"]}, {"long_name": "Singapore", "short_name": "Singapore", "types": ["locality", "political"]}, {"long_name": "Singapore", "short_name": "SG", "types": ["country", "political"]}, {"long_name": "430022", "short_name": "430022", "types": ["postal_code"]}], "formatted_address": "22 Haig Rd, Block 22, Singapore 430022", "geometry": {"bounds": {"northeast": {"lat": 1.3139281, "lng": 103.8954739}, "southwest": {"lat": 1.3132722, "lng": 103.8949529}}, "location": {"lat": 1.3137116, "lng": 103.8951378}, "location_type": "ROOFTOP", "viewport": {"northeast": {"lat": 1.314949130291502, "lng": 103.8965623802915}, "southwest": {"lat": 1.312251169708498, "lng": 103.8938644197085}}}, "place_id": "ChIJVUab7hYY2jERL3h6eXgCJ0w", "types": ["premise"]}