{"address_components": [{"long_name": "Block 431", "short_name": "Block 431", "types": ["premise"]}, {"long_name": "431", "short_name": "431", "types": ["street_number"]}, {"long_name": "Jurong West Avenue 1", "short_name": "Jurong West Ave 1", "types": ["route"]}, {"long_name": "Jurong West", "short_name": "Jurong West", "types": ["neighborhood", "political"]}, {"long_name": "Singapore", "short_name": "Singapore", "types": ["locality", "political"]}, {"long_name": "Singapore", "short_name": "SG", "types": ["country", "political"]}, {"long_name": "640431", "short_name": "640431", "types": ["postal_code"]}], "formatted_address": "431 Jurong West Ave 1, Block 431, Singapore 640431", "geometry": {"bounds": {"northeast": {"lat": 1.3524258, "lng": 103.725046}, "southwest": {"lat": 1.3520548, "lng": 103.7241931}}, "location": {"lat": 1.3523811, "lng": 103.7246177}, "location_type": "ROOFTOP", "viewport": {"northeast": {"lat": 1.353589280291502, "lng": 103.7259685302915}, "southwest": {"lat": 1.350891319708498, "lng": 103.7232705697085}}}, "place_id": "ChIJZ2xAE9kP2jERQ3sEMeGJ1L4", "types": ["premise"]}