{"address_components": [{"long_name": "Block 5", "short_name": "Block 5", "types": ["premise"]}, {"long_name": "5", "short_name": "5", "types": ["street_number"]}, {"long_name": "Dover Crescent", "short_name": "Dover Cres", "types": ["route"]}, {"long_name": "Queenstown", "short_name": "Queenstown", "types": ["neighborhood", "political"]}, {"long_name": "Singapore", "short_name": "Singapore", "types": ["locality", "political"]}, {"long_name": "Singapore", "short_name": "SG", "types": ["country", "political"]}, {"long_name": "130005", "short_name": "130005", "types": ["postal_code"]}], "formatted_address": "5 Dover Cres, Block 5, Singapore 130005", "geometry": {"bounds": {"northeast": {"lat": 1.3042952, "lng": 103.7830072}, "southwest": {"lat": 1.3038311, "lng": 103.7823027}}, "location": {"lat": 1.3040211, "lng": 103.7827329}, "location_type": "ROOFTOP", "viewport": {"northeast": {"lat": 1.305412130291502, "lng": 103.7840039302915}, "southwest": {"lat": 1.302714169708498, "lng": 103.7813059697085}}}, "place_id": "ChIJDYVEbVwa2jERm-2IIDNE3T0", "types": ["premise"]}