{"address_components": [{"long_name": "Block 669", "short_name": "Block 669", "types": ["premise"]}, {"long_name": "669", "short_name": "669", "types": ["street_number"]}, {"long_name": "Hougang Avenue 8", "short_name": "Hougang Ave 8", "types": ["route"]}, {"long_name": "Hougang", "short_name": "Hougang", "types": ["neighborhood", "political"]}, {"long_name": "Singapore", "short_name": "Singapore", "types": ["locality", "political"]}, {"long_name": "Singapore", "short_name": "SG", "types": ["country", "political"]}, {"long_name": "530669", "short_name": "530669", "types": ["postal_code"]}], "formatted_address": "669 Hougang Ave 8, Block 669, Singapore 530669", "geometry": {"bounds": {"northeast": {"lat": 1.3735579, "lng": 103.8845168}, "southwest": {"lat": 1.3732659, "lng": 103.8837498}}, "location": {"lat": 1.3734284, "lng": 103.8840869}, "location_type": "ROOFTOP", "viewport": {"northeast": {"lat": 1.374760880291502, "lng": 103.8854822802915}, "southwest": {"lat": 1.372062919708498, "lng": 103.8827843197085}}}, "place_id": "ChIJsxvA9EUW2jERrt1k4m0lKmk", "types": ["premise"]}