{"address_components": [{"long_name": "430D", "short_name": "430D", "types": ["street_number"]}, {"long_name": "Fernvale Link", "short_name": "Fernvale Link", "types": ["route"]}, {"long_name": "Sengkang", "short_name": "Sengkang", "types": ["neighborhood", "political"]}, {"long_name": "Singapore", "short_name": "Singapore", "types": ["locality", "political"]}, {"long_name": "Singapore", "short_name": "SG", "types": ["country", "political"]}, {"long_name": "794430", "short_name": "794430", "types": ["postal_code"]}], "formatted_address": "430D Fernvale Link, Singapore 794430", "geometry": {"bounds": {"northeast": {"lat": 1.3951486, "lng": 103.8781338}, "southwest": {"lat": 1.3946889, "lng": 103.877805}}, "location": {"lat": 1.3948433, "lng": 103.8780388}, "location_type": "ROOFTOP", "viewport": {"northeast": {"lat": 1.396267730291502, "lng": 103.8793183802915}, "southwest": {"lat": 1.393569769708498, "lng": 103.8766204197085}}}, "place_id": "ChIJu9T0QXoW2jERhzUFGTTxESg", "types": ["premise"]}