{"address_components": [{"long_name": "Block 671", "short_name": "Block 671", "types": ["premise"]}, {"long_name": "671", "short_name": "671", "types": ["street_number"]}, {"long_name": "Jalan Damai", "short_name": "Jln Damai", "types": ["route"]}, {"long_name": "Bedok", "short_name": "Bedok", "types": ["neighborhood", "political"]}, {"long_name": "Singapore", "short_name": "Singapore", "types": ["locality", "political"]}, {"long_name": "Singapore", "short_name": "SG", "types": ["country", "political"]}, {"long_name": "410671", "short_name": "410671", "types": ["postal_code"]}], "formatted_address": "671 Jln Damai, Block 671, Singapore 410671", "geometry": {"bounds": {"northeast": {"lat": 1.3325471, "lng": 103.9092256}, "southwest": {"lat": 1.3322217, "lng": 103.9085784}}, "location": {"lat": 1.332428, "lng": 103.9089161}, "location_type": "ROOFTOP", "viewport": {"northeast": {"lat": 1.333733380291502, "lng": 103.9102509802915}, "southwest": {"lat": 1.331035419708498, "lng": 103.9075530197085}}}, "place_id": "ChIJaZK9dvwX2jERcpzy800rq0Q", "types": ["premise"]}