{"address_components": [{"long_name": "Block 157", "short_name": "Block 157", "types": ["premise"]}, {"long_name": "157", "short_name": "157", "types": ["street_number"]}, {"long_name": "Simei Road", "short_name": "Simei Rd", "types": ["route"]}, {"long_name": "Tampines", "short_name": "Tampines", "types": ["neighborhood", "political"]}, {"long_name": "Singapore", "short_name": "Singapore", "types": ["locality", "political"]}, {"long_name": "Singapore", "short_name": "SG", "types": ["country", "political"]}, {"long_name": "520157", "short_name": "520157", "types": ["postal_code"]}], "formatted_address": "157 Simei Rd, Block 157, Singapore 520157", "geometry": {"bounds": {"northeast": {"lat": 1.3447548, "lng": 103.9597351}, "southwest": {"lat": 1.3442857, "lng": 103.9591761}}, "location": {"lat": 1.3446493, "lng": 103.9594039}, "location_type": "ROOFTOP", "viewport": {"northeast": {"lat": 1.345869230291502, "lng": 103.9608045802915}, "southwest": {"lat": 1.343171269708498, "lng": 103.9581066197085}}}, "partial_match": true, "place_id": "ChIJg_yAHyA92jERRq_xj04wF6s", "types": ["premise"]}