{"address_components": [{"long_name": "Block 238", "short_name": "Block 238", "types": ["premise"]}, {"long_name": "238", "short_name": "238", "types": ["street_number"]}, {"long_name": "Bukit Panjang Ring Road", "short_name": "Bukit Panjang Ring Rd", "types": ["route"]}, {"long_name": "Bukit Panjang", "short_name": "Bukit Panjang", "types": ["neighborhood", "political"]}, {"long_name": "Singapore", "short_name": "Singapore", "types": ["locality", "political"]}, {"long_name": "Singapore", "short_name": "SG", "types": ["country", "political"]}, {"long_name": "670238", "short_name": "670238", "types": ["postal_code"]}], "formatted_address": "238 Bukit Panjang Ring Rd, Block 238, Singapore 670238", "geometry": {"bounds": {"northeast": {"lat": 1.3800841, "lng": 103.7709579}, "southwest": {"lat": 1.378948, "lng": 103.7703829}}, "location": {"lat": 1.3796691, "lng": 103.7705103}, "location_type": "ROOFTOP", "viewport": {"northeast": {"lat": 1.380865030291502, "lng": 103.7720193802915}, "southwest": {"lat": 1.378167069708498, "lng": 103.7693214197085}}}, "place_id": "ChIJF4wRQaER2jER3JiRExBOpDE", "types": ["premise"]}