{"address_components": [{"long_name": "Block 323", "short_name": "Block 323", "types": ["premise"]}, {"long_name": "323", "short_name": "323", "types": ["street_number"]}, {"long_name": "Serangoon Avenue 3", "short_name": "Serangoon Ave 3", "types": ["route"]}, {"long_name": "Serangoon", "short_name": "Serangoon", "types": ["neighborhood", "political"]}, {"long_name": "Singapore", "short_name": "Singapore", "types": ["locality", "political"]}, {"long_name": "Singapore", "short_name": "SG", "types": ["country", "political"]}, {"long_name": "550323", "short_name": "550323", "types": ["postal_code"]}], "formatted_address": "323 Serangoon Ave 3, Block 323, Singapore 550323", "geometry": {"bounds": {"northeast": {"lat": 1.3516225, "lng": 103.8695396}, "southwest": {"lat": 1.3509034, "lng": 103.8690497}}, "location": {"lat": 1.351544, "lng": 103.8691372}, "location_type": "ROOFTOP", "viewport": {"northeast": {"lat": 1.352611930291502, "lng": 103.8706436302915}, "southwest": {"lat": 1.349913969708498, "lng": 103.8679456697085}}}, "place_id": "ChIJSU6Aa6cX2jERDMZ0JPr47Uk", "types": ["premise"]}