{"address_components": [{"long_name": "Block 138", "short_name": "Block 138", "types": ["premise"]}, {"long_name": "138", "short_name": "138", "types": ["street_number"]}, {"long_name": "Bukit Batok West Avenue 6", "short_name": "Bukit Batok West Ave 6", "types": ["route"]}, {"long_name": "Bukit Batok", "short_name": "Bukit Batok", "types": ["neighborhood", "political"]}, {"long_name": "Singapore", "short_name": "Singapore", "types": ["locality", "political"]}, {"long_name": "Singapore", "short_name": "SG", "types": ["country", "political"]}, {"long_name": "650138", "short_name": "650138", "types": ["postal_code"]}], "formatted_address": "138 Bukit Batok West Ave 6, Block 138, Singapore 650138", "geometry": {"bounds": {"northeast": {"lat": 1.3505844, "lng": 103.7448159}, "southwest": {"lat": 1.3498727, "lng": 103.7440852}}, "location": {"lat": 1.3502232, "lng": 103.7442615}, "location_type": "ROOFTOP", "viewport": {"northeast": {"lat": 1.351577530291502, "lng": 103.7457995302915}, "southwest": {"lat": 1.348879569708498, "lng": 103.7431015697085}}}, "place_id": "ChIJKytudjwQ2jERMt_oQtDUoQs", "types": ["premise"]}