{"address_components": [{"long_name": "Block 331", "short_name": "Block 331", "types": ["premise"]}, {"long_name": "331", "short_name": "331", "types": ["street_number"]}, {"long_name": "Serangoon Avenue 3", "short_name": "Serangoon Ave 3", "types": ["route"]}, {"long_name": "Serangoon", "short_name": "Serangoon", "types": ["neighborhood", "political"]}, {"long_name": "Singapore", "short_name": "Singapore", "types": ["locality", "political"]}, {"long_name": "Singapore", "short_name": "SG", "types": ["country", "political"]}, {"long_name": "550331", "short_name": "550331", "types": ["postal_code"]}], "formatted_address": "331 Serangoon Ave 3, Block 331, Singapore 550331", "geometry": {"bounds": {"northeast": {"lat": 1.35032, "lng": 103.8702669}, "southwest": {"lat": 1.349569, "lng": 103.8698711}}, "location": {"lat": 1.3500005, "lng": 103.8701338}, "location_type": "ROOFTOP", "viewport": {"northeast": {"lat": 1.351293480291502, "lng": 103.8714179802915}, "southwest": {"lat": 1.348595519708498, "lng": 103.8687200197085}}}, "place_id": "ChIJ6_DzMqcX2jERXHoPPhk_L2g", "types": ["premise"]}