{"address_components": [{"long_name": "Block 411", "short_name": "Block 411", "types": ["premise"]}, {"long_name": "411", "short_name": "411", "types": ["street_number"]}, {"long_name": "Bukit Batok West Avenue 4", "short_name": "Bukit Batok West Ave 4", "types": ["route"]}, {"long_name": "Bukit Batok", "short_name": "Bukit Batok", "types": ["neighborhood", "political"]}, {"long_name": "Singapore", "short_name": "Singapore", "types": ["locality", "political"]}, {"long_name": "Singapore", "short_name": "SG", "types": ["country", "political"]}, {"long_name": "650411", "short_name": "650411", "types": ["postal_code"]}], "formatted_address": "411 Bukit Batok West Ave 4, Block 411, Singapore 650411", "geometry": {"bounds": {"northeast": {"lat": 1.3641859, "lng": 103.7467098}, "southwest": {"lat": 1.3640159, "lng": 103.7457561}}, "location": {"lat": 1.3641265, "lng": 103.7462496}, "location_type": "ROOFTOP", "viewport": {"northeast": {"lat": 1.365449880291502, "lng": 103.7475819302915}, "southwest": {"lat": 1.362751919708498, "lng": 103.7448839697085}}}, "place_id": "ChIJtbfDVzMQ2jER1Vsuj4FJBGs", "types": ["premise"]}