{"address_components": [{"long_name": "Block 147", "short_name": "Block 147", "types": ["premise"]}, {"long_name": "147", "short_name": "147", "types": ["street_number"]}, {"long_name": "Serangoon North Avenue 1", "short_name": "Serangoon North Ave 1", "types": ["route"]}, {"long_name": "Serangoon", "short_name": "Serangoon", "types": ["neighborhood", "political"]}, {"long_name": "Singapore", "short_name": "Singapore", "types": ["locality", "political"]}, {"long_name": "Singapore", "short_name": "SG", "types": ["country", "political"]}, {"long_name": "550147", "short_name": "550147", "types": ["postal_code"]}], "formatted_address": "147 Serangoon North Ave 1, Block 147, Singapore 550147", "geometry": {"bounds": {"northeast": {"lat": 1.3686773, "lng": 103.8730934}, "southwest": {"lat": 1.3682822, "lng": 103.8720584}}, "location": {"lat": 1.3685077, "lng": 103.87267}, "location_type": "ROOFTOP", "viewport": {"northeast": {"lat": 1.369828730291502, "lng": 103.8739248802915}, "southwest": {"lat": 1.367130769708498, "lng": 103.8712269197085}}}, "place_id": "ChIJgZw3HlQW2jEREQ-bo95LeMg", "types": ["premise"]}