{"address_components": [{"long_name": "Block 751", "short_name": "Block 751", "types": ["premise"]}, {"long_name": "751", "short_name": "751", "types": ["street_number"]}, {"long_name": "Woodlands Circle", "short_name": "Woodlands Cir", "types": ["route"]}, {"long_name": "Woodlands", "short_name": "Woodlands", "types": ["neighborhood", "political"]}, {"long_name": "Singapore", "short_name": "Singapore", "types": ["locality", "political"]}, {"long_name": "Singapore", "short_name": "SG", "types": ["country", "political"]}, {"long_name": "730751", "short_name": "730751", "types": ["postal_code"]}], "formatted_address": "751 Woodlands Cir, Block 751, Singapore 730751", "geometry": {"bounds": {"northeast": {"lat": 1.4452981, "lng": 103.7945219}, "southwest": {"lat": 1.444695, "lng": 103.7937721}}, "location": {"lat": 1.4451078, "lng": 103.7942321}, "location_type": "ROOFTOP", "viewport": {"northeast": {"lat": 1.446345530291502, "lng": 103.7954959802915}, "southwest": {"lat": 1.443647569708498, "lng": 103.7927980197085}}}, "place_id": "ChIJ2fKnbAwT2jERgueEkSqaaBc", "types": ["premise"]}