{"address_components": [{"long_name": "Block 548", "short_name": "Block 548", "types": ["premise"]}, {"long_name": "548", "short_name": "548", "types": ["street_number"]}, {"long_name": "Choa Chu Kang Street 52", "short_name": "Choa Chu Kang Street 52", "types": ["route"]}, {"long_name": "Choa Chu Kang", "short_name": "Choa Chu Kang", "types": ["neighborhood", "political"]}, {"long_name": "Singapore", "short_name": "Singapore", "types": ["locality", "political"]}, {"long_name": "Singapore", "short_name": "SG", "types": ["country", "political"]}, {"long_name": "680548", "short_name": "680548", "types": ["postal_code"]}], "formatted_address": "548 Choa Chu Kang Street 52, Block 548, Singapore 680548", "geometry": {"bounds": {"northeast": {"lat": 1.3937694, "lng": 103.7421406}, "southwest": {"lat": 1.393277, "lng": 103.7417361}}, "location": {"lat": 1.3936222, "lng": 103.7419953}, "location_type": "ROOFTOP", "viewport": {"northeast": {"lat": 1.394872180291502, "lng": 103.7432873302915}, "southwest": {"lat": 1.392174219708498, "lng": 103.7405893697085}}}, "place_id": "ChIJUWUtFvAR2jERvh5z8-hrg-Q", "types": ["premise"]}