{"address_components": [{"long_name": "489A", "short_name": "489A", "types": ["street_number"]}, {"long_name": "Choa Chu Kang Avenue 5", "short_name": "Choa Chu Kang Ave 5", "types": ["route"]}, {"long_name": "Choa Chu Kang", "short_name": "Choa Chu Kang", "types": ["neighborhood", "political"]}, {"long_name": "Singapore", "short_name": "Singapore", "types": ["locality", "political"]}, {"long_name": "Singapore", "short_name": "SG", "types": ["country", "political"]}], "formatted_address": "489A Choa Chu Kang Ave 5, Singapore", "geometry": {"bounds": {"northeast": {"lat": 1.3758241, "lng": 103.740692}, "southwest": {"lat": 1.3752499, "lng": 103.7402237}}, "location": {"lat": 1.3753738, "lng": 103.7405471}, "location_type": "ROOFTOP", "viewport": {"northeast": {"lat": 1.376885980291502, "lng": 103.7418068302915}, "southwest": {"lat": 1.374188019708498, "lng": 103.7391088697085}}}, "place_id": "ChIJFYQ1M8UR2jERzU6hcJw7Z7w", "types": ["premise"]}