{"address_components": [{"long_name": "Block 256", "short_name": "Block 256", "types": ["premise"]}, {"long_name": "256", "short_name": "256", "types": ["street_number"]}, {"long_name": "Serangoon Central Drive", "short_name": "Serangoon Central Dr", "types": ["route"]}, {"long_name": "Serangoon", "short_name": "Serangoon", "types": ["neighborhood", "political"]}, {"long_name": "Singapore", "short_name": "Singapore", "types": ["locality", "political"]}, {"long_name": "Singapore", "short_name": "SG", "types": ["country", "political"]}, {"long_name": "550256", "short_name": "550256", "types": ["postal_code"]}], "formatted_address": "256 Serangoon Central Dr, Block 256, Singapore 550256", "geometry": {"bounds": {"northeast": {"lat": 1.355347, "lng": 103.8716119}, "southwest": {"lat": 1.354917, "lng": 103.8711529}}, "location": {"lat": 1.3551926, "lng": 103.8713116}, "location_type": "ROOFTOP", "viewport": {"northeast": {"lat": 1.356480980291502, "lng": 103.8727313802915}, "southwest": {"lat": 1.353783019708498, "lng": 103.8700334197085}}}, "place_id": "ChIJJcZuj6gX2jERra6WonHy-ls", "types": ["premise"]}