{"address_components": [{"long_name": "308A", "short_name": "308A", "types": ["street_number"]}, {"long_name": "Ang Mo Kio Avenue 1", "short_name": "Ang Mo Kio Ave 1", "types": ["route"]}, {"long_name": "Ang Mo Kio", "short_name": "Ang Mo Kio", "types": ["neighborhood", "political"]}, {"long_name": "Singapore", "short_name": "Singapore", "types": ["locality", "political"]}, {"long_name": "Singapore", "short_name": "SG", "types": ["country", "political"]}, {"long_name": "561308", "short_name": "561308", "types": ["postal_code"]}], "formatted_address": "308A Ang Mo Kio Ave 1, Singapore 561308", "geometry": {"bounds": {"northeast": {"lat": 1.3657043, "lng": 103.8442647}, "southwest": {"lat": 1.3653158, "lng": 103.843902}}, "location": {"lat": 1.3655146, "lng": 103.8440661}, "location_type": "ROOFTOP", "viewport": {"northeast": {"lat": 1.366859030291502, "lng": 103.8454323302915}, "southwest": {"lat": 1.364161069708498, "lng": 103.8427343697085}}}, "place_id": "ChIJ8eYqxd8W2jERwbTPug4zbws", "types": ["premise"]}