{"address_components": [{"long_name": "Block 110", "short_name": "Block 110", "types": ["premise"]}, {"long_name": "110", "short_name": "110", "types": ["street_number"]}, {"long_name": "Bedok Reservoir Road", "short_name": "Bedok Reservoir Rd", "types": ["route"]}, {"long_name": "Bedok", "short_name": "Bedok", "types": ["neighborhood", "political"]}, {"long_name": "Singapore", "short_name": "Singapore", "types": ["locality", "political"]}, {"long_name": "Singapore", "short_name": "SG", "types": ["country", "political"]}, {"long_name": "470110", "short_name": "470110", "types": ["postal_code"]}], "formatted_address": "110 Bedok Reservoir Rd, Block 110, Singapore 470110", "geometry": {"bounds": {"northeast": {"lat": 1.3303135, "lng": 103.9106561}, "southwest": {"lat": 1.3300876, "lng": 103.9100424}}, "location": {"lat": 1.3301512, "lng": 103.9103661}, "location_type": "ROOFTOP", "viewport": {"northeast": {"lat": 1.331549530291502, "lng": 103.9116982302915}, "southwest": {"lat": 1.328851569708498, "lng": 103.9090002697085}}}, "place_id": "ChIJF21ql_4X2jERkUJhAhDsWH0", "types": ["premise"]}