{"address_components": [{"long_name": "Block 699B", "short_name": "Block 699B", "types": ["premise"]}, {"long_name": "699B", "short_name": "699B", "types": ["street_number"]}, {"long_name": "Hougang Street 52", "short_name": "Hougang Street 52", "types": ["route"]}, {"long_name": "Hougang", "short_name": "Hougang", "types": ["neighborhood", "political"]}, {"long_name": "Singapore", "short_name": "Singapore", "types": ["locality", "political"]}, {"long_name": "Singapore", "short_name": "SG", "types": ["country", "political"]}, {"long_name": "532699", "short_name": "532699", "types": ["postal_code"]}], "formatted_address": "699B Hougang Street 52, Block 699B, Singapore 532699", "geometry": {"bounds": {"northeast": {"lat": 1.3770341, "lng": 103.8885152}, "southwest": {"lat": 1.3765299, "lng": 103.8881144}}, "location": {"lat": 1.3768648, "lng": 103.8883229}, "location_type": "ROOFTOP", "viewport": {"northeast": {"lat": 1.378130980291502, "lng": 103.8896637802915}, "southwest": {"lat": 1.375433019708498, "lng": 103.8869658197085}}}, "place_id": "ChIJtcFqIEcW2jERgOyR4WVhUBA", "types": ["premise"]}