{"address_components": [{"long_name": "Block 214", "short_name": "Block 214", "types": ["premise"]}, {"long_name": "214", "short_name": "214", "types": ["street_number"]}, {"long_name": "Serangoon Avenue 4", "short_name": "Serangoon Ave 4", "types": ["route"]}, {"long_name": "Serangoon", "short_name": "Serangoon", "types": ["neighborhood", "political"]}, {"long_name": "Singapore", "short_name": "Singapore", "types": ["locality", "political"]}, {"long_name": "Singapore", "short_name": "SG", "types": ["country", "political"]}, {"long_name": "550214", "short_name": "550214", "types": ["postal_code"]}], "formatted_address": "214 Serangoon Ave 4, Block 214, Singapore 550214", "geometry": {"bounds": {"northeast": {"lat": 1.3577181, "lng": 103.8737305}, "southwest": {"lat": 1.3569341, "lng": 103.8735105}}, "location": {"lat": 1.3570751, "lng": 103.8735761}, "location_type": "ROOFTOP", "viewport": {"northeast": {"lat": 1.358675080291502, "lng": 103.8749694802915}, "southwest": {"lat": 1.355977119708498, "lng": 103.8722715197085}}}, "place_id": "ChIJcyWiLakX2jERhve1SW7UIys", "types": ["premise"]}