{"address_components": [{"long_name": "Block 729", "short_name": "Block 729", "types": ["premise"]}, {"long_name": "729", "short_name": "729", "types": ["street_number"]}, {"long_name": "Yishun Street 71", "short_name": "Yishun Street 71", "types": ["route"]}, {"long_name": "Yishun", "short_name": "Yishun", "types": ["neighborhood", "political"]}, {"long_name": "Singapore", "short_name": "Singapore", "types": ["locality", "political"]}, {"long_name": "Singapore", "short_name": "SG", "types": ["country", "political"]}, {"long_name": "760729", "short_name": "760729", "types": ["postal_code"]}], "formatted_address": "729 Yishun Street 71, Block 729, Singapore 760729", "geometry": {"bounds": {"northeast": {"lat": 1.4263231, "lng": 103.8318246}, "southwest": {"lat": 1.425838, "lng": 103.8313203}}, "location": {"lat": 1.4259435, "lng": 103.8315436}, "location_type": "ROOFTOP", "viewport": {"northeast": {"lat": 1.427429530291502, "lng": 103.8329214302915}, "southwest": {"lat": 1.424731569708498, "lng": 103.8302234697085}}}, "place_id": "ChIJX49IlHEU2jERnlSz4tZ3E5M", "types": ["premise"]}