{"address_components": [{"long_name": "Block 323", "short_name": "Block 323", "types": ["premise"]}, {"long_name": "323", "short_name": "323", "types": ["street_number"]}, {"long_name": "Ubi Avenue 1", "short_name": "Ubi Ave 1", "types": ["route"]}, {"long_name": "Geylang", "short_name": "Geylang", "types": ["neighborhood", "political"]}, {"long_name": "Singapore", "short_name": "Singapore", "types": ["locality", "political"]}, {"long_name": "Singapore", "short_name": "SG", "types": ["country", "political"]}, {"long_name": "400323", "short_name": "400323", "types": ["postal_code"]}], "formatted_address": "323 Ubi Ave 1, Block 323, Singapore 400323", "geometry": {"bounds": {"northeast": {"lat": 1.3284444, "lng": 103.9047683}, "southwest": {"lat": 1.3277955, "lng": 103.9039913}}, "location": {"lat": 1.3281186, "lng": 103.9043622}, "location_type": "ROOFTOP", "viewport": {"northeast": {"lat": 1.329468930291502, "lng": 103.9057287802915}, "southwest": {"lat": 1.326770969708498, "lng": 103.9030308197085}}}, "place_id": "ChIJqYdISPgX2jERK4EPqUer0ww", "types": ["premise"]}