{"address_components": [{"long_name": "Block 976", "short_name": "Block 976", "types": ["premise"]}, {"long_name": "976", "short_name": "976", "types": ["street_number"]}, {"long_name": "Hougang Street 91", "short_name": "Hougang Street 91", "types": ["route"]}, {"long_name": "Hougang", "short_name": "Hougang", "types": ["neighborhood", "political"]}, {"long_name": "Singapore", "short_name": "Singapore", "types": ["locality", "political"]}, {"long_name": "Singapore", "short_name": "SG", "types": ["country", "political"]}, {"long_name": "530976", "short_name": "530976", "types": ["postal_code"]}], "formatted_address": "976 Hougang Street 91, Block 976, Singapore 530976", "geometry": {"bounds": {"northeast": {"lat": 1.3774584, "lng": 103.88046}, "southwest": {"lat": 1.3772145, "lng": 103.879933}}, "location": {"lat": 1.3772591, "lng": 103.8802787}, "location_type": "ROOFTOP", "viewport": {"northeast": {"lat": 1.378685430291502, "lng": 103.8815454802915}, "southwest": {"lat": 1.375987469708498, "lng": 103.8788475197085}}}, "place_id": "ChIJdWkjrkQW2jERgNPXDrtauhA", "types": ["premise"]}