{"address_components": [{"long_name": "Block 630", "short_name": "Block 630", "types": ["premise"]}, {"long_name": "630", "short_name": "630", "types": ["street_number"]}, {"long_name": "Senja Road", "short_name": "Senja Rd", "types": ["route"]}, {"long_name": "Bukit Panjang", "short_name": "Bukit Panjang", "types": ["neighborhood", "political"]}, {"long_name": "Singapore", "short_name": "Singapore", "types": ["locality", "political"]}, {"long_name": "Singapore", "short_name": "SG", "types": ["country", "political"]}, {"long_name": "670630", "short_name": "670630", "types": ["postal_code"]}], "formatted_address": "630 Senja Rd, Block 630, Singapore 670630", "geometry": {"bounds": {"northeast": {"lat": 1.3868899, "lng": 103.760048}, "southwest": {"lat": 1.3865428, "lng": 103.75965}}, "location": {"lat": 1.3867338, "lng": 103.7597825}, "location_type": "ROOFTOP", "viewport": {"northeast": {"lat": 1.388065330291502, "lng": 103.7611979802915}, "southwest": {"lat": 1.385367369708498, "lng": 103.7585000197085}}}, "place_id": "ChIJrbx46ZYR2jERmIgjvbnmpII", "types": ["premise"]}