{"address_components": [{"long_name": "Block 888", "short_name": "Block 888", "types": ["premise"]}, {"long_name": "888", "short_name": "888", "types": ["street_number"]}, {"long_name": "Tampines Street 81", "short_name": "Tampines Street 81", "types": ["route"]}, {"long_name": "Tampines", "short_name": "Tampines", "types": ["neighborhood", "political"]}, {"long_name": "Singapore", "short_name": "Singapore", "types": ["locality", "political"]}, {"long_name": "Singapore", "short_name": "SG", "types": ["country", "political"]}, {"long_name": "520888", "short_name": "520888", "types": ["postal_code"]}], "formatted_address": "888 Tampines Street 81, Block 888, Singapore 520888", "geometry": {"bounds": {"northeast": {"lat": 1.3510951, "lng": 103.931341}, "southwest": {"lat": 1.350492, "lng": 103.9306638}}, "location": {"lat": 1.3508713, "lng": 103.9310985}, "location_type": "ROOFTOP", "viewport": {"northeast": {"lat": 1.352142530291502, "lng": 103.9323513802915}, "southwest": {"lat": 1.349444569708498, "lng": 103.9296534197085}}}, "place_id": "ChIJdz90l2492jERzZSB08MAUbs", "types": ["premise"]}