{"address_components": [{"long_name": "440A", "short_name": "440A", "types": ["street_number"]}, {"long_name": "Fernvale Link", "short_name": "Fernvale Link", "types": ["route"]}, {"long_name": "Sengkang", "short_name": "Sengkang", "types": ["neighborhood", "political"]}, {"long_name": "Singapore", "short_name": "Singapore", "types": ["locality", "political"]}, {"long_name": "Singapore", "short_name": "SG", "types": ["country", "political"]}, {"long_name": "797700", "short_name": "797700", "types": ["postal_code"]}], "formatted_address": "440A Fernvale Link, Singapore 797700", "geometry": {"bounds": {"northeast": {"lat": 1.3935793, "lng": 103.8789191}, "southwest": {"lat": 1.393221, "lng": 103.8784166}}, "location": {"lat": 1.3933103, "lng": 103.8787409}, "location_type": "ROOFTOP", "viewport": {"northeast": {"lat": 1.394749130291502, "lng": 103.8800168302915}, "southwest": {"lat": 1.392051169708498, "lng": 103.8773188697085}}}, "place_id": "ChIJlyPSj3oW2jER4TJxknJOXqc", "types": ["premise"]}