{"address_components": [{"long_name": "Block 550", "short_name": "Block 550", "types": ["premise"]}, {"long_name": "550", "short_name": "550", "types": ["street_number"]}, {"long_name": "Woodlands Drive 44", "short_name": "Woodlands Drive 44", "types": ["route"]}, {"long_name": "Woodlands", "short_name": "Woodlands", "types": ["neighborhood", "political"]}, {"long_name": "Singapore", "short_name": "Singapore", "types": ["locality", "political"]}, {"long_name": "Singapore", "short_name": "SG", "types": ["country", "political"]}, {"long_name": "730550", "short_name": "730550", "types": ["postal_code"]}], "formatted_address": "550 Woodlands Drive 44, Block 550, Singapore 730550", "geometry": {"bounds": {"northeast": {"lat": 1.4329811, "lng": 103.7951452}, "southwest": {"lat": 1.4323893, "lng": 103.7944839}}, "location": {"lat": 1.4326997, "lng": 103.7947754}, "location_type": "ROOFTOP", "viewport": {"northeast": {"lat": 1.434034180291502, "lng": 103.7961635302915}, "southwest": {"lat": 1.431336219708498, "lng": 103.7934655697085}}}, "place_id": "ChIJpV_xpaMT2jERibBLfrKAekE", "types": ["premise"]}