{"address_components": [{"long_name": "Block 655A", "short_name": "Block 655A", "types": ["premise"]}, {"long_name": "655A", "short_name": "655A", "types": ["street_number"]}, {"long_name": "Jurong West Street 61", "short_name": "Jurong West Street 61", "types": ["route"]}, {"long_name": "Jurong West", "short_name": "Jurong West", "types": ["neighborhood", "political"]}, {"long_name": "Singapore", "short_name": "Singapore", "types": ["locality", "political"]}, {"long_name": "Singapore", "short_name": "SG", "types": ["country", "political"]}, {"long_name": "641655", "short_name": "641655", "types": ["postal_code"]}], "formatted_address": "655A Jurong West Street 61, Block 655A, Singapore 641655", "geometry": {"bounds": {"northeast": {"lat": 1.3359202, "lng": 103.698547}, "southwest": {"lat": 1.3351493, "lng": 103.6983357}}, "location": {"lat": 1.335541, "lng": 103.698465}, "location_type": "ROOFTOP", "viewport": {"northeast": {"lat": 1.336883730291502, "lng": 103.6997903302915}, "southwest": {"lat": 1.334185769708498, "lng": 103.6970923697085}}}, "place_id": "ChIJcQ0ZQI4P2jERoPLbHFfJoZA", "types": ["premise"]}