{"address_components": [{"long_name": "Block 6", "short_name": "Block 6", "types": ["premise"]}, {"long_name": "6", "short_name": "6", "types": ["street_number"]}, {"long_name": "Lorong Lew Lian", "short_name": "Lor Lew Lian", "types": ["route"]}, {"long_name": "Serangoon", "short_name": "Serangoon", "types": ["neighborhood", "political"]}, {"long_name": "Singapore", "short_name": "Singapore", "types": ["locality", "political"]}, {"long_name": "Singapore", "short_name": "SG", "types": ["country", "political"]}, {"long_name": "531006", "short_name": "531006", "types": ["postal_code"]}], "formatted_address": "6 Lor Lew Lian, Block 6, Singapore 531006", "geometry": {"bounds": {"northeast": {"lat": 1.349725, "lng": 103.8776335}, "southwest": {"lat": 1.3491109, "lng": 103.8770474}}, "location": {"lat": 1.3494464, "lng": 103.8772913}, "location_type": "ROOFTOP", "viewport": {"northeast": {"lat": 1.350766930291502, "lng": 103.8786894302915}, "southwest": {"lat": 1.348068969708498, "lng": 103.8759914697085}}}, "place_id": "ChIJYaNwe6MX2jERNbfkYdraTGs", "types": ["premise"]}