{"address_components": [{"long_name": "Block 350", "short_name": "Block 350", "types": ["premise"]}, {"long_name": "350", "short_name": "350", "types": ["street_number"]}, {"long_name": "Yishun Avenue 11", "short_name": "Yishun Ave 11", "types": ["route"]}, {"long_name": "Yishun", "short_name": "Yishun", "types": ["neighborhood", "political"]}, {"long_name": "Singapore", "short_name": "Singapore", "types": ["locality", "political"]}, {"long_name": "Singapore", "short_name": "SG", "types": ["country", "political"]}, {"long_name": "760350", "short_name": "760350", "types": ["postal_code"]}], "formatted_address": "350 Yishun Ave 11, Block 350, Singapore 760350", "geometry": {"bounds": {"northeast": {"lat": 1.4261152, "lng": 103.8444131}, "southwest": {"lat": 1.4253452, "lng": 103.8437762}}, "location": {"lat": 1.4259403, "lng": 103.8440435}, "location_type": "ROOFTOP", "viewport": {"northeast": {"lat": 1.427079180291502, "lng": 103.8454436302915}, "southwest": {"lat": 1.424381219708498, "lng": 103.8427456697085}}}, "place_id": "ChIJRcOB5WkU2jERlDNyglGIBqg", "types": ["premise"]}