{"address_components": [{"long_name": "194", "short_name": "194", "types": ["street_number"]}, {"long_name": "Rivervale Drive", "short_name": "Rivervale Dr", "types": ["route"]}, {"long_name": "Sengkang", "short_name": "Sengkang", "types": ["neighborhood", "political"]}, {"long_name": "Singapore", "short_name": "Singapore", "types": ["locality", "political"]}, {"long_name": "Singapore", "short_name": "SG", "types": ["country", "political"]}, {"long_name": "540194", "short_name": "540194", "types": ["postal_code"]}], "formatted_address": "194 Rivervale Dr, Singapore 540194", "geometry": {"bounds": {"northeast": {"lat": 1.393132, "lng": 103.9020467}, "southwest": {"lat": 1.3925158, "lng": 103.9014282}}, "location": {"lat": 1.3927776, "lng": 103.9016209}, "location_type": "ROOFTOP", "viewport": {"northeast": {"lat": 1.394172880291502, "lng": 103.9030864302915}, "southwest": {"lat": 1.391474919708498, "lng": 103.9003884697085}}}, "place_id": "ChIJJ6lr6w8W2jERJW-sY63Cm7U", "types": ["premise"]}