{"address_components": [{"long_name": "Block 257", "short_name": "Block 257", "types": ["premise"]}, {"long_name": "257", "short_name": "257", "types": ["street_number"]}, {"long_name": "Serangoon Central Drive", "short_name": "Serangoon Central Dr", "types": ["route"]}, {"long_name": "Serangoon", "short_name": "Serangoon", "types": ["neighborhood", "political"]}, {"long_name": "Singapore", "short_name": "Singapore", "types": ["locality", "political"]}, {"long_name": "Singapore", "short_name": "SG", "types": ["country", "political"]}, {"long_name": "550257", "short_name": "550257", "types": ["postal_code"]}], "formatted_address": "257 Serangoon Central Dr, Block 257, Singapore 550257", "geometry": {"bounds": {"northeast": {"lat": 1.355371, "lng": 103.872184}, "southwest": {"lat": 1.3549409, "lng": 103.871722}}, "location": {"lat": 1.3552627, "lng": 103.8718552}, "location_type": "ROOFTOP", "viewport": {"northeast": {"lat": 1.356504930291502, "lng": 103.8733019802915}, "southwest": {"lat": 1.353806969708498, "lng": 103.8706040197085}}}, "place_id": "ChIJNznIkKgX2jERAlv4Gd2XSUo", "types": ["premise"]}