{"address_components": [{"long_name": "Block 528", "short_name": "Block 528", "types": ["premise"]}, {"long_name": "528", "short_name": "528", "types": ["street_number"]}, {"long_name": "Woodlands Drive 14", "short_name": "Woodlands Drive 14", "types": ["route"]}, {"long_name": "Woodlands", "short_name": "Woodlands", "types": ["neighborhood", "political"]}, {"long_name": "Singapore", "short_name": "Singapore", "types": ["locality", "political"]}, {"long_name": "Singapore", "short_name": "SG", "types": ["country", "political"]}, {"long_name": "730528", "short_name": "730528", "types": ["postal_code"]}], "formatted_address": "528 Woodlands Drive 14, Block 528, Singapore 730528", "geometry": {"bounds": {"northeast": {"lat": 1.43169, "lng": 103.7926699}, "southwest": {"lat": 1.431336, "lng": 103.7922181}}, "location": {"lat": 1.4315399, "lng": 103.7924212}, "location_type": "ROOFTOP", "viewport": {"northeast": {"lat": 1.432861980291502, "lng": 103.7937929802915}, "southwest": {"lat": 1.430164019708498, "lng": 103.7910950197085}}}, "place_id": "ChIJk9UrnKQT2jERRjZsGnvky_0", "types": ["premise"]}