{"address_components": [{"long_name": "Block 639", "short_name": "Block 639", "types": ["premise"]}, {"long_name": "639", "short_name": "639", "types": ["street_number"]}, {"long_name": "Woodlands Ring Road", "short_name": "Woodlands Ring Rd", "types": ["route"]}, {"long_name": "Woodlands", "short_name": "Woodlands", "types": ["neighborhood", "political"]}, {"long_name": "Singapore", "short_name": "Singapore", "types": ["locality", "political"]}, {"long_name": "Singapore", "short_name": "SG", "types": ["country", "political"]}, {"long_name": "730639", "short_name": "730639", "types": ["postal_code"]}], "formatted_address": "639 Woodlands Ring Rd, Block 639, Singapore 730639", "geometry": {"bounds": {"northeast": {"lat": 1.4382628, "lng": 103.8033191}, "southwest": {"lat": 1.4374038, "lng": 103.802907}}, "location": {"lat": 1.4376386, "lng": 103.8031968}, "location_type": "ROOFTOP", "viewport": {"northeast": {"lat": 1.439182280291502, "lng": 103.8044620302915}, "southwest": {"lat": 1.436484319708498, "lng": 103.8017640697085}}}, "place_id": "ChIJg9hEaZ4T2jERbyPKOVpyCLA", "types": ["premise"]}