{"address_components": [{"long_name": "Block 55", "short_name": "Block 55", "types": ["premise"]}, {"long_name": "55", "short_name": "55", "types": ["street_number"]}, {"long_name": "Strathmore Avenue", "short_name": "Strathmore Ave", "types": ["route"]}, {"long_name": "Queenstown", "short_name": "Queenstown", "types": ["neighborhood", "political"]}, {"long_name": "Singapore", "short_name": "Singapore", "types": ["locality", "political"]}, {"long_name": "Singapore", "short_name": "SG", "types": ["country", "political"]}, {"long_name": "140055", "short_name": "140055", "types": ["postal_code"]}], "formatted_address": "55 Strathmore Ave, Block 55, Singapore 140055", "geometry": {"bounds": {"northeast": {"lat": 1.2937532, "lng": 103.8096313}, "southwest": {"lat": 1.2931212, "lng": 103.8092073}}, "location": {"lat": 1.2933024, "lng": 103.8094}, "location_type": "ROOFTOP", "viewport": {"northeast": {"lat": 1.294786180291502, "lng": 103.8107682802915}, "southwest": {"lat": 1.292088219708498, "lng": 103.8080703197085}}}, "place_id": "ChIJQ5CUDzIa2jERy3LCHMzFF8A", "types": ["premise"]}