{"address_components": [{"long_name": "Block 115", "short_name": "Block 115", "types": ["premise"]}, {"long_name": "115", "short_name": "115", "types": ["street_number"]}, {"long_name": "Whampoa Road", "short_name": "Whampoa Rd", "types": ["route"]}, {"long_name": "Novena", "short_name": "Novena", "types": ["neighborhood", "political"]}, {"long_name": "Singapore", "short_name": "Singapore", "types": ["locality", "political"]}, {"long_name": "Singapore", "short_name": "SG", "types": ["country", "political"]}, {"long_name": "320115", "short_name": "320115", "types": ["postal_code"]}], "formatted_address": "115 Whampoa Rd, Block 115, Singapore 320115", "geometry": {"bounds": {"northeast": {"lat": 1.3267997, "lng": 103.8577275}, "southwest": {"lat": 1.3261438, "lng": 103.8570265}}, "location": {"lat": 1.3265575, "lng": 103.857473}, "location_type": "ROOFTOP", "viewport": {"northeast": {"lat": 1.327820730291502, "lng": 103.8587259802915}, "southwest": {"lat": 1.325122769708498, "lng": 103.8560280197085}}}, "place_id": "ChIJuVDt4tcZ2jERCooPnlNgByY", "types": ["premise"]}