{"address_components": [{"long_name": "Block 162A", "short_name": "Block 162A", "types": ["premise"]}, {"long_name": "162A", "short_name": "162A", "types": ["street_number"]}, {"long_name": "Punggol Central", "short_name": "Punggol Central", "types": ["route"]}, {"long_name": "Punggol", "short_name": "Punggol", "types": ["neighborhood", "political"]}, {"long_name": "Singapore", "short_name": "Singapore", "types": ["locality", "political"]}, {"long_name": "Singapore", "short_name": "SG", "types": ["country", "political"]}, {"long_name": "821162", "short_name": "821162", "types": ["postal_code"]}], "formatted_address": "162A Punggol Central, Block 162A, Singapore 821162", "geometry": {"bounds": {"northeast": {"lat": 1.3967305, "lng": 103.9144409}, "southwest": {"lat": 1.3962754, "lng": 103.9141488}}, "location": {"lat": 1.3966224, "lng": 103.9142631}, "location_type": "ROOFTOP", "viewport": {"northeast": {"lat": 1.397851930291502, "lng": 103.9156438302915}, "southwest": {"lat": 1.395153969708498, "lng": 103.9129458697085}}}, "place_id": "ChIJ3ZOU_wEW2jERQWJU5aOTgZI", "types": ["premise"]}