{"address_components": [{"long_name": "Block 676", "short_name": "Block 676", "types": ["premise"]}, {"long_name": "676", "short_name": "676", "types": ["street_number"]}, {"long_name": "Hougang Avenue 8", "short_name": "Hougang Ave 8", "types": ["route"]}, {"long_name": "Hougang", "short_name": "Hougang", "types": ["neighborhood", "political"]}, {"long_name": "Singapore", "short_name": "Singapore", "types": ["locality", "political"]}, {"long_name": "Singapore", "short_name": "SG", "types": ["country", "political"]}, {"long_name": "530676", "short_name": "530676", "types": ["postal_code"]}], "formatted_address": "676 Hougang Ave 8, Block 676, Singapore 530676", "geometry": {"bounds": {"northeast": {"lat": 1.3717604, "lng": 103.8845759}, "southwest": {"lat": 1.3714313, "lng": 103.8838341}}, "location": {"lat": 1.3716708, "lng": 103.8839963}, "location_type": "ROOFTOP", "viewport": {"northeast": {"lat": 1.372944830291502, "lng": 103.8855539802915}, "southwest": {"lat": 1.370246869708498, "lng": 103.8828560197085}}}, "place_id": "ChIJ4cL2PE8W2jERu3RGZ_AqI60", "types": ["premise"]}