{"address_components": [{"long_name": "Block 31", "short_name": "Block 31", "types": ["premise"]}, {"long_name": "31", "short_name": "31", "types": ["street_number"]}, {"long_name": "Teban Gardens Road", "short_name": "Teban Gardens Rd", "types": ["route"]}, {"long_name": "Jurong East", "short_name": "Jurong East", "types": ["neighborhood", "political"]}, {"long_name": "Singapore", "short_name": "Singapore", "types": ["locality", "political"]}, {"long_name": "Singapore", "short_name": "SG", "types": ["country", "political"]}, {"long_name": "600031", "short_name": "600031", "types": ["postal_code"]}], "formatted_address": "31 Teban Gardens Rd, Block 31, Singapore 600031", "geometry": {"bounds": {"northeast": {"lat": 1.3204718, "lng": 103.7394352}, "southwest": {"lat": 1.3201719, "lng": 103.7385595}}, "location": {"lat": 1.3203421, "lng": 103.7389185}, "location_type": "ROOFTOP", "viewport": {"northeast": {"lat": 1.321670830291502, "lng": 103.7403463302915}, "southwest": {"lat": 1.318972869708498, "lng": 103.7376483697085}}}, "place_id": "ChIJD9NzC68a2jEROGlAXLJIGm8", "types": ["premise"]}