{"address_components": [{"long_name": "Block 137", "short_name": "Block 137", "types": ["premise"]}, {"long_name": "137", "short_name": "137", "types": ["street_number"]}, {"long_name": "Lorong Ah Soo", "short_name": "Lor Ah Soo", "types": ["route"]}, {"long_name": "Hougang", "short_name": "Hougang", "types": ["neighborhood", "political"]}, {"long_name": "Singapore", "short_name": "Singapore", "types": ["locality", "political"]}, {"long_name": "Singapore", "short_name": "SG", "types": ["country", "political"]}, {"long_name": "530137", "short_name": "530137", "types": ["postal_code"]}], "formatted_address": "137 Lor Ah Soo, Block 137, Singapore 530137", "geometry": {"bounds": {"northeast": {"lat": 1.3496115, "lng": 103.8869759}, "southwest": {"lat": 1.3490253, "lng": 103.8862041}}, "location": {"lat": 1.3493178, "lng": 103.8868052}, "location_type": "ROOFTOP", "viewport": {"northeast": {"lat": 1.350667380291502, "lng": 103.8879389802915}, "southwest": {"lat": 1.347969419708498, "lng": 103.8852410197085}}}, "place_id": "ChIJNwQPt74X2jERPxU9xVNl31M", "types": ["premise"]}