{"address_components": [{"long_name": "Block 427", "short_name": "Block 427", "types": ["premise"]}, {"long_name": "427", "short_name": "427", "types": ["street_number"]}, {"long_name": "Pasir Ris Drive 6", "short_name": "Pasir Ris Drive 6", "types": ["route"]}, {"long_name": "Pasir Ris", "short_name": "Pasir Ris", "types": ["neighborhood", "political"]}, {"long_name": "Singapore", "short_name": "Singapore", "types": ["locality", "political"]}, {"long_name": "Singapore", "short_name": "SG", "types": ["country", "political"]}, {"long_name": "510427", "short_name": "510427", "types": ["postal_code"]}], "formatted_address": "427 Pasir Ris Drive 6, Block 427, Singapore 510427", "geometry": {"bounds": {"northeast": {"lat": 1.370391, "lng": 103.9564009}, "southwest": {"lat": 1.370278, "lng": 103.9554981}}, "location": {"lat": 1.3703105, "lng": 103.9559362}, "location_type": "ROOFTOP", "viewport": {"northeast": {"lat": 1.371683480291502, "lng": 103.9572984802915}, "southwest": {"lat": 1.368985519708498, "lng": 103.9546005197085}}}, "place_id": "ChIJY_EiM6w92jERmLJo7nvv6kw", "types": ["premise"]}