{"address_components": [{"long_name": "Block 275", "short_name": "Block 275", "types": ["premise"]}, {"long_name": "275", "short_name": "275", "types": ["street_number"]}, {"long_name": "Tampines Street 22", "short_name": "Tampines Street 22", "types": ["route"]}, {"long_name": "Tampines", "short_name": "Tampines", "types": ["neighborhood", "political"]}, {"long_name": "Singapore", "short_name": "Singapore", "types": ["locality", "political"]}, {"long_name": "Singapore", "short_name": "SG", "types": ["country", "political"]}, {"long_name": "520275", "short_name": "520275", "types": ["postal_code"]}], "formatted_address": "275 Tampines Street 22, Block 275, Singapore 520275", "geometry": {"bounds": {"northeast": {"lat": 1.348334, "lng": 103.950849}, "southwest": {"lat": 1.3477571, "lng": 103.9498419}}, "location": {"lat": 1.3478488, "lng": 103.9504289}, "location_type": "ROOFTOP", "viewport": {"northeast": {"lat": 1.349394530291502, "lng": 103.9516944302915}, "southwest": {"lat": 1.346696569708498, "lng": 103.9489964697085}}}, "place_id": "ChIJheycwRk92jERCxxpN7Q6eOQ", "types": ["premise"]}