{"address_components": [{"long_name": "213B", "short_name": "213B", "types": ["street_number"]}, {"long_name": "Punggol Walk", "short_name": "Punggol Walk", "types": ["route"]}, {"long_name": "Punggol", "short_name": "Punggol", "types": ["neighborhood", "political"]}, {"long_name": "Singapore", "short_name": "Singapore", "types": ["locality", "political"]}, {"long_name": "Singapore", "short_name": "SG", "types": ["country", "political"]}, {"long_name": "828792", "short_name": "828792", "types": ["postal_code"]}], "formatted_address": "213B Punggol Walk, Singapore 828792", "geometry": {"bounds": {"northeast": {"lat": 1.4009262, "lng": 103.8985916}, "southwest": {"lat": 1.4006047, "lng": 103.8980477}}, "location": {"lat": 1.4006955, "lng": 103.8982453}, "location_type": "ROOFTOP", "viewport": {"northeast": {"lat": 1.402114430291502, "lng": 103.8996686302915}, "southwest": {"lat": 1.399416469708498, "lng": 103.8969706697085}}}, "place_id": "ChIJNy8x5gkW2jERTjzRdt-f9_Y", "types": ["premise"]}