{"address_components": [{"long_name": "Block 686C", "short_name": "Block 686C", "types": ["premise"]}, {"long_name": "686C", "short_name": "686C", "types": ["street_number"]}, {"long_name": "Choa Chu Kang Crescent", "short_name": "Choa Chu Kang Cres", "types": ["route"]}, {"long_name": "Choa Chu Kang", "short_name": "Choa Chu Kang", "types": ["neighborhood", "political"]}, {"long_name": "Singapore", "short_name": "Singapore", "types": ["locality", "political"]}, {"long_name": "Singapore", "short_name": "SG", "types": ["country", "political"]}, {"long_name": "683686", "short_name": "683686", "types": ["postal_code"]}], "formatted_address": "686C Choa Chu Kang Cres, Block 686C, Singapore 683686", "geometry": {"bounds": {"northeast": {"lat": 1.4047855, "lng": 103.7492412}, "southwest": {"lat": 1.4044967, "lng": 103.7488614}}, "location": {"lat": 1.4046133, "lng": 103.7490296}, "location_type": "ROOFTOP", "viewport": {"northeast": {"lat": 1.405990080291502, "lng": 103.7504002802915}, "southwest": {"lat": 1.403292119708498, "lng": 103.7477023197085}}}, "place_id": "ChIJ6dC__h4S2jERlmXhmRERIWo", "types": ["premise"]}