{"address_components": [{"long_name": "Block 482", "short_name": "Block 482", "types": ["premise"]}, {"long_name": "482", "short_name": "482", "types": ["street_number"]}, {"long_name": "Admiralty Link", "short_name": "Admiralty Link", "types": ["route"]}, {"long_name": "Sembawang", "short_name": "Sembawang", "types": ["neighborhood", "political"]}, {"long_name": "Singapore", "short_name": "Singapore", "types": ["locality", "political"]}, {"long_name": "Singapore", "short_name": "SG", "types": ["country", "political"]}, {"long_name": "750482", "short_name": "750482", "types": ["postal_code"]}], "formatted_address": "482 Admiralty Link, Block 482, Singapore 750482", "geometry": {"bounds": {"northeast": {"lat": 1.455627, "lng": 103.8157389}, "southwest": {"lat": 1.455224, "lng": 103.8151509}}, "location": {"lat": 1.4553281, "lng": 103.8154224}, "location_type": "ROOFTOP", "viewport": {"northeast": {"lat": 1.456774480291502, "lng": 103.8167938802915}, "southwest": {"lat": 1.454076519708498, "lng": 103.8140959197085}}}, "place_id": "ChIJ_4lT0WYT2jERBlnT0uxGJhs", "types": ["premise"]}