{"address_components": [{"long_name": "Block 322", "short_name": "Block 322", "types": ["premise"]}, {"long_name": "322", "short_name": "322", "types": ["street_number"]}, {"long_name": "Sembawang Close", "short_name": "Sembawang Cl", "types": ["route"]}, {"long_name": "Sembawang", "short_name": "Sembawang", "types": ["neighborhood", "political"]}, {"long_name": "Singapore", "short_name": "Singapore", "types": ["locality", "political"]}, {"long_name": "Singapore", "short_name": "SG", "types": ["country", "political"]}, {"long_name": "750322", "short_name": "750322", "types": ["postal_code"]}], "formatted_address": "322 Sembawang Cl, Block 322, Singapore 750322", "geometry": {"bounds": {"northeast": {"lat": 1.4458553, "lng": 103.8186286}, "southwest": {"lat": 1.4453633, "lng": 103.8181505}}, "location": {"lat": 1.4456011, "lng": 103.8182978}, "location_type": "ROOFTOP", "viewport": {"northeast": {"lat": 1.446958280291502, "lng": 103.8197385302915}, "southwest": {"lat": 1.444260319708498, "lng": 103.8170405697085}}}, "place_id": "ChIJHd56TnwT2jERVpDHS1Ds_mg", "types": ["premise"]}