{"address_components": [{"long_name": "Block 8B", "short_name": "Block 8B", "types": ["premise"]}, {"long_name": "8B", "short_name": "8B", "types": ["street_number"]}, {"long_name": "Boon Tiong Road", "short_name": "Boon Tiong Rd", "types": ["route"]}, {"long_name": "Bukit Merah", "short_name": "Bukit Merah", "types": ["neighborhood", "political"]}, {"long_name": "Singapore", "short_name": "Singapore", "types": ["locality", "political"]}, {"long_name": "Singapore", "short_name": "SG", "types": ["country", "political"]}, {"long_name": "165008", "short_name": "165008", "types": ["postal_code"]}], "formatted_address": "8B Boon Tiong Rd, Block 8B, Singapore 165008", "geometry": {"bounds": {"northeast": {"lat": 1.2871632, "lng": 103.8305486}, "southwest": {"lat": 1.2868962, "lng": 103.8301145}}, "location": {"lat": 1.2870984, "lng": 103.8303435}, "location_type": "ROOFTOP", "viewport": {"northeast": {"lat": 1.288378680291502, "lng": 103.8316805302915}, "southwest": {"lat": 1.285680719708498, "lng": 103.8289825697085}}}, "place_id": "ChIJvdkF_3gZ2jEREZctsT2fUl4", "types": ["premise"]}