{"address_components": [{"long_name": "Block 182", "short_name": "Block 182", "types": ["premise"]}, {"long_name": "182", "short_name": "182", "types": ["street_number"]}, {"long_name": "Bedok North Road", "short_name": "Bedok North Rd", "types": ["route"]}, {"long_name": "Bedok", "short_name": "Bedok", "types": ["neighborhood", "political"]}, {"long_name": "Singapore", "short_name": "Singapore", "types": ["locality", "political"]}, {"long_name": "Singapore", "short_name": "SG", "types": ["country", "political"]}, {"long_name": "460182", "short_name": "460182", "types": ["postal_code"]}], "formatted_address": "182 Bedok North Rd, Block 182, Singapore 460182", "geometry": {"bounds": {"northeast": {"lat": 1.3271277, "lng": 103.942015}, "southwest": {"lat": 1.3266934, "lng": 103.9414299}}, "location": {"lat": 1.3269349, "lng": 103.9416812}, "location_type": "ROOFTOP", "viewport": {"northeast": {"lat": 1.328259530291502, "lng": 103.9430714302915}, "southwest": {"lat": 1.325561569708498, "lng": 103.9403734697085}}}, "place_id": "ChIJ9wcNwTQ92jER37Ql4AKo7ic", "types": ["premise"]}