{"address_components": [{"long_name": "50", "short_name": "50", "types": ["street_number"]}, {"long_name": "Strathmore Avenue", "short_name": "Strathmore Ave", "types": ["route"]}, {"long_name": "Queenstown", "short_name": "Queenstown", "types": ["neighborhood", "political"]}, {"long_name": "Singapore", "short_name": "Singapore", "types": ["locality", "political"]}, {"long_name": "Singapore", "short_name": "SG", "types": ["country", "political"]}, {"long_name": "140050", "short_name": "140050", "types": ["postal_code"]}], "formatted_address": "50 Strathmore Ave, Singapore 140050", "geometry": {"bounds": {"northeast": {"lat": 1.294007, "lng": 103.8089238}, "southwest": {"lat": 1.2937224, "lng": 103.8085332}}, "location": {"lat": 1.2938915, "lng": 103.8086755}, "location_type": "ROOFTOP", "viewport": {"northeast": {"lat": 1.295213680291502, "lng": 103.8100774802915}, "southwest": {"lat": 1.292515719708498, "lng": 103.8073795197085}}}, "place_id": "ChIJVcuZPDIa2jERwg49c7Zak_A", "types": ["premise"]}