{"address_components": [{"long_name": "Block 95", "short_name": "Block 95", "types": ["premise"]}, {"long_name": "95", "short_name": "95", "types": ["street_number"]}, {"long_name": "Whampoa Drive", "short_name": "Whampoa Dr", "types": ["route"]}, {"long_name": "Novena", "short_name": "Novena", "types": ["neighborhood", "political"]}, {"long_name": "Singapore", "short_name": "Singapore", "types": ["locality", "political"]}, {"long_name": "Singapore", "short_name": "SG", "types": ["country", "political"]}, {"long_name": "320095", "short_name": "320095", "types": ["postal_code"]}], "formatted_address": "95 Whampoa Dr, Block 95, Singapore 320095", "geometry": {"bounds": {"northeast": {"lat": 1.322317, "lng": 103.8562959}, "southwest": {"lat": 1.3220358, "lng": 103.856022}}, "location": {"lat": 1.3221924, "lng": 103.8561821}, "location_type": "ROOFTOP", "viewport": {"northeast": {"lat": 1.323525380291502, "lng": 103.8575079302915}, "southwest": {"lat": 1.320827419708498, "lng": 103.8548099697085}}}, "place_id": "ChIJtTw5_NkZ2jERFKqV7HEyrLg", "types": ["premise"]}