{"address_components": [{"long_name": "Block 349", "short_name": "Block 349", "types": ["premise"]}, {"long_name": "349", "short_name": "349", "types": ["street_number"]}, {"long_name": "Woodlands Avenue 3", "short_name": "Woodlands Ave 3", "types": ["route"]}, {"long_name": "Woodlands", "short_name": "Woodlands", "types": ["neighborhood", "political"]}, {"long_name": "Singapore", "short_name": "Singapore", "types": ["locality", "political"]}, {"long_name": "Singapore", "short_name": "SG", "types": ["country", "political"]}, {"long_name": "730349", "short_name": "730349", "types": ["postal_code"]}], "formatted_address": "349 Woodlands Ave 3, Block 349, Singapore 730349", "geometry": {"bounds": {"northeast": {"lat": 1.4338201, "lng": 103.7828571}, "southwest": {"lat": 1.4331999, "lng": 103.7821991}}, "location": {"lat": 1.4333629, "lng": 103.7823707}, "location_type": "ROOFTOP", "viewport": {"northeast": {"lat": 1.434858980291502, "lng": 103.7838770802915}, "southwest": {"lat": 1.432161019708498, "lng": 103.7811791197085}}}, "place_id": "ChIJZc43la4T2jER5zFr1ZuEgT8", "types": ["premise"]}