{"address_components": [{"long_name": "Block 685B", "short_name": "Block 685B", "types": ["premise"]}, {"long_name": "685B", "short_name": "685B", "types": ["street_number"]}, {"long_name": "Jurong West Street 64", "short_name": "Jurong West Street 64", "types": ["route"]}, {"long_name": "Jurong West", "short_name": "Jurong West", "types": ["neighborhood", "political"]}, {"long_name": "Singapore", "short_name": "Singapore", "types": ["locality", "political"]}, {"long_name": "Singapore", "short_name": "SG", "types": ["country", "political"]}, {"long_name": "642685", "short_name": "642685", "types": ["postal_code"]}], "formatted_address": "685B Jurong West Street 64, Block 685B, Singapore 642685", "geometry": {"bounds": {"northeast": {"lat": 1.343124, "lng": 103.704248}, "southwest": {"lat": 1.342779, "lng": 103.7039269}}, "location": {"lat": 1.3429014, "lng": 103.7040753}, "location_type": "ROOFTOP", "viewport": {"northeast": {"lat": 1.344300480291502, "lng": 103.7054364302915}, "southwest": {"lat": 1.341602519708498, "lng": 103.7027384697085}}}, "place_id": "ChIJZ0oM6ZQP2jERCF1_AZnJxPI", "types": ["premise"]}