{"address_components": [{"long_name": "Block 211", "short_name": "Block 211", "types": ["premise"]}, {"long_name": "211", "short_name": "211", "types": ["street_number"]}, {"long_name": "Bukit Batok Street 21", "short_name": "Bukit Batok Street 21", "types": ["route"]}, {"long_name": "Bukit Batok", "short_name": "Bukit Batok", "types": ["neighborhood", "political"]}, {"long_name": "Singapore", "short_name": "Singapore", "types": ["locality", "political"]}, {"long_name": "Singapore", "short_name": "SG", "types": ["country", "political"]}, {"long_name": "650211", "short_name": "650211", "types": ["postal_code"]}], "formatted_address": "211 Bukit Batok Street 21, Block 211, Singapore 650211", "geometry": {"bounds": {"northeast": {"lat": 1.3464441, "lng": 103.7507181}, "southwest": {"lat": 1.3459491, "lng": 103.7500201}}, "location": {"lat": 1.3463788, "lng": 103.750416}, "location_type": "ROOFTOP", "viewport": {"northeast": {"lat": 1.347545580291502, "lng": 103.7517180802915}, "southwest": {"lat": 1.344847619708498, "lng": 103.7490201197085}}}, "place_id": "ChIJIUhy3D8Q2jERz139q0Ore1U", "types": ["premise"]}