{"address_components": [{"long_name": "Block 857", "short_name": "Block 857", "types": ["premise"]}, {"long_name": "857", "short_name": "857", "types": ["street_number"]}, {"long_name": "Jurong West Street 81", "short_name": "Jurong West Street 81", "types": ["route"]}, {"long_name": "Jurong West", "short_name": "Jurong West", "types": ["neighborhood", "political"]}, {"long_name": "Singapore", "short_name": "Singapore", "types": ["locality", "political"]}, {"long_name": "Singapore", "short_name": "SG", "types": ["country", "political"]}, {"long_name": "640857", "short_name": "640857", "types": ["postal_code"]}], "formatted_address": "857 Jurong West Street 81, Block 857, Singapore 640857", "geometry": {"bounds": {"northeast": {"lat": 1.3484201, "lng": 103.6968863}, "southwest": {"lat": 1.3481291, "lng": 103.6966363}}, "location": {"lat": 1.3482984, "lng": 103.6967489}, "location_type": "ROOFTOP", "viewport": {"northeast": {"lat": 1.349623580291502, "lng": 103.6981102802915}, "southwest": {"lat": 1.346925619708498, "lng": 103.6954123197085}}}, "place_id": "ChIJhQ8ZBL0P2jER78OuwlcxZV8", "types": ["premise"]}