{"address_components": [{"long_name": "Block 19", "short_name": "Block 19", "types": ["premise"]}, {"long_name": "19", "short_name": "19", "types": ["street_number"]}, {"long_name": "Dover Crescent", "short_name": "Dover Cres", "types": ["route"]}, {"long_name": "Queenstown", "short_name": "Queenstown", "types": ["neighborhood", "political"]}, {"long_name": "Singapore", "short_name": "Singapore", "types": ["locality", "political"]}, {"long_name": "Singapore", "short_name": "SG", "types": ["country", "political"]}, {"long_name": "130019", "short_name": "130019", "types": ["postal_code"]}], "formatted_address": "19 Dover Cres, Block 19, Singapore 130019", "geometry": {"bounds": {"northeast": {"lat": 1.3080121, "lng": 103.783823}, "southwest": {"lat": 1.307668, "lng": 103.7834219}}, "location": {"lat": 1.3078208, "lng": 103.7836383}, "location_type": "ROOFTOP", "viewport": {"northeast": {"lat": 1.309189030291502, "lng": 103.7849714302915}, "southwest": {"lat": 1.306491069708498, "lng": 103.7822734697085}}}, "place_id": "ChIJPXT8g10a2jERMKmvoH_jJcw", "types": ["premise"]}