{"address_components": [{"long_name": "Block 672", "short_name": "Block 672", "types": ["premise"]}, {"long_name": "672", "short_name": "672", "types": ["street_number"]}, {"long_name": "Jalan Damai", "short_name": "Jln Damai", "types": ["route"]}, {"long_name": "Bedok", "short_name": "Bedok", "types": ["neighborhood", "political"]}, {"long_name": "Singapore", "short_name": "Singapore", "types": ["locality", "political"]}, {"long_name": "Singapore", "short_name": "SG", "types": ["country", "political"]}, {"long_name": "410672", "short_name": "410672", "types": ["postal_code"]}], "formatted_address": "672 Jln Damai, Block 672, Singapore 410672", "geometry": {"bounds": {"northeast": {"lat": 1.3323195, "lng": 103.9092029}, "southwest": {"lat": 1.3319846, "lng": 103.9082643}}, "location": {"lat": 1.3320621, "lng": 103.9089161}, "location_type": "ROOFTOP", "viewport": {"northeast": {"lat": 1.333501030291502, "lng": 103.9100825802915}, "southwest": {"lat": 1.330803069708498, "lng": 103.9073846197085}}}, "place_id": "ChIJcWcbdfwX2jERQW29UBOLAcg", "types": ["premise"]}