{"address_components": [{"long_name": "Block 520", "short_name": "Block 520", "types": ["premise"]}, {"long_name": "520", "short_name": "520", "types": ["street_number"]}, {"long_name": "Woodlands Drive 14", "short_name": "Woodlands Drive 14", "types": ["route"]}, {"long_name": "Woodlands", "short_name": "Woodlands", "types": ["neighborhood", "political"]}, {"long_name": "Singapore", "short_name": "Singapore", "types": ["locality", "political"]}, {"long_name": "Singapore", "short_name": "SG", "types": ["country", "political"]}, {"long_name": "730520", "short_name": "730520", "types": ["postal_code"]}], "formatted_address": "520 Woodlands Drive 14, Block 520, Singapore 730520", "geometry": {"bounds": {"northeast": {"lat": 1.4346292, "lng": 103.7930049}, "southwest": {"lat": 1.4338235, "lng": 103.7923252}}, "location": {"lat": 1.4343276, "lng": 103.7926023}, "location_type": "ROOFTOP", "viewport": {"northeast": {"lat": 1.435575330291502, "lng": 103.7940140302915}, "southwest": {"lat": 1.432877369708498, "lng": 103.7913160697085}}}, "place_id": "ChIJyy-UB6QT2jERZIatydP22Go", "types": ["premise"]}