{"address_components": [{"long_name": "Block 611", "short_name": "Block 611", "types": ["premise"]}, {"long_name": "611", "short_name": "611", "types": ["street_number"]}, {"long_name": "Elias Road", "short_name": "Elias Rd", "types": ["route"]}, {"long_name": "Pasir Ris", "short_name": "Pasir Ris", "types": ["neighborhood", "political"]}, {"long_name": "Singapore", "short_name": "Singapore", "types": ["locality", "political"]}, {"long_name": "Singapore", "short_name": "SG", "types": ["country", "political"]}, {"long_name": "510611", "short_name": "510611", "types": ["postal_code"]}], "formatted_address": "611 Elias Rd, Block 611, Singapore 510611", "geometry": {"bounds": {"northeast": {"lat": 1.375393, "lng": 103.9425904}, "southwest": {"lat": 1.3749006, "lng": 103.9422}}, "location": {"lat": 1.3751328, "lng": 103.9424517}, "location_type": "ROOFTOP", "viewport": {"northeast": {"lat": 1.376495780291502, "lng": 103.9437441802915}, "southwest": {"lat": 1.373797819708498, "lng": 103.9410462197085}}}, "place_id": "ChIJC9Hmibw92jERIoRbBedRZS4", "types": ["premise"]}