{"address_components": [{"long_name": "Block 103", "short_name": "Block 103", "types": ["premise"]}, {"long_name": "103", "short_name": "103", "types": ["street_number"]}, {"long_name": "Henderson Crescent", "short_name": "Henderson Cres", "types": ["route"]}, {"long_name": "Bukit Merah", "short_name": "Bukit Merah", "types": ["neighborhood", "political"]}, {"long_name": "Singapore", "short_name": "Singapore", "types": ["locality", "political"]}, {"long_name": "Singapore", "short_name": "SG", "types": ["country", "political"]}, {"long_name": "150103", "short_name": "150103", "types": ["postal_code"]}], "formatted_address": "103 Henderson Cres, Block 103, Singapore 150103", "geometry": {"bounds": {"northeast": {"lat": 1.2902701, "lng": 103.8218995}, "southwest": {"lat": 1.2897521, "lng": 103.8212825}}, "location": {"lat": 1.2898163, "lng": 103.8215129}, "location_type": "ROOFTOP", "viewport": {"northeast": {"lat": 1.291360080291502, "lng": 103.8229399802915}, "southwest": {"lat": 1.288662119708498, "lng": 103.8202420197085}}}, "place_id": "ChIJX9v-pioa2jERgEJdR7g2XRM", "types": ["premise"]}