{"address_components": [{"long_name": "Block 862", "short_name": "Block 862", "types": ["premise"]}, {"long_name": "862", "short_name": "862", "types": ["street_number"]}, {"long_name": "Yishun Avenue 4", "short_name": "Yishun Ave 4", "types": ["route"]}, {"long_name": "Yishun", "short_name": "Yishun", "types": ["neighborhood", "political"]}, {"long_name": "Singapore", "short_name": "Singapore", "types": ["locality", "political"]}, {"long_name": "Singapore", "short_name": "SG", "types": ["country", "political"]}, {"long_name": "760862", "short_name": "760862", "types": ["postal_code"]}], "formatted_address": "862 Yishun Ave 4, Block 862, Singapore 760862", "geometry": {"bounds": {"northeast": {"lat": 1.4174162, "lng": 103.8397866}, "southwest": {"lat": 1.4169293, "lng": 103.8388785}}, "location": {"lat": 1.4171663, "lng": 103.8393332}, "location_type": "ROOFTOP", "viewport": {"northeast": {"lat": 1.418521730291502, "lng": 103.8406815302915}, "southwest": {"lat": 1.415823769708498, "lng": 103.8379835697085}}}, "place_id": "ChIJ55OSdhQU2jERrIsLQJU6H1I", "types": ["premise"]}