{"address_components": [{"long_name": "Block 414", "short_name": "Block 414", "types": ["premise"]}, {"long_name": "414", "short_name": "414", "types": ["street_number"]}, {"long_name": "Jurong West Street 42", "short_name": "Jurong West Street 42", "types": ["route"]}, {"long_name": "Jurong West", "short_name": "Jurong West", "types": ["neighborhood", "political"]}, {"long_name": "Singapore", "short_name": "Singapore", "types": ["locality", "political"]}, {"long_name": "Singapore", "short_name": "SG", "types": ["country", "political"]}, {"long_name": "640414", "short_name": "640414", "types": ["postal_code"]}], "formatted_address": "414 Jurong West Street 42, Block 414, Singapore 640414", "geometry": {"bounds": {"northeast": {"lat": 1.3530691, "lng": 103.7264258}, "southwest": {"lat": 1.352669, "lng": 103.7255967}}, "location": {"lat": 1.3528118, "lng": 103.7261563}, "location_type": "ROOFTOP", "viewport": {"northeast": {"lat": 1.354218030291502, "lng": 103.7273602302915}, "southwest": {"lat": 1.351520069708498, "lng": 103.7246622697085}}}, "place_id": "ChIJJX4g_tgP2jERM8Xt5GlwMks", "types": ["premise"]}