{"address_components": [{"long_name": "Block 120", "short_name": "Block 120", "types": ["premise"]}, {"long_name": "120", "short_name": "120", "types": ["street_number"]}, {"long_name": "Kim Tian Place", "short_name": "Kim Tian Pl", "types": ["route"]}, {"long_name": "Bukit Merah", "short_name": "Bukit Merah", "types": ["neighborhood", "political"]}, {"long_name": "Singapore", "short_name": "Singapore", "types": ["locality", "political"]}, {"long_name": "Singapore", "short_name": "SG", "types": ["country", "political"]}, {"long_name": "160120", "short_name": "160120", "types": ["postal_code"]}], "formatted_address": "120 Kim Tian Pl, Block 120, Singapore 160120", "geometry": {"bounds": {"northeast": {"lat": 1.2831312, "lng": 103.828144}, "southwest": {"lat": 1.2827882, "lng": 103.8277879}}, "location": {"lat": 1.2829258, "lng": 103.8279207}, "location_type": "ROOFTOP", "viewport": {"northeast": {"lat": 1.284308680291502, "lng": 103.8293149302915}, "southwest": {"lat": 1.281610719708498, "lng": 103.8266169697085}}}, "place_id": "ChIJCRGojnsZ2jERHT4GOlwA4a4", "types": ["premise"]}