{"address_components": [{"long_name": "Block 627", "short_name": "Block 627", "types": ["premise"]}, {"long_name": "627", "short_name": "627", "types": ["street_number"]}, {"long_name": "Hougang Avenue 8", "short_name": "Hougang Ave 8", "types": ["route"]}, {"long_name": "Hougang", "short_name": "Hougang", "types": ["neighborhood", "political"]}, {"long_name": "Singapore", "short_name": "Singapore", "types": ["locality", "political"]}, {"long_name": "Singapore", "short_name": "SG", "types": ["country", "political"]}, {"long_name": "530627", "short_name": "530627", "types": ["postal_code"]}], "formatted_address": "627 Hougang Ave 8, Block 627, Singapore 530627", "geometry": {"bounds": {"northeast": {"lat": 1.3696694, "lng": 103.8823711}, "southwest": {"lat": 1.3691704, "lng": 103.8814372}}, "location": {"lat": 1.3692612, "lng": 103.8818192}, "location_type": "ROOFTOP", "viewport": {"northeast": {"lat": 1.370768880291502, "lng": 103.8832531302915}, "southwest": {"lat": 1.368070919708498, "lng": 103.8805551697085}}}, "place_id": "ChIJz9wZZk4W2jERlzjmbUYWSWo", "types": ["premise"]}