{"address_components": [{"long_name": "18C", "short_name": "18C", "types": ["street_number"]}, {"long_name": "Holland Drive", "short_name": "Holland Dr", "types": ["route"]}, {"long_name": "Queenstown", "short_name": "Queenstown", "types": ["neighborhood", "political"]}, {"long_name": "Singapore", "short_name": "Singapore", "types": ["locality", "political"]}, {"long_name": "Singapore", "short_name": "SG", "types": ["country", "political"]}, {"long_name": "274018", "short_name": "274018", "types": ["postal_code"]}], "formatted_address": "18C Holland Dr, Singapore 274018", "geometry": {"bounds": {"northeast": {"lat": 1.3106645, "lng": 103.7919588}, "southwest": {"lat": 1.3102768, "lng": 103.7915421}}, "location": {"lat": 1.3104825, "lng": 103.7917873}, "location_type": "ROOFTOP", "viewport": {"northeast": {"lat": 1.311819630291502, "lng": 103.7930994302915}, "southwest": {"lat": 1.309121669708498, "lng": 103.7904014697085}}}, "place_id": "ChIJtbWMd2ka2jER2mTY1VnjL_0", "types": ["premise"]}