{"address_components": [{"long_name": "Block 929", "short_name": "Block 929", "types": ["premise"]}, {"long_name": "929", "short_name": "929", "types": ["street_number"]}, {"long_name": "Jurong West Street 92", "short_name": "Jurong West Street 92", "types": ["route"]}, {"long_name": "Jurong West", "short_name": "Jurong West", "types": ["neighborhood", "political"]}, {"long_name": "Singapore", "short_name": "Singapore", "types": ["locality", "political"]}, {"long_name": "Singapore", "short_name": "SG", "types": ["country", "political"]}, {"long_name": "640929", "short_name": "640929", "types": ["postal_code"]}], "formatted_address": "929 Jurong West Street 92, Block 929, Singapore 640929", "geometry": {"bounds": {"northeast": {"lat": 1.3414744, "lng": 103.6897767}, "southwest": {"lat": 1.3411714, "lng": 103.6888344}}, "location": {"lat": 1.3413006, "lng": 103.6893265}, "location_type": "ROOFTOP", "viewport": {"northeast": {"lat": 1.342671880291502, "lng": 103.6906545302915}, "southwest": {"lat": 1.339973919708498, "lng": 103.6879565697085}}}, "place_id": "ChIJxUBT4psP2jERZ4QOsquttNg", "types": ["premise"]}