{"address_components": [{"long_name": "Block 370", "short_name": "Block 370", "types": ["premise"]}, {"long_name": "370", "short_name": "370", "types": ["street_number"]}, {"long_name": "Woodlands Avenue 1", "short_name": "Woodlands Ave 1", "types": ["route"]}, {"long_name": "Woodlands", "short_name": "Woodlands", "types": ["neighborhood", "political"]}, {"long_name": "Singapore", "short_name": "Singapore", "types": ["locality", "political"]}, {"long_name": "Singapore", "short_name": "SG", "types": ["country", "political"]}, {"long_name": "730370", "short_name": "730370", "types": ["postal_code"]}], "formatted_address": "370 Woodlands Ave 1, Block 370, Singapore 730370", "geometry": {"bounds": {"northeast": {"lat": 1.433137, "lng": 103.7874851}, "southwest": {"lat": 1.4324729, "lng": 103.787224}}, "location": {"lat": 1.4328735, "lng": 103.7873732}, "location_type": "ROOFTOP", "viewport": {"northeast": {"lat": 1.434153930291502, "lng": 103.7887035302915}, "southwest": {"lat": 1.431455969708498, "lng": 103.7860055697085}}}, "place_id": "ChIJvThbhKUT2jERv3d874tk4KM", "types": ["premise"]}