{"address_components": [{"long_name": "Block 204", "short_name": "Block 204", "types": ["premise"]}, {"long_name": "204", "short_name": "204", "types": ["street_number"]}, {"long_name": "Ang Mo Kio Avenue 3", "short_name": "Ang Mo Kio Ave 3", "types": ["route"]}, {"long_name": "Ang Mo Kio", "short_name": "Ang Mo Kio", "types": ["neighborhood", "political"]}, {"long_name": "Singapore", "short_name": "Singapore", "types": ["locality", "political"]}, {"long_name": "Singapore", "short_name": "SG", "types": ["country", "political"]}, {"long_name": "560204", "short_name": "560204", "types": ["postal_code"]}], "formatted_address": "204 Ang Mo Kio Ave 3, Block 204, Singapore 560204", "geometry": {"bounds": {"northeast": {"lat": 1.367675, "lng": 103.8441651}, "southwest": {"lat": 1.367101, "lng": 103.8435179}}, "location": {"lat": 1.3673655, "lng": 103.8438623}, "location_type": "ROOFTOP", "viewport": {"northeast": {"lat": 1.368736980291502, "lng": 103.8451904802915}, "southwest": {"lat": 1.366039019708498, "lng": 103.8424925197085}}}, "place_id": "ChIJWQxMPN4W2jERJWqeUQiJPM4", "types": ["premise"]}