{"address_components": [{"long_name": "Block 715", "short_name": "Block 715", "types": ["premise"]}, {"long_name": "715", "short_name": "715", "types": ["street_number"]}, {"long_name": "Woodlands Drive 70", "short_name": "Woodlands Drive 70", "types": ["route"]}, {"long_name": "Woodlands", "short_name": "Woodlands", "types": ["neighborhood", "political"]}, {"long_name": "Singapore", "short_name": "Singapore", "types": ["locality", "political"]}, {"long_name": "Singapore", "short_name": "SG", "types": ["country", "political"]}, {"long_name": "730715", "short_name": "730715", "types": ["postal_code"]}], "formatted_address": "715 Woodlands Drive 70, Block 715, Singapore 730715", "geometry": {"bounds": {"northeast": {"lat": 1.4424171, "lng": 103.7998869}, "southwest": {"lat": 1.4417081, "lng": 103.799189}}, "location": {"lat": 1.4421561, "lng": 103.7996879}, "location_type": "ROOFTOP", "viewport": {"northeast": {"lat": 1.443411580291502, "lng": 103.8008869302915}, "southwest": {"lat": 1.440713619708498, "lng": 103.7981889697085}}}, "place_id": "ChIJhc8H3HQT2jERuS81L-l6tsI", "types": ["premise"]}