{"address_components": [{"long_name": "Block 480", "short_name": "Block 480", "types": ["premise"]}, {"long_name": "480", "short_name": "480", "types": ["street_number"]}, {"long_name": "Segar Road", "short_name": "Segar Rd", "types": ["route"]}, {"long_name": "Bukit Panjang", "short_name": "Bukit Panjang", "types": ["neighborhood", "political"]}, {"long_name": "Singapore", "short_name": "Singapore", "types": ["locality", "political"]}, {"long_name": "Singapore", "short_name": "SG", "types": ["country", "political"]}, {"long_name": "670480", "short_name": "670480", "types": ["postal_code"]}], "formatted_address": "480 Segar Rd, Block 480, Singapore 670480", "geometry": {"bounds": {"northeast": {"lat": 1.38986, "lng": 103.772432}, "southwest": {"lat": 1.389473, "lng": 103.772117}}, "location": {"lat": 1.389776, "lng": 103.7722305}, "location_type": "ROOFTOP", "viewport": {"northeast": {"lat": 1.391015480291502, "lng": 103.7736234802915}, "southwest": {"lat": 1.388317519708498, "lng": 103.7709255197085}}}, "place_id": "ChIJkf6fUpwR2jERjuM9jRBJz3Q", "types": ["premise"]}