{"address_components": [{"long_name": "464", "short_name": "464", "types": ["street_number"]}, {"long_name": "Upper Serangoon Road", "short_name": "Upper Serangoon Rd", "types": ["route"]}, {"long_name": "Hougang", "short_name": "Hougang", "types": ["neighborhood", "political"]}, {"long_name": "Singapore", "short_name": "Singapore", "types": ["locality", "political"]}, {"long_name": "Singapore", "short_name": "SG", "types": ["country", "political"]}, {"long_name": "530464", "short_name": "530464", "types": ["postal_code"]}], "formatted_address": "464 Upper Serangoon Rd, Singapore 530464", "geometry": {"bounds": {"northeast": {"lat": 1.3728354, "lng": 103.896773}, "southwest": {"lat": 1.3720797, "lng": 103.8959092}}, "location": {"lat": 1.3721834, "lng": 103.8964103}, "location_type": "ROOFTOP", "viewport": {"northeast": {"lat": 1.373806530291502, "lng": 103.8976900802915}, "southwest": {"lat": 1.371108569708498, "lng": 103.8949921197085}}}, "place_id": "ChIJcxpYRTcW2jERx2LoQM_2Hho", "types": ["premise"]}