{"address_components": [{"long_name": "Block 711", "short_name": "Block 711", "types": ["premise"]}, {"long_name": "711", "short_name": "711", "types": ["street_number"]}, {"long_name": "Clementi West Street 2", "short_name": "Clementi West Street 2", "types": ["route"]}, {"long_name": "Clementi", "short_name": "Clementi", "types": ["neighborhood", "political"]}, {"long_name": "Singapore", "short_name": "Singapore", "types": ["locality", "political"]}, {"long_name": "Singapore", "short_name": "SG", "types": ["country", "political"]}, {"long_name": "120711", "short_name": "120711", "types": ["postal_code"]}], "formatted_address": "711 Clementi West Street 2, Block 711, Singapore 120711", "geometry": {"bounds": {"northeast": {"lat": 1.3055641, "lng": 103.7612899}, "southwest": {"lat": 1.3045891, "lng": 103.7609381}}, "location": {"lat": 1.3050936, "lng": 103.7610046}, "location_type": "ROOFTOP", "viewport": {"northeast": {"lat": 1.306425580291502, "lng": 103.7624629802915}, "southwest": {"lat": 1.303727619708498, "lng": 103.7597650197085}}}, "place_id": "ChIJt-X7s-0a2jERCdpIs-m10A0", "types": ["premise"]}