{"address_components": [{"long_name": "Block 126", "short_name": "Block 126", "types": ["premise"]}, {"long_name": "126", "short_name": "126", "types": ["street_number"]}, {"long_name": "Serangoon North Avenue 1", "short_name": "Serangoon North Ave 1", "types": ["route"]}, {"long_name": "Serangoon", "short_name": "Serangoon", "types": ["neighborhood", "political"]}, {"long_name": "Singapore", "short_name": "Singapore", "types": ["locality", "political"]}, {"long_name": "Singapore", "short_name": "SG", "types": ["country", "political"]}, {"long_name": "550126", "short_name": "550126", "types": ["postal_code"]}], "formatted_address": "126 Serangoon North Ave 1, Block 126, Singapore 550126", "geometry": {"bounds": {"northeast": {"lat": 1.3661993, "lng": 103.8720853}, "southwest": {"lat": 1.3658893, "lng": 103.8714153}}, "location": {"lat": 1.3660252, "lng": 103.8716774}, "location_type": "ROOFTOP", "viewport": {"northeast": {"lat": 1.367393280291502, "lng": 103.8730992802915}, "southwest": {"lat": 1.364695319708498, "lng": 103.8704013197085}}}, "place_id": "ChIJhUkJ91QW2jERslcOChSQZu0", "types": ["premise"]}