{"address_components": [{"long_name": "Block 15", "short_name": "Block 15", "types": ["premise"]}, {"long_name": "15", "short_name": "15", "types": ["street_number"]}, {"long_name": "Beach Road", "short_name": "Beach Rd", "types": ["route"]}, {"long_name": "Kallang", "short_name": "Kallang", "types": ["neighborhood", "political"]}, {"long_name": "Singapore", "short_name": "Singapore", "types": ["locality", "political"]}, {"long_name": "Singapore", "short_name": "SG", "types": ["country", "political"]}, {"long_name": "190015", "short_name": "190015", "types": ["postal_code"]}], "formatted_address": "15 Beach Rd, Block 15, Singapore 190015", "geometry": {"bounds": {"northeast": {"lat": 1.3036502, "lng": 103.8633659}, "southwest": {"lat": 1.3033137, "lng": 103.8630085}}, "location": {"lat": 1.303497, "lng": 103.8631589}, "location_type": "ROOFTOP", "viewport": {"northeast": {"lat": 1.304830930291502, "lng": 103.8645361802915}, "southwest": {"lat": 1.302132969708498, "lng": 103.8618382197085}}}, "place_id": "ChIJ9fEJD7QZ2jER4prMjh-RV98", "types": ["premise"]}