{"address_components": [{"long_name": "Block 35", "short_name": "Block 35", "types": ["premise"]}, {"long_name": "35", "short_name": "35", "types": ["street_number"]}, {"long_name": "Chai Chee Avenue", "short_name": "Chai Chee Ave", "types": ["route"]}, {"long_name": "Bedok", "short_name": "Bedok", "types": ["neighborhood", "political"]}, {"long_name": "Singapore", "short_name": "Singapore", "types": ["locality", "political"]}, {"long_name": "Singapore", "short_name": "SG", "types": ["country", "political"]}, {"long_name": "461035", "short_name": "461035", "types": ["postal_code"]}], "formatted_address": "35 Chai Chee Ave, Block 35, Singapore 461035", "geometry": {"bounds": {"northeast": {"lat": 1.3250056, "lng": 103.9265635}, "southwest": {"lat": 1.3247306, "lng": 103.9257846}}, "location": {"lat": 1.3248659, "lng": 103.9261361}, "location_type": "ROOFTOP", "viewport": {"northeast": {"lat": 1.326217080291502, "lng": 103.9275230302915}, "southwest": {"lat": 1.323519119708498, "lng": 103.9248250697085}}}, "place_id": "ChIJh60qoLIi2jERXvDlN6e01QA", "types": ["premise"]}