{"address_components": [{"long_name": "Block 127", "short_name": "Block 127", "types": ["premise"]}, {"long_name": "127", "short_name": "127", "types": ["street_number"]}, {"long_name": "Marsiling Rise", "short_name": "Marsiling Rise", "types": ["route"]}, {"long_name": "Woodlands", "short_name": "Woodlands", "types": ["neighborhood", "political"]}, {"long_name": "Singapore", "short_name": "Singapore", "types": ["locality", "political"]}, {"long_name": "Singapore", "short_name": "SG", "types": ["country", "political"]}, {"long_name": "730127", "short_name": "730127", "types": ["postal_code"]}], "formatted_address": "127 Marsiling Rise, Block 127, Singapore 730127", "geometry": {"bounds": {"northeast": {"lat": 1.4382097, "lng": 103.7797554}, "southwest": {"lat": 1.4380768, "lng": 103.7792823}}, "location": {"lat": 1.4381517, "lng": 103.7794734}, "location_type": "ROOFTOP", "viewport": {"northeast": {"lat": 1.439492230291502, "lng": 103.7808678302915}, "southwest": {"lat": 1.436794269708498, "lng": 103.7781698697085}}}, "place_id": "ChIJ96MCQaoT2jERuo2i0MsXpYY", "types": ["premise"]}