{"address_components": [{"long_name": "113", "short_name": "113", "types": ["street_number"]}, {"long_name": "Rivervale Walk", "short_name": "Rivervale Walk", "types": ["route"]}, {"long_name": "Sengkang", "short_name": "Sengkang", "types": ["neighborhood", "political"]}, {"long_name": "Singapore", "short_name": "Singapore", "types": ["locality", "political"]}, {"long_name": "Singapore", "short_name": "SG", "types": ["country", "political"]}, {"long_name": "540113", "short_name": "540113", "types": ["postal_code"]}], "formatted_address": "113 Rivervale Walk, Singapore 540113", "geometry": {"bounds": {"northeast": {"lat": 1.3844292, "lng": 103.9019229}, "southwest": {"lat": 1.3837356, "lng": 103.9014254}}, "location": {"lat": 1.3843141, "lng": 103.9015756}, "location_type": "ROOFTOP", "viewport": {"northeast": {"lat": 1.385431380291502, "lng": 103.9030231302915}, "southwest": {"lat": 1.382733419708498, "lng": 103.9003251697085}}}, "place_id": "ChIJwZkqlxcW2jERRp-psqw46kI", "types": ["premise"]}