{"address_components": [{"long_name": "Block 700A", "short_name": "Block 700A", "types": ["premise"]}, {"long_name": "700A", "short_name": "700A", "types": ["street_number"]}, {"long_name": "Ang Mo Kio Avenue 6", "short_name": "Ang Mo Kio Ave 6", "types": ["route"]}, {"long_name": "Ang Mo Kio", "short_name": "Ang Mo Kio", "types": ["neighborhood", "political"]}, {"long_name": "Singapore", "short_name": "Singapore", "types": ["locality", "political"]}, {"long_name": "Singapore", "short_name": "SG", "types": ["country", "political"]}, {"long_name": "561700", "short_name": "561700", "types": ["postal_code"]}], "formatted_address": "700A Ang Mo Kio Ave 6, Block 700A, Singapore 561700", "geometry": {"bounds": {"northeast": {"lat": 1.3700595, "lng": 103.8463766}, "southwest": {"lat": 1.3697447, "lng": 103.845699}}, "location": {"lat": 1.3699527, "lng": 103.8461722}, "location_type": "ROOFTOP", "viewport": {"northeast": {"lat": 1.371251080291502, "lng": 103.8473867802915}, "southwest": {"lat": 1.368553119708498, "lng": 103.8446888197085}}}, "place_id": "ChIJiToPaucW2jER2GltigPypSI", "types": ["premise"]}