{"address_components": [{"long_name": "Block 230", "short_name": "Block 230", "types": ["premise"]}, {"long_name": "230", "short_name": "230", "types": ["street_number"]}, {"long_name": "Pasir Ris Street 21", "short_name": "Pasir Ris Street 21", "types": ["route"]}, {"long_name": "Pasir Ris", "short_name": "Pasir Ris", "types": ["neighborhood", "political"]}, {"long_name": "Singapore", "short_name": "Singapore", "types": ["locality", "political"]}, {"long_name": "Singapore", "short_name": "SG", "types": ["country", "political"]}, {"long_name": "510230", "short_name": "510230", "types": ["postal_code"]}], "formatted_address": "230 Pasir Ris Street 21, Block 230, Singapore 510230", "geometry": {"bounds": {"northeast": {"lat": 1.3730935, "lng": 103.961438}, "southwest": {"lat": 1.3723504, "lng": 103.9607933}}, "location": {"lat": 1.3727523, "lng": 103.9609451}, "location_type": "ROOFTOP", "viewport": {"northeast": {"lat": 1.374070930291502, "lng": 103.9624646302915}, "southwest": {"lat": 1.371372969708498, "lng": 103.9597666697085}}}, "place_id": "ChIJx1w8qlI82jERe8p4ko80Mao", "types": ["premise"]}