{"address_components": [{"long_name": "Block 454", "short_name": "Block 454", "types": ["premise"]}, {"long_name": "454", "short_name": "454", "types": ["street_number"]}, {"long_name": "Sin Ming Avenue", "short_name": "Sin Ming Ave", "types": ["route"]}, {"long_name": "Bishan", "short_name": "Bishan", "types": ["neighborhood", "political"]}, {"long_name": "Singapore", "short_name": "Singapore", "types": ["locality", "political"]}, {"long_name": "Singapore", "short_name": "SG", "types": ["country", "political"]}, {"long_name": "570454", "short_name": "570454", "types": ["postal_code"]}], "formatted_address": "454 Sin Ming Ave, Block 454, Singapore 570454", "geometry": {"bounds": {"northeast": {"lat": 1.3592103, "lng": 103.8311579}, "southwest": {"lat": 1.3590072, "lng": 103.8300867}}, "location": {"lat": 1.3591653, "lng": 103.8306379}, "location_type": "ROOFTOP", "viewport": {"northeast": {"lat": 1.360457730291502, "lng": 103.8319712802915}, "southwest": {"lat": 1.357759769708498, "lng": 103.8292733197085}}}, "place_id": "ChIJfZ71KS8X2jERJFhaM0ubOjM", "types": ["premise"]}