{"address_components": [{"long_name": "Block 76", "short_name": "Block 76", "types": ["premise"]}, {"long_name": "76", "short_name": "76", "types": ["street_number"]}, {"long_name": "Marine Drive", "short_name": "Marine Dr", "types": ["route"]}, {"long_name": "Marine Parade", "short_name": "Marine Parade", "types": ["neighborhood", "political"]}, {"long_name": "Singapore", "short_name": "Singapore", "types": ["locality", "political"]}, {"long_name": "Singapore", "short_name": "SG", "types": ["country", "political"]}, {"long_name": "440076", "short_name": "440076", "types": ["postal_code"]}], "formatted_address": "76 Marine Dr, Block 76, Singapore 440076", "geometry": {"bounds": {"northeast": {"lat": 1.3030865, "lng": 103.9080497}, "southwest": {"lat": 1.3026145, "lng": 103.9074217}}, "location": {"lat": 1.3028635, "lng": 103.9077153}, "location_type": "ROOFTOP", "viewport": {"northeast": {"lat": 1.304199480291502, "lng": 103.9090846802915}, "southwest": {"lat": 1.301501519708498, "lng": 103.9063867197085}}}, "place_id": "ChIJQxP843MY2jER2_2FktVLSHg", "types": ["premise"]}