{"address_components": [{"long_name": "Block 755", "short_name": "Block 755", "types": ["premise"]}, {"long_name": "755", "short_name": "755", "types": ["street_number"]}, {"long_name": "Jurong West Street 74", "short_name": "Jurong West Street 74", "types": ["route"]}, {"long_name": "Jurong West", "short_name": "Jurong West", "types": ["neighborhood", "political"]}, {"long_name": "Singapore", "short_name": "Singapore", "types": ["locality", "political"]}, {"long_name": "Singapore", "short_name": "SG", "types": ["country", "political"]}, {"long_name": "640755", "short_name": "640755", "types": ["postal_code"]}], "formatted_address": "755 Jurong West Street 74, Block 755, Singapore 640755", "geometry": {"bounds": {"northeast": {"lat": 1.348963, "lng": 103.7009834}, "southwest": {"lat": 1.3482751, "lng": 103.7005455}}, "location": {"lat": 1.3483488, "lng": 103.7007304}, "location_type": "ROOFTOP", "viewport": {"northeast": {"lat": 1.349968030291502, "lng": 103.7021134302915}, "southwest": {"lat": 1.347270069708498, "lng": 103.6994154697085}}}, "place_id": "ChIJrTaGiL4P2jER6-1b8Qi3YHY", "types": ["premise"]}