{"address_components": [{"long_name": "Block 508A", "short_name": "Block 508A", "types": ["premise"]}, {"long_name": "Sembawang", "short_name": "Sembawang", "types": ["neighborhood", "political"]}, {"long_name": "Singapore", "short_name": "Singapore", "types": ["locality", "political"]}, {"long_name": "Singapore", "short_name": "SG", "types": ["country", "political"]}], "formatted_address": "Block 508A, Singapore", "geometry": {"bounds": {"northeast": {"lat": 1.452756, "lng": 103.8205831}, "southwest": {"lat": 1.452362, "lng": 103.820121}}, "location": {"lat": 1.4524527, "lng": 103.8202902}, "location_type": "ROOFTOP", "viewport": {"northeast": {"lat": 1.453907980291502, "lng": 103.8217010302915}, "southwest": {"lat": 1.451210019708498, "lng": 103.8190030697085}}}, "place_id": "ChIJzThfFmIT2jERteWhhs7zOJU", "types": ["premise"]}