{"address_components": [{"long_name": "Block 787D", "short_name": "Block 787D", "types": ["premise"]}, {"long_name": "787D", "short_name": "787D", "types": ["street_number"]}, {"long_name": "Woodlands Crescent", "short_name": "Woodlands Cres", "types": ["route"]}, {"long_name": "Woodlands", "short_name": "Woodlands", "types": ["neighborhood", "political"]}, {"long_name": "Singapore", "short_name": "Singapore", "types": ["locality", "political"]}, {"long_name": "Singapore", "short_name": "SG", "types": ["country", "political"]}, {"long_name": "734787", "short_name": "734787", "types": ["postal_code"]}], "formatted_address": "787D Woodlands Cres, Block 787D, Singapore 734787", "geometry": {"bounds": {"northeast": {"lat": 1.445648, "lng": 103.801999}, "southwest": {"lat": 1.4450189, "lng": 103.801352}}, "location": {"lat": 1.4454474, "lng": 103.8016348}, "location_type": "ROOFTOP", "viewport": {"northeast": {"lat": 1.446682430291502, "lng": 103.8030244802915}, "southwest": {"lat": 1.443984469708498, "lng": 103.8003265197085}}}, "place_id": "ChIJGRSMoXMT2jER0oBa4Ttsoek", "types": ["premise"]}