{"address_components": [{"long_name": "Block 720", "short_name": "Block 720", "types": ["premise"]}, {"long_name": "720", "short_name": "720", "types": ["street_number"]}, {"long_name": "Tampines Street 72", "short_name": "Tampines Street 72", "types": ["route"]}, {"long_name": "Tampines", "short_name": "Tampines", "types": ["neighborhood", "political"]}, {"long_name": "Singapore", "short_name": "Singapore", "types": ["locality", "political"]}, {"long_name": "Singapore", "short_name": "SG", "types": ["country", "political"]}, {"long_name": "520720", "short_name": "520720", "types": ["postal_code"]}], "formatted_address": "720 Tampines Street 72, Block 720, Singapore 520720", "geometry": {"bounds": {"northeast": {"lat": 1.3597356, "lng": 103.9361995}, "southwest": {"lat": 1.3592397, "lng": 103.9359108}}, "location": {"lat": 1.3594259, "lng": 103.9361065}, "location_type": "ROOFTOP", "viewport": {"northeast": {"lat": 1.360836630291502, "lng": 103.9374041302915}, "southwest": {"lat": 1.358138669708498, "lng": 103.9347061697085}}}, "place_id": "ChIJPeTql3Q92jER1osCya3bpio", "types": ["premise"]}