{"address_components": [{"long_name": "Block 618", "short_name": "Block 618", "types": ["premise"]}, {"long_name": "618", "short_name": "618", "types": ["street_number"]}, {"long_name": "Woodlands Avenue 4", "short_name": "Woodlands Ave 4", "types": ["route"]}, {"long_name": "Woodlands", "short_name": "Woodlands", "types": ["neighborhood", "political"]}, {"long_name": "Singapore", "short_name": "Singapore", "types": ["locality", "political"]}, {"long_name": "Singapore", "short_name": "SG", "types": ["country", "political"]}, {"long_name": "730618", "short_name": "730618", "types": ["postal_code"]}], "formatted_address": "618 Woodlands Ave 4, Block 618, Singapore 730618", "geometry": {"bounds": {"northeast": {"lat": 1.4338216, "lng": 103.7970283}, "southwest": {"lat": 1.4334727, "lng": 103.7962134}}, "location": {"lat": 1.4336421, "lng": 103.796677}, "location_type": "ROOFTOP", "viewport": {"northeast": {"lat": 1.434996130291502, "lng": 103.7979698302915}, "southwest": {"lat": 1.432298169708498, "lng": 103.7952718697085}}}, "place_id": "ChIJ89YqP6IT2jERnNNyzUh5ksM", "types": ["premise"]}