{"address_components": [{"long_name": "451B", "short_name": "451B", "types": ["street_number"]}, {"long_name": "Sengkang West Way", "short_name": "Sengkang W Way", "types": ["route"]}, {"long_name": "Sengkang", "short_name": "Sengkang", "types": ["neighborhood", "political"]}, {"long_name": "Singapore", "short_name": "Singapore", "types": ["locality", "political"]}, {"long_name": "Singapore", "short_name": "SG", "types": ["country", "political"]}, {"long_name": "792451", "short_name": "792451", "types": ["postal_code"]}], "formatted_address": "451B Sengkang W Way, Singapore 792451", "geometry": {"bounds": {"northeast": {"lat": 1.3945776, "lng": 103.8747614}, "southwest": {"lat": 1.3941965, "lng": 103.8743666}}, "location": {"lat": 1.3945086, "lng": 103.8746667}, "location_type": "ROOFTOP", "viewport": {"northeast": {"lat": 1.395736030291502, "lng": 103.8759129802915}, "southwest": {"lat": 1.393038069708498, "lng": 103.8732150197085}}}, "place_id": "ChIJFz9lm3sW2jERpIrIB764VT0", "types": ["premise"]}