{"address_components": [{"long_name": "Block 171A", "short_name": "Block 171A", "types": ["premise"]}, {"long_name": "171A", "short_name": "171A", "types": ["street_number"]}, {"long_name": "Edgedale Plains", "short_name": "Edgedale Plains", "types": ["route"]}, {"long_name": "Punggol", "short_name": "Punggol", "types": ["neighborhood", "political"]}, {"long_name": "Singapore", "short_name": "Singapore", "types": ["locality", "political"]}, {"long_name": "Singapore", "short_name": "SG", "types": ["country", "political"]}, {"long_name": "821171", "short_name": "821171", "types": ["postal_code"]}], "formatted_address": "171A Edgedale Plains, Block 171A, Singapore 821171", "geometry": {"bounds": {"northeast": {"lat": 1.394856, "lng": 103.912649}, "southwest": {"lat": 1.394354, "lng": 103.9121288}}, "location": {"lat": 1.3945818, "lng": 103.9123599}, "location_type": "ROOFTOP", "viewport": {"northeast": {"lat": 1.395953980291502, "lng": 103.9137378802915}, "southwest": {"lat": 1.393256019708498, "lng": 103.9110399197085}}}, "place_id": "ChIJ_RThWgIW2jERINdDyKxAmVs", "types": ["premise"]}