{"address_components": [{"long_name": "Block 267", "short_name": "Block 267", "types": ["premise"]}, {"long_name": "267", "short_name": "267", "types": ["street_number"]}, {"long_name": "Toh Guan Road", "short_name": "Toh Guan Rd", "types": ["route"]}, {"long_name": "Jurong East", "short_name": "Jurong East", "types": ["neighborhood", "political"]}, {"long_name": "Singapore", "short_name": "Singapore", "types": ["locality", "political"]}, {"long_name": "Singapore", "short_name": "SG", "types": ["country", "political"]}, {"long_name": "600267", "short_name": "600267", "types": ["postal_code"]}], "formatted_address": "267 Toh Guan Rd, Block 267, Singapore 600267", "geometry": {"bounds": {"northeast": {"lat": 1.341325, "lng": 103.7449389}, "southwest": {"lat": 1.3408299, "lng": 103.7446211}}, "location": {"lat": 1.3410576, "lng": 103.7447108}, "location_type": "ROOFTOP", "viewport": {"northeast": {"lat": 1.342426430291502, "lng": 103.7461289802915}, "southwest": {"lat": 1.339728469708498, "lng": 103.7434310197085}}}, "place_id": "ChIJS1dpNREQ2jERN-u-l8EohIY", "types": ["premise"]}