{"address_components": [{"long_name": "445B", "short_name": "445B", "types": ["street_number"]}, {"long_name": "Fernvale Road", "short_name": "Fernvale Rd", "types": ["route"]}, {"long_name": "Sengkang", "short_name": "Sengkang", "types": ["neighborhood", "political"]}, {"long_name": "Singapore", "short_name": "Singapore", "types": ["locality", "political"]}, {"long_name": "Singapore", "short_name": "SG", "types": ["country", "political"]}, {"long_name": "792445", "short_name": "792445", "types": ["postal_code"]}], "formatted_address": "445B Fernvale Rd, Singapore 792445", "geometry": {"bounds": {"northeast": {"lat": 1.3924416, "lng": 103.8741837}, "southwest": {"lat": 1.3921318, "lng": 103.8738066}}, "location": {"lat": 1.3923867, "lng": 103.8740321}, "location_type": "ROOFTOP", "viewport": {"northeast": {"lat": 1.393635680291502, "lng": 103.8753441302915}, "southwest": {"lat": 1.390937719708498, "lng": 103.8726461697085}}}, "place_id": "ChIJKUuBVnsW2jER2Mbi1VFRCFA", "types": ["premise"]}