{"address_components": [{"long_name": "Block 18", "short_name": "Block 18", "types": ["premise"]}, {"long_name": "18", "short_name": "18", "types": ["street_number"]}, {"long_name": "Marine Terrace", "short_name": "Marine Terrace", "types": ["route"]}, {"long_name": "Marine Parade", "short_name": "Marine Parade", "types": ["neighborhood", "political"]}, {"long_name": "Singapore", "short_name": "Singapore", "types": ["locality", "political"]}, {"long_name": "Singapore", "short_name": "SG", "types": ["country", "political"]}, {"long_name": "440018", "short_name": "440018", "types": ["postal_code"]}], "formatted_address": "18 Marine Terrace, Block 18, Singapore 440018", "geometry": {"bounds": {"northeast": {"lat": 1.3033699, "lng": 103.9147018}, "southwest": {"lat": 1.3030134, "lng": 103.9138895}}, "location": {"lat": 1.3032478, "lng": 103.9141272}, "location_type": "ROOFTOP", "viewport": {"northeast": {"lat": 1.304540630291502, "lng": 103.9156446302915}, "southwest": {"lat": 1.301842669708498, "lng": 103.9129466697085}}}, "place_id": "ChIJh5H--XUY2jEREI8GnqT68EQ", "types": ["premise"]}