{"address_components": [{"long_name": "Block 107", "short_name": "Block 107", "types": ["premise"]}, {"long_name": "107", "short_name": "107", "types": ["street_number"]}, {"long_name": "Towner Road", "short_name": "Towner Rd", "types": ["route"]}, {"long_name": "Kallang", "short_name": "Kallang", "types": ["neighborhood", "political"]}, {"long_name": "Singapore", "short_name": "Singapore", "types": ["locality", "political"]}, {"long_name": "Singapore", "short_name": "SG", "types": ["country", "political"]}, {"long_name": "321107", "short_name": "321107", "types": ["postal_code"]}], "formatted_address": "107 Towner Rd, Block 107, Singapore 321107", "geometry": {"bounds": {"northeast": {"lat": 1.320189, "lng": 103.8606173}, "southwest": {"lat": 1.319118, "lng": 103.8596093}}, "location": {"lat": 1.3198248, "lng": 103.8599865}, "location_type": "ROOFTOP", "viewport": {"northeast": {"lat": 1.321002480291502, "lng": 103.8614622802915}, "southwest": {"lat": 1.318304519708498, "lng": 103.8587643197085}}}, "place_id": "ChIJs8qcCNEZ2jERdmh59ZbvbME", "types": ["premise"]}