{"address_components": [{"long_name": "Block 215", "short_name": "Block 215", "types": ["premise"]}, {"long_name": "215", "short_name": "215", "types": ["street_number"]}, {"long_name": "Ang Mo Kio Avenue 1", "short_name": "Ang Mo Kio Ave 1", "types": ["route"]}, {"long_name": "Ang Mo Kio", "short_name": "Ang Mo Kio", "types": ["neighborhood", "political"]}, {"long_name": "Singapore", "short_name": "Singapore", "types": ["locality", "political"]}, {"long_name": "Singapore", "short_name": "SG", "types": ["country", "political"]}, {"long_name": "560215", "short_name": "560215", "types": ["postal_code"]}], "formatted_address": "215 Ang Mo Kio Ave 1, Block 215, Singapore 560215", "geometry": {"bounds": {"northeast": {"lat": 1.366704, "lng": 103.8420663}, "southwest": {"lat": 1.3662848, "lng": 103.8411493}}, "location": {"lat": 1.3664997, "lng": 103.8415977}, "location_type": "ROOFTOP", "viewport": {"northeast": {"lat": 1.367843380291502, "lng": 103.8429567802915}, "southwest": {"lat": 1.365145419708498, "lng": 103.8402588197085}}}, "place_id": "ChIJNV4j_N4W2jEReXIn3yBEMEs", "types": ["premise"]}