{"address_components": [{"long_name": "Block 304", "short_name": "Block 304", "types": ["premise"]}, {"long_name": "304", "short_name": "304", "types": ["street_number"]}, {"long_name": "Yishun Central", "short_name": "Yishun Central", "types": ["route"]}, {"long_name": "Yishun", "short_name": "Yishun", "types": ["neighborhood", "political"]}, {"long_name": "Singapore", "short_name": "Singapore", "types": ["locality", "political"]}, {"long_name": "Singapore", "short_name": "SG", "types": ["country", "political"]}, {"long_name": "760304", "short_name": "760304", "types": ["postal_code"]}], "formatted_address": "304 Yishun Central, Block 304, Singapore 760304", "geometry": {"bounds": {"northeast": {"lat": 1.4308667, "lng": 103.8406358}, "southwest": {"lat": 1.4302696, "lng": 103.840001}}, "location": {"lat": 1.4305301, "lng": 103.8403523}, "location_type": "ROOFTOP", "viewport": {"northeast": {"lat": 1.431917130291502, "lng": 103.8416673802915}, "southwest": {"lat": 1.429219169708498, "lng": 103.8389694197085}}}, "place_id": "ChIJtyT8FmYU2jER1Ke8ZIGVFfM", "types": ["premise"]}