{"address_components": [{"long_name": "Block 470", "short_name": "Block 470", "types": ["premise"]}, {"long_name": "470", "short_name": "470", "types": ["street_number"]}, {"long_name": "Segar Road", "short_name": "Segar Rd", "types": ["route"]}, {"long_name": "Bukit Panjang", "short_name": "Bukit Panjang", "types": ["neighborhood", "political"]}, {"long_name": "Singapore", "short_name": "Singapore", "types": ["locality", "political"]}, {"long_name": "Singapore", "short_name": "SG", "types": ["country", "political"]}, {"long_name": "670470", "short_name": "670470", "types": ["postal_code"]}], "formatted_address": "470 Segar Rd, Block 470, Singapore 670470", "geometry": {"bounds": {"northeast": {"lat": 1.3886191, "lng": 103.7734061}, "southwest": {"lat": 1.38824, "lng": 103.772976}}, "location": {"lat": 1.3884504, "lng": 103.7732263}, "location_type": "ROOFTOP", "viewport": {"northeast": {"lat": 1.389778530291502, "lng": 103.7745400302915}, "southwest": {"lat": 1.387080569708498, "lng": 103.7718420697085}}}, "place_id": "ChIJh9nA2p0R2jERV8ODMVBS5lY", "types": ["premise"]}