{"address_components": [{"long_name": "Block 773", "short_name": "Block 773", "types": ["premise"]}, {"long_name": "773", "short_name": "773", "types": ["street_number"]}, {"long_name": "Woodlands Drive 60", "short_name": "Woodlands Drive 60", "types": ["route"]}, {"long_name": "Woodlands", "short_name": "Woodlands", "types": ["neighborhood", "political"]}, {"long_name": "Singapore", "short_name": "Singapore", "types": ["locality", "political"]}, {"long_name": "Singapore", "short_name": "SG", "types": ["country", "political"]}, {"long_name": "730773", "short_name": "730773", "types": ["postal_code"]}], "formatted_address": "773 Woodlands Drive 60, Block 773, Singapore 730773", "geometry": {"bounds": {"northeast": {"lat": 1.4476399, "lng": 103.79805}, "southwest": {"lat": 1.4471341, "lng": 103.7973}}, "location": {"lat": 1.4474178, "lng": 103.7976052}, "location_type": "ROOFTOP", "viewport": {"northeast": {"lat": 1.448735980291502, "lng": 103.7990239802915}, "southwest": {"lat": 1.446038019708498, "lng": 103.7963260197085}}}, "place_id": "ChIJTSTmOQ0T2jERCpzsa9sLtHA", "types": ["premise"]}