{"address_components": [{"long_name": "Block 330", "short_name": "Block 330", "types": ["premise"]}, {"long_name": "330", "short_name": "330", "types": ["street_number"]}, {"long_name": "Ubi Avenue 1", "short_name": "Ubi Ave 1", "types": ["route"]}, {"long_name": "Geylang", "short_name": "Geylang", "types": ["neighborhood", "political"]}, {"long_name": "Singapore", "short_name": "Singapore", "types": ["locality", "political"]}, {"long_name": "Singapore", "short_name": "SG", "types": ["country", "political"]}, {"long_name": "400330", "short_name": "400330", "types": ["postal_code"]}], "formatted_address": "330 Ubi Ave 1, Block 330, Singapore 400330", "geometry": {"bounds": {"northeast": {"lat": 1.3268141, "lng": 103.9043981}, "southwest": {"lat": 1.326209, "lng": 103.903592}}, "location": {"lat": 1.3265291, "lng": 103.9040224}, "location_type": "ROOFTOP", "viewport": {"northeast": {"lat": 1.327860530291502, "lng": 103.9053440302915}, "southwest": {"lat": 1.325162569708498, "lng": 103.9026460697085}}}, "place_id": "ChIJs_VzDPgX2jERvbcpvE57tnw", "types": ["premise"]}