{"address_components": [{"long_name": "Block 141", "short_name": "Block 141", "types": ["premise"]}, {"long_name": "141", "short_name": "141", "types": ["street_number"]}, {"long_name": "Petir Road", "short_name": "Petir Rd", "types": ["route"]}, {"long_name": "Bukit Panjang", "short_name": "Bukit Panjang", "types": ["neighborhood", "political"]}, {"long_name": "Singapore", "short_name": "Singapore", "types": ["locality", "political"]}, {"long_name": "Singapore", "short_name": "SG", "types": ["country", "political"]}, {"long_name": "670141", "short_name": "670141", "types": ["postal_code"]}], "formatted_address": "141 Petir Rd, Block 141, Singapore 670141", "geometry": {"bounds": {"northeast": {"lat": 1.376316, "lng": 103.7684099}, "southwest": {"lat": 1.3755011, "lng": 103.7678899}}, "location": {"lat": 1.3759262, "lng": 103.7681791}, "location_type": "ROOFTOP", "viewport": {"northeast": {"lat": 1.377257530291502, "lng": 103.7694988802915}, "southwest": {"lat": 1.374559569708498, "lng": 103.7668009197085}}}, "place_id": "ChIJUYonyqUR2jER8zZUIJpZpXE", "types": ["premise"]}