{"address_components": [{"long_name": "Block 143", "short_name": "Block 143", "types": ["premise"]}, {"long_name": "143", "short_name": "143", "types": ["street_number"]}, {"long_name": "Tampines Street 12", "short_name": "Tampines Street 12", "types": ["route"]}, {"long_name": "Tampines", "short_name": "Tampines", "types": ["neighborhood", "political"]}, {"long_name": "Singapore", "short_name": "Singapore", "types": ["locality", "political"]}, {"long_name": "Singapore", "short_name": "SG", "types": ["country", "political"]}, {"long_name": "520143", "short_name": "520143", "types": ["postal_code"]}], "formatted_address": "143 Tampines Street 12, Block 143, Singapore 520143", "geometry": {"bounds": {"northeast": {"lat": 1.3481605, "lng": 103.9440376}, "southwest": {"lat": 1.3479307, "lng": 103.9431855}}, "location": {"lat": 1.3480349, "lng": 103.9436301}, "location_type": "ROOFTOP", "viewport": {"northeast": {"lat": 1.349394580291502, "lng": 103.9449605302915}, "southwest": {"lat": 1.346696619708498, "lng": 103.9422625697085}}}, "place_id": "ChIJ3Q4FnxY92jERjHHmfCopOLY", "types": ["premise"]}