{"address_components": [{"long_name": "Block 40", "short_name": "Block 40", "types": ["premise"]}, {"long_name": "40", "short_name": "40", "types": ["street_number"]}, {"long_name": "Telok Blangah Rise", "short_name": "Telok Blangah Rise", "types": ["route"]}, {"long_name": "Bukit Merah", "short_name": "Bukit Merah", "types": ["neighborhood", "political"]}, {"long_name": "Singapore", "short_name": "Singapore", "types": ["locality", "political"]}, {"long_name": "Singapore", "short_name": "SG", "types": ["country", "political"]}, {"long_name": "090040", "short_name": "090040", "types": ["postal_code"]}], "formatted_address": "40 Telok Blangah Rise, Block 40, Singapore 090040", "geometry": {"bounds": {"northeast": {"lat": 1.2722593, "lng": 103.8235978}, "southwest": {"lat": 1.2715773, "lng": 103.8229258}}, "location": {"lat": 1.2722113, "lng": 103.8232113}, "location_type": "ROOFTOP", "viewport": {"northeast": {"lat": 1.273267280291502, "lng": 103.8246107802915}, "southwest": {"lat": 1.270569319708498, "lng": 103.8219128197085}}}, "place_id": "ChIJy-6TQGAZ2jERQ3PzJIPkFfM", "types": ["premise"]}