{"address_components": [{"long_name": "Block 501C", "short_name": "Block 501C", "types": ["premise"]}, {"long_name": "501C", "short_name": "501C", "types": ["street_number"]}, {"long_name": "Wellington Circle", "short_name": "Wellington Cir", "types": ["route"]}, {"long_name": "Sembawang", "short_name": "Sembawang", "types": ["neighborhood", "political"]}, {"long_name": "Singapore", "short_name": "Singapore", "types": ["locality", "political"]}, {"long_name": "Singapore", "short_name": "SG", "types": ["country", "political"]}, {"long_name": "753501", "short_name": "753501", "types": ["postal_code"]}], "formatted_address": "501C Wellington Cir, Block 501C, Singapore 753501", "geometry": {"bounds": {"northeast": {"lat": 1.4519028, "lng": 103.822081}, "southwest": {"lat": 1.4510454, "lng": 103.8215885}}, "location": {"lat": 1.451691, "lng": 103.8217619}, "location_type": "ROOFTOP", "viewport": {"northeast": {"lat": 1.452823080291502, "lng": 103.8231837302915}, "southwest": {"lat": 1.450125119708498, "lng": 103.8204857697085}}}, "place_id": "ChIJxy-Uh50U2jER_xTEzkZn3ec", "types": ["premise"]}