{"address_components": [{"long_name": "Block 346", "short_name": "Block 346", "types": ["premise"]}, {"long_name": "346", "short_name": "346", "types": ["street_number"]}, {"long_name": "Choa Chu Kang Loop", "short_name": "Choa Chu Kang Loop", "types": ["route"]}, {"long_name": "Choa Chu Kang", "short_name": "Choa Chu Kang", "types": ["neighborhood", "political"]}, {"long_name": "Singapore", "short_name": "Singapore", "types": ["locality", "political"]}, {"long_name": "Singapore", "short_name": "SG", "types": ["country", "political"]}, {"long_name": "680346", "short_name": "680346", "types": ["postal_code"]}], "formatted_address": "346 Choa Chu Kang Loop, Block 346, Singapore 680346", "geometry": {"bounds": {"northeast": {"lat": 1.383688, "lng": 103.7451709}, "southwest": {"lat": 1.383246, "lng": 103.744641}}, "location": {"lat": 1.3835597, "lng": 103.7448013}, "location_type": "ROOFTOP", "viewport": {"northeast": {"lat": 1.384815980291502, "lng": 103.7462549302915}, "southwest": {"lat": 1.382118019708498, "lng": 103.7435569697085}}}, "place_id": "ChIJQ_5r4OkR2jERfNx01jYujI0", "types": ["premise"]}