{"address_components": [{"long_name": "Block 330", "short_name": "Block 330", "types": ["premise"]}, {"long_name": "330", "short_name": "330", "types": ["street_number"]}, {"long_name": "Tah Ching Road", "short_name": "Tah Ching Rd", "types": ["route"]}, {"long_name": "Jurong West", "short_name": "Jurong West", "types": ["neighborhood", "political"]}, {"long_name": "Singapore", "short_name": "Singapore", "types": ["locality", "political"]}, {"long_name": "Singapore", "short_name": "SG", "types": ["country", "political"]}, {"long_name": "610330", "short_name": "610330", "types": ["postal_code"]}], "formatted_address": "330 Tah Ching Rd, Block 330, Singapore 610330", "geometry": {"bounds": {"northeast": {"lat": 1.3380839, "lng": 103.7243905}, "southwest": {"lat": 1.337724, "lng": 103.7240085}}, "location": {"lat": 1.3378672, "lng": 103.7242336}, "location_type": "ROOFTOP", "viewport": {"northeast": {"lat": 1.339252930291502, "lng": 103.7255484802915}, "southwest": {"lat": 1.336554969708498, "lng": 103.7228505197085}}}, "place_id": "ChIJ06UbQuMP2jERkhSLSWpf8Dc", "types": ["premise"]}