{"address_components": [{"long_name": "171", "short_name": "171", "types": ["street_number"]}, {"long_name": "Bishan Street 13", "short_name": "Bishan Street 13", "types": ["route"]}, {"long_name": "Bishan", "short_name": "Bishan", "types": ["neighborhood", "political"]}, {"long_name": "Singapore", "short_name": "Singapore", "types": ["locality", "political"]}, {"long_name": "Singapore", "short_name": "SG", "types": ["country", "political"]}, {"long_name": "570171", "short_name": "570171", "types": ["postal_code"]}], "formatted_address": "171 Bishan Street 13, Singapore 570171", "geometry": {"bounds": {"northeast": {"lat": 1.3471752, "lng": 103.8539712}, "southwest": {"lat": 1.3466857, "lng": 103.8534519}}, "location": {"lat": 1.3468013, "lng": 103.8536456}, "location_type": "ROOFTOP", "viewport": {"northeast": {"lat": 1.348279430291502, "lng": 103.8550605302915}, "southwest": {"lat": 1.345581469708498, "lng": 103.8523625697085}}}, "place_id": "ChIJX4Af4xIX2jERF6AXiu1R5S8", "types": ["premise"]}