{"address_components": [{"long_name": "202", "short_name": "202", "types": ["street_number"]}, {"long_name": "Serangoon Central", "short_name": "Serangoon Central", "types": ["route"]}, {"long_name": "Serangoon", "short_name": "Serangoon", "types": ["neighborhood", "political"]}, {"long_name": "Singapore", "short_name": "Singapore", "types": ["locality", "political"]}, {"long_name": "Singapore", "short_name": "SG", "types": ["country", "political"]}, {"long_name": "550202", "short_name": "550202", "types": ["postal_code"]}], "formatted_address": "202 Serangoon Central, Singapore 550202", "geometry": {"bounds": {"northeast": {"lat": 1.351911, "lng": 103.8738858}, "southwest": {"lat": 1.3512148, "lng": 103.8733128}}, "location": {"lat": 1.3515231, "lng": 103.8736387}, "location_type": "ROOFTOP", "viewport": {"northeast": {"lat": 1.352911880291502, "lng": 103.8749482802915}, "southwest": {"lat": 1.350213919708498, "lng": 103.8722503197085}}}, "place_id": "ChIJczxIg6YX2jER0SBIlUtzjJM", "types": ["premise"]}