{"address_components": [{"long_name": "Block 721", "short_name": "Block 721", "types": ["premise"]}, {"long_name": "721", "short_name": "721", "types": ["street_number"]}, {"long_name": "Yishun Street 71", "short_name": "Yishun Street 71", "types": ["route"]}, {"long_name": "Yishun", "short_name": "Yishun", "types": ["neighborhood", "political"]}, {"long_name": "Singapore", "short_name": "Singapore", "types": ["locality", "political"]}, {"long_name": "Singapore", "short_name": "SG", "types": ["country", "political"]}, {"long_name": "760721", "short_name": "760721", "types": ["postal_code"]}], "formatted_address": "721 Yishun Street 71, Block 721, Singapore 760721", "geometry": {"bounds": {"northeast": {"lat": 1.42616, "lng": 103.8293229}, "southwest": {"lat": 1.4260327, "lng": 103.8284488}}, "location": {"lat": 1.4261063, "lng": 103.828917}, "location_type": "ROOFTOP", "viewport": {"northeast": {"lat": 1.427445330291502, "lng": 103.8302348302915}, "southwest": {"lat": 1.424747369708498, "lng": 103.8275368697085}}}, "place_id": "ChIJhUiyQXEU2jERjJ1UJswvPN8", "types": ["premise"]}