{"address_components": [{"long_name": "Block 43", "short_name": "Block 43", "types": ["premise"]}, {"long_name": "43", "short_name": "43", "types": ["street_number"]}, {"long_name": "Cambridge Road", "short_name": "Cambridge Rd", "types": ["route"]}, {"long_name": "Kallang", "short_name": "Kallang", "types": ["neighborhood", "political"]}, {"long_name": "Singapore", "short_name": "Singapore", "types": ["locality", "political"]}, {"long_name": "Singapore", "short_name": "SG", "types": ["country", "political"]}, {"long_name": "210043", "short_name": "210043", "types": ["postal_code"]}], "formatted_address": "43 Cambridge Rd, Block 43, Singapore 210043", "geometry": {"bounds": {"northeast": {"lat": 1.3156083, "lng": 103.8497491}, "southwest": {"lat": 1.3150642, "lng": 103.8491623}}, "location": {"lat": 1.3154575, "lng": 103.8493658}, "location_type": "ROOFTOP", "viewport": {"northeast": {"lat": 1.316685230291502, "lng": 103.8508046802915}, "southwest": {"lat": 1.313987269708498, "lng": 103.8481067197085}}}, "place_id": "ChIJ0bdpcsMZ2jER4gqIDaxSxWY", "types": ["premise"]}