{"address_components": [{"long_name": "Block 392", "short_name": "Block 392", "types": ["premise"]}, {"long_name": "392", "short_name": "392", "types": ["street_number"]}, {"long_name": "Bukit Batok West Avenue 5", "short_name": "Bukit Batok West Ave 5", "types": ["route"]}, {"long_name": "Bukit Batok", "short_name": "Bukit Batok", "types": ["neighborhood", "political"]}, {"long_name": "Singapore", "short_name": "Singapore", "types": ["locality", "political"]}, {"long_name": "Singapore", "short_name": "SG", "types": ["country", "political"]}, {"long_name": "650392", "short_name": "650392", "types": ["postal_code"]}], "formatted_address": "392 Bukit Batok West Ave 5, Block 392, Singapore 650392", "geometry": {"bounds": {"northeast": {"lat": 1.3660189, "lng": 103.7534988}, "southwest": {"lat": 1.3656969, "lng": 103.7530616}}, "location": {"lat": 1.3658965, "lng": 103.7533232}, "location_type": "ROOFTOP", "viewport": {"northeast": {"lat": 1.367206880291502, "lng": 103.7546291802915}, "southwest": {"lat": 1.364508919708498, "lng": 103.7519312197085}}}, "place_id": "ChIJW6oKabUR2jERLRvxu6Wiw7E", "types": ["premise"]}