{"address_components": [{"long_name": "Block 667B", "short_name": "Block 667B", "types": ["premise"]}, {"long_name": "667B", "short_name": "667B", "types": ["street_number"]}, {"long_name": "Jurong West Street 65", "short_name": "Jurong West Street 65", "types": ["route"]}, {"long_name": "Jurong West", "short_name": "Jurong West", "types": ["neighborhood", "political"]}, {"long_name": "Singapore", "short_name": "Singapore", "types": ["locality", "political"]}, {"long_name": "Singapore", "short_name": "SG", "types": ["country", "political"]}, {"long_name": "642667", "short_name": "642667", "types": ["postal_code"]}], "formatted_address": "667B Jurong West Street 65, Block 667B, Singapore 642667", "geometry": {"bounds": {"northeast": {"lat": 1.341097, "lng": 103.7019288}, "southwest": {"lat": 1.3407969, "lng": 103.7011008}}, "location": {"lat": 1.340938, "lng": 103.7015416}, "location_type": "ROOFTOP", "viewport": {"northeast": {"lat": 1.342295930291502, "lng": 103.7028637802915}, "southwest": {"lat": 1.339597969708498, "lng": 103.7001658197085}}}, "place_id": "ChIJ9YP5jJMP2jERSenYRJvOaLs", "types": ["premise"]}