{"address_components": [{"long_name": "Block 19", "short_name": "Block 19", "types": ["premise"]}, {"long_name": "19", "short_name": "19", "types": ["street_number"]}, {"long_name": "Jalan Membina", "short_name": "Jln Membina", "types": ["route"]}, {"long_name": "Bukit Merah", "short_name": "Bukit Merah", "types": ["neighborhood", "political"]}, {"long_name": "Singapore", "short_name": "Singapore", "types": ["locality", "political"]}, {"long_name": "Singapore", "short_name": "SG", "types": ["country", "political"]}, {"long_name": "163019", "short_name": "163019", "types": ["postal_code"]}], "formatted_address": "19 Jln Membina, Block 19, Singapore 163019", "geometry": {"bounds": {"northeast": {"lat": 1.2857413, "lng": 103.8264762}, "southwest": {"lat": 1.2855738, "lng": 103.8259993}}, "location": {"lat": 1.2856409, "lng": 103.8262044}, "location_type": "ROOFTOP", "viewport": {"northeast": {"lat": 1.287006530291502, "lng": 103.8275867302915}, "southwest": {"lat": 1.284308569708498, "lng": 103.8248887697085}}}, "place_id": "ChIJ5ZKGv34Z2jER4Rw7IiqaGBE", "types": ["premise"]}