{"address_components": [{"long_name": "Block 350A", "short_name": "Block 350A", "types": ["premise"]}, {"long_name": "350A", "short_name": "350A", "types": ["street_number"]}, {"long_name": "Canberra Road", "short_name": "Canberra Rd", "types": ["route"]}, {"long_name": "Sembawang", "short_name": "Sembawang", "types": ["neighborhood", "political"]}, {"long_name": "Singapore", "short_name": "Singapore", "types": ["locality", "political"]}, {"long_name": "Singapore", "short_name": "SG", "types": ["country", "political"]}, {"long_name": "751350", "short_name": "751350", "types": ["postal_code"]}], "formatted_address": "350A Canberra Rd, Block 350A, Singapore 751350", "geometry": {"bounds": {"northeast": {"lat": 1.4507179, "lng": 103.8208378}, "southwest": {"lat": 1.4503567, "lng": 103.8204398}}, "location": {"lat": 1.4504682, "lng": 103.8206525}, "location_type": "ROOFTOP", "viewport": {"northeast": {"lat": 1.451886280291502, "lng": 103.8219877802915}, "southwest": {"lat": 1.449188319708498, "lng": 103.8192898197085}}}, "place_id": "ChIJtQx4jmIT2jERtXa9agmv6NU", "types": ["premise"]}