{"address_components": [{"long_name": "Block 513", "short_name": "Block 513", "types": ["premise"]}, {"long_name": "513", "short_name": "513", "types": ["street_number"]}, {"long_name": "Ang Mo Kio Avenue 8", "short_name": "Ang Mo Kio Ave 8", "types": ["route"]}, {"long_name": "Ang Mo Kio", "short_name": "Ang Mo Kio", "types": ["neighborhood", "political"]}, {"long_name": "Singapore", "short_name": "Singapore", "types": ["locality", "political"]}, {"long_name": "Singapore", "short_name": "SG", "types": ["country", "political"]}, {"long_name": "560513", "short_name": "560513", "types": ["postal_code"]}], "formatted_address": "513 Ang Mo Kio Ave 8, Block 513, Singapore 560513", "geometry": {"bounds": {"northeast": {"lat": 1.3733281, "lng": 103.850506}, "southwest": {"lat": 1.372627, "lng": 103.849762}}, "location": {"lat": 1.3727497, "lng": 103.8502032}, "location_type": "ROOFTOP", "viewport": {"northeast": {"lat": 1.374326530291502, "lng": 103.8514829802915}, "southwest": {"lat": 1.371628569708498, "lng": 103.8487850197085}}}, "place_id": "ChIJz9ZFBOYW2jERw5orswBnSfU", "types": ["premise"]}