{"address_components": [{"long_name": "Block 297C", "short_name": "Block 297C", "types": ["premise"]}, {"long_name": "297C", "short_name": "297C", "types": ["street_number"]}, {"long_name": "Choa Chu Kang Avenue 2", "short_name": "Choa Chu Kang Ave 2", "types": ["route"]}, {"long_name": "Choa Chu Kang", "short_name": "Choa Chu Kang", "types": ["neighborhood", "political"]}, {"long_name": "Singapore", "short_name": "Singapore", "types": ["locality", "political"]}, {"long_name": "Singapore", "short_name": "SG", "types": ["country", "political"]}, {"long_name": "683297", "short_name": "683297", "types": ["postal_code"]}], "formatted_address": "297C Choa Chu Kang Ave 2, Block 297C, Singapore 683297", "geometry": {"bounds": {"northeast": {"lat": 1.3779559, "lng": 103.7433579}, "southwest": {"lat": 1.377682, "lng": 103.742868}}, "location": {"lat": 1.3777775, "lng": 103.743172}, "location_type": "ROOFTOP", "viewport": {"northeast": {"lat": 1.379167930291502, "lng": 103.7444619302915}, "southwest": {"lat": 1.376469969708498, "lng": 103.7417639697085}}}, "place_id": "ChIJyXJficQR2jERfu_2WITj_pI", "types": ["premise"]}