{"address_components": [{"long_name": "Block 491", "short_name": "Block 491", "types": ["premise"]}, {"long_name": "491", "short_name": "491", "types": ["street_number"]}, {"long_name": "Admiralty Link", "short_name": "Admiralty Link", "types": ["route"]}, {"long_name": "Sembawang", "short_name": "Sembawang", "types": ["neighborhood", "political"]}, {"long_name": "Singapore", "short_name": "Singapore", "types": ["locality", "political"]}, {"long_name": "Singapore", "short_name": "SG", "types": ["country", "political"]}, {"long_name": "750491", "short_name": "750491", "types": ["postal_code"]}], "formatted_address": "491 Admiralty Link, Block 491, Singapore 750491", "geometry": {"bounds": {"northeast": {"lat": 1.456352, "lng": 103.817919}, "southwest": {"lat": 1.4560181, "lng": 103.8173149}}, "location": {"lat": 1.4561222, "lng": 103.8175959}, "location_type": "ROOFTOP", "viewport": {"northeast": {"lat": 1.457534030291502, "lng": 103.8189659302915}, "southwest": {"lat": 1.454836069708498, "lng": 103.8162679697085}}}, "place_id": "ChIJT9F75mAT2jERNpTuaMY870s", "types": ["premise"]}