{"address_components": [{"long_name": "Block 155", "short_name": "Block 155", "types": ["premise"]}, {"long_name": "155", "short_name": "155", "types": ["street_number"]}, {"long_name": "Hougang Street 11", "short_name": "Hougang Street 11", "types": ["route"]}, {"long_name": "Hougang", "short_name": "Hougang", "types": ["neighborhood", "political"]}, {"long_name": "Singapore", "short_name": "Singapore", "types": ["locality", "political"]}, {"long_name": "Singapore", "short_name": "SG", "types": ["country", "political"]}, {"long_name": "530155", "short_name": "530155", "types": ["postal_code"]}], "formatted_address": "155 Hougang Street 11, Block 155, Singapore 530155", "geometry": {"bounds": {"northeast": {"lat": 1.3527871, "lng": 103.8806009}, "southwest": {"lat": 1.3524131, "lng": 103.8799627}}, "location": {"lat": 1.3526506, "lng": 103.8802813}, "location_type": "ROOFTOP", "viewport": {"northeast": {"lat": 1.353949080291502, "lng": 103.8816307802915}, "southwest": {"lat": 1.351251119708498, "lng": 103.8789328197085}}}, "place_id": "ChIJU7ZH0LoX2jER1IxKRih5DDw", "types": ["premise"]}