{"address_components": [{"long_name": "Block 485", "short_name": "Block 485", "types": ["premise"]}, {"long_name": "485", "short_name": "485", "types": ["street_number"]}, {"long_name": "Choa Chu Kang Avenue 5", "short_name": "Choa Chu Kang Ave 5", "types": ["route"]}, {"long_name": "Choa Chu Kang", "short_name": "Choa Chu Kang", "types": ["neighborhood", "political"]}, {"long_name": "Singapore", "short_name": "Singapore", "types": ["locality", "political"]}, {"long_name": "Singapore", "short_name": "SG", "types": ["country", "political"]}, {"long_name": "680485", "short_name": "680485", "types": ["postal_code"]}], "formatted_address": "485 Choa Chu Kang Ave 5, Block 485, Singapore 680485", "geometry": {"bounds": {"northeast": {"lat": 1.375109, "lng": 103.738146}, "southwest": {"lat": 1.374602, "lng": 103.737564}}, "location": {"lat": 1.3747295, "lng": 103.7379223}, "location_type": "ROOFTOP", "viewport": {"northeast": {"lat": 1.376204480291502, "lng": 103.7392039802915}, "southwest": {"lat": 1.373506519708498, "lng": 103.7365060197085}}}, "place_id": "ChIJp_dridoR2jERmclhsMkoUzg", "types": ["premise"]}