{"address_components": [{"long_name": "Block 420", "short_name": "Block 420", "types": ["premise"]}, {"long_name": "420", "short_name": "420", "types": ["street_number"]}, {"long_name": "Serangoon Central", "short_name": "Serangoon Central", "types": ["route"]}, {"long_name": "Serangoon", "short_name": "Serangoon", "types": ["neighborhood", "political"]}, {"long_name": "Singapore", "short_name": "Singapore", "types": ["locality", "political"]}, {"long_name": "Singapore", "short_name": "SG", "types": ["country", "political"]}, {"long_name": "550420", "short_name": "550420", "types": ["postal_code"]}], "formatted_address": "420 Serangoon Central, Block 420, Singapore 550420", "geometry": {"bounds": {"northeast": {"lat": 1.3495475, "lng": 103.8762417}, "southwest": {"lat": 1.3490494, "lng": 103.8747043}}, "location": {"lat": 1.3491293, "lng": 103.8751622}, "location_type": "ROOFTOP", "viewport": {"northeast": {"lat": 1.350647430291502, "lng": 103.8768219802915}, "southwest": {"lat": 1.347949469708498, "lng": 103.8741240197085}}}, "place_id": "ChIJm1-L8qMX2jERBsMpYnzY5sU", "types": ["premise"]}