{"address_components": [{"long_name": "Block 689C", "short_name": "Block 689C", "types": ["premise"]}, {"long_name": "689C", "short_name": "689C", "types": ["street_number"]}, {"long_name": "Woodlands Drive 75", "short_name": "Woodlands Drive 75", "types": ["route"]}, {"long_name": "Woodlands", "short_name": "Woodlands", "types": ["neighborhood", "political"]}, {"long_name": "Singapore", "short_name": "Singapore", "types": ["locality", "political"]}, {"long_name": "Singapore", "short_name": "SG", "types": ["country", "political"]}, {"long_name": "733689", "short_name": "733689", "types": ["postal_code"]}], "formatted_address": "689C Woodlands Drive 75, Block 689C, Singapore 733689", "geometry": {"bounds": {"northeast": {"lat": 1.4450119, "lng": 103.8086691}, "southwest": {"lat": 1.4446931, "lng": 103.8082441}}, "location": {"lat": 1.444873, "lng": 103.8084491}, "location_type": "ROOFTOP", "viewport": {"northeast": {"lat": 1.446201480291502, "lng": 103.8098055802915}, "southwest": {"lat": 1.443503519708498, "lng": 103.8071076197085}}}, "place_id": "ChIJq2k7x3AT2jERQBmZ48Hfqv8", "types": ["premise"]}