{"address_components": [{"long_name": "Block 343", "short_name": "Block 343", "types": ["premise"]}, {"long_name": "343", "short_name": "343", "types": ["street_number"]}, {"long_name": "Ubi Avenue 1", "short_name": "Ubi Ave 1", "types": ["route"]}, {"long_name": "Geylang", "short_name": "Geylang", "types": ["neighborhood", "political"]}, {"long_name": "Singapore", "short_name": "Singapore", "types": ["locality", "political"]}, {"long_name": "Singapore", "short_name": "SG", "types": ["country", "political"]}, {"long_name": "400343", "short_name": "400343", "types": ["postal_code"]}], "formatted_address": "343 Ubi Ave 1, Block 343, Singapore 400343", "geometry": {"bounds": {"northeast": {"lat": 1.3266749, "lng": 103.9010125}, "southwest": {"lat": 1.3262094, "lng": 103.9000017}}, "location": {"lat": 1.3264393, "lng": 103.9005335}, "location_type": "ROOFTOP", "viewport": {"northeast": {"lat": 1.327791130291502, "lng": 103.9018560802915}, "southwest": {"lat": 1.325093169708498, "lng": 103.8991581197085}}}, "place_id": "ChIJda3T1vcX2jERva_VQXHDjQA", "types": ["premise"]}