{"address_components": [{"long_name": "Block 211", "short_name": "Block 211", "types": ["premise"]}, {"long_name": "211", "short_name": "211", "types": ["street_number"]}, {"long_name": "Ang Mo Kio Avenue 3", "short_name": "Ang Mo Kio Ave 3", "types": ["route"]}, {"long_name": "Ang Mo Kio", "short_name": "Ang Mo Kio", "types": ["neighborhood", "political"]}, {"long_name": "Singapore", "short_name": "Singapore", "types": ["locality", "political"]}, {"long_name": "Singapore", "short_name": "SG", "types": ["country", "political"]}, {"long_name": "560211", "short_name": "560211", "types": ["postal_code"]}], "formatted_address": "211 Ang Mo Kio Ave 3, Block 211, Singapore 560211", "geometry": {"bounds": {"northeast": {"lat": 1.36937, "lng": 103.8422899}, "southwest": {"lat": 1.369058, "lng": 103.8408819}}, "location": {"lat": 1.3692104, "lng": 103.8415977}, "location_type": "ROOFTOP", "viewport": {"northeast": {"lat": 1.370562980291502, "lng": 103.8429348802915}, "southwest": {"lat": 1.367865019708498, "lng": 103.8402369197085}}}, "place_id": "ChIJj2HaLdwW2jERKcJ9FeG3PtQ", "types": ["premise"]}