{"address_components": [{"long_name": "Block 46", "short_name": "Block 46", "types": ["premise"]}, {"long_name": "46", "short_name": "46", "types": ["street_number"]}, {"long_name": "Owen Road", "short_name": "Owen Rd", "types": ["route"]}, {"long_name": "Kallang", "short_name": "Kallang", "types": ["neighborhood", "political"]}, {"long_name": "Singapore", "short_name": "Singapore", "types": ["locality", "political"]}, {"long_name": "Singapore", "short_name": "SG", "types": ["country", "political"]}, {"long_name": "210046", "short_name": "210046", "types": ["postal_code"]}], "formatted_address": "46 Owen Rd, Block 46, Singapore 210046", "geometry": {"bounds": {"northeast": {"lat": 1.3155733, "lng": 103.8511592}, "southwest": {"lat": 1.3148158, "lng": 103.8504832}}, "location": {"lat": 1.3151984, "lng": 103.8508373}, "location_type": "ROOFTOP", "viewport": {"northeast": {"lat": 1.316543530291502, "lng": 103.8521701802915}, "southwest": {"lat": 1.313845569708498, "lng": 103.8494722197085}}}, "place_id": "ChIJIck6gsQZ2jER568TGDkGiCY", "types": ["premise"]}