{"address_components": [{"long_name": "Block 162", "short_name": "Block 162", "types": ["premise"]}, {"long_name": "162", "short_name": "162", "types": ["street_number"]}, {"long_name": "Simei Road", "short_name": "Simei Rd", "types": ["route"]}, {"long_name": "Tampines", "short_name": "Tampines", "types": ["neighborhood", "political"]}, {"long_name": "Singapore", "short_name": "Singapore", "types": ["locality", "political"]}, {"long_name": "Singapore", "short_name": "SG", "types": ["country", "political"]}, {"long_name": "520162", "short_name": "520162", "types": ["postal_code"]}], "formatted_address": "162 Simei Rd, Block 162, Singapore 520162", "geometry": {"bounds": {"northeast": {"lat": 1.3458262, "lng": 103.9602592}, "southwest": {"lat": 1.3453571, "lng": 103.9597002}}, "location": {"lat": 1.3457439, "lng": 103.9599479}, "location_type": "ROOFTOP", "viewport": {"northeast": {"lat": 1.346940630291502, "lng": 103.9613286802915}, "southwest": {"lat": 1.344242669708498, "lng": 103.9586307197085}}}, "place_id": "ChIJG6Mf6R892jERv56lZnD27xU", "types": ["premise"]}