{"address_components": [{"long_name": "Block 228", "short_name": "Block 228", "types": ["premise"]}, {"long_name": "228", "short_name": "228", "types": ["street_number"]}, {"long_name": "Serangoon Avenue 4", "short_name": "Serangoon Ave 4", "types": ["route"]}, {"long_name": "Serangoon", "short_name": "Serangoon", "types": ["neighborhood", "political"]}, {"long_name": "Singapore", "short_name": "Singapore", "types": ["locality", "political"]}, {"long_name": "Singapore", "short_name": "SG", "types": ["country", "political"]}, {"long_name": "550228", "short_name": "550228", "types": ["postal_code"]}], "formatted_address": "228 Serangoon Ave 4, Block 228, Singapore 550228", "geometry": {"bounds": {"northeast": {"lat": 1.3564573, "lng": 103.8706838}, "southwest": {"lat": 1.3562843, "lng": 103.8698438}}, "location": {"lat": 1.3563707, "lng": 103.8702244}, "location_type": "ROOFTOP", "viewport": {"northeast": {"lat": 1.357719780291502, "lng": 103.8716127802915}, "southwest": {"lat": 1.355021819708498, "lng": 103.8689148197085}}}, "place_id": "ChIJtycvUKgX2jERE0ejknFoS8k", "types": ["premise"]}