{"address_components": [{"long_name": "Block 302", "short_name": "Block 302", "types": ["premise"]}, {"long_name": "302", "short_name": "302", "types": ["street_number"]}, {"long_name": "Canberra Road", "short_name": "Canberra Rd", "types": ["route"]}, {"long_name": "Sembawang", "short_name": "Sembawang", "types": ["neighborhood", "political"]}, {"long_name": "Singapore", "short_name": "Singapore", "types": ["locality", "political"]}, {"long_name": "Singapore", "short_name": "SG", "types": ["country", "political"]}, {"long_name": "750302", "short_name": "750302", "types": ["postal_code"]}], "formatted_address": "302 Canberra Rd, Block 302, Singapore 750302", "geometry": {"bounds": {"northeast": {"lat": 1.4454229, "lng": 103.8231061}, "southwest": {"lat": 1.444699, "lng": 103.8225069}}, "location": {"lat": 1.4449854, "lng": 103.8228714}, "location_type": "ROOFTOP", "viewport": {"northeast": {"lat": 1.446409930291502, "lng": 103.8241554802915}, "southwest": {"lat": 1.443711969708498, "lng": 103.8214575197085}}}, "place_id": "ChIJM07HFIIU2jERx1-Ku9sPqhY", "types": ["premise"]}