{"address_components": [{"long_name": "Block 213", "short_name": "Block 213", "types": ["premise"]}, {"long_name": "213", "short_name": "213", "types": ["street_number"]}, {"long_name": "Bishan Street 23", "short_name": "Bishan Street 23", "types": ["route"]}, {"long_name": "Bishan", "short_name": "Bishan", "types": ["neighborhood", "political"]}, {"long_name": "Singapore", "short_name": "Singapore", "types": ["locality", "political"]}, {"long_name": "Singapore", "short_name": "SG", "types": ["country", "political"]}, {"long_name": "570213", "short_name": "570213", "types": ["postal_code"]}], "formatted_address": "213 Bishan Street 23, Block 213, Singapore 570213", "geometry": {"bounds": {"northeast": {"lat": 1.3575901, "lng": 103.8485027}, "southwest": {"lat": 1.357002, "lng": 103.8477417}}, "location": {"lat": 1.3571573, "lng": 103.8483915}, "location_type": "ROOFTOP", "viewport": {"northeast": {"lat": 1.358645030291502, "lng": 103.8494711802915}, "southwest": {"lat": 1.355947069708498, "lng": 103.8467732197085}}}, "place_id": "ChIJS5JaARkX2jERCoW-1Qq29n0", "types": ["premise"]}