{"address_components": [{"long_name": "Block 762", "short_name": "Block 762", "types": ["premise"]}, {"long_name": "762", "short_name": "762", "types": ["street_number"]}, {"long_name": "Pasir Ris Street 71", "short_name": "Pasir Ris Street 71", "types": ["route"]}, {"long_name": "Pasir Ris", "short_name": "Pasir Ris", "types": ["neighborhood", "political"]}, {"long_name": "Singapore", "short_name": "Singapore", "types": ["locality", "political"]}, {"long_name": "Singapore", "short_name": "SG", "types": ["country", "political"]}, {"long_name": "510762", "short_name": "510762", "types": ["postal_code"]}], "formatted_address": "762 Pasir Ris Street 71, Block 762, Singapore 510762", "geometry": {"bounds": {"northeast": {"lat": 1.3759525, "lng": 103.9341491}, "southwest": {"lat": 1.3756389, "lng": 103.93363}}, "location": {"lat": 1.3757689, "lng": 103.9340217}, "location_type": "ROOFTOP", "viewport": {"northeast": {"lat": 1.377144680291502, "lng": 103.9352385302915}, "southwest": {"lat": 1.374446719708498, "lng": 103.9325405697085}}}, "place_id": "ChIJheBk75Y92jER4DkFYa08cCU", "types": ["premise"]}