{"address_components": [{"long_name": "108", "short_name": "108", "types": ["street_number"]}, {"long_name": "Yishun Ring Road", "short_name": "Yishun Ring Rd", "types": ["route"]}, {"long_name": "Yishun", "short_name": "Yishun", "types": ["neighborhood", "political"]}, {"long_name": "Singapore", "short_name": "Singapore", "types": ["locality", "political"]}, {"long_name": "Singapore", "short_name": "SG", "types": ["country", "political"]}, {"long_name": "760108", "short_name": "760108", "types": ["postal_code"]}], "formatted_address": "108 Yishun Ring Rd, Singapore 760108", "geometry": {"bounds": {"northeast": {"lat": 1.4329562, "lng": 103.8293972}, "southwest": {"lat": 1.4322207, "lng": 103.82827}}, "location": {"lat": 1.432342, "lng": 103.8290981}, "location_type": "ROOFTOP", "viewport": {"northeast": {"lat": 1.433937430291502, "lng": 103.8301825802915}, "southwest": {"lat": 1.431239469708498, "lng": 103.8274846197085}}}, "place_id": "ChIJG3Sby3sU2jEReXUROM-skbs", "types": ["premise"]}