{"address_components": [{"long_name": "Block 523", "short_name": "Block 523", "types": ["premise"]}, {"long_name": "523", "short_name": "523", "types": ["street_number"]}, {"long_name": "Woodlands Drive 14", "short_name": "Woodlands Drive 14", "types": ["route"]}, {"long_name": "Woodlands", "short_name": "Woodlands", "types": ["neighborhood", "political"]}, {"long_name": "Singapore", "short_name": "Singapore", "types": ["locality", "political"]}, {"long_name": "Singapore", "short_name": "SG", "types": ["country", "political"]}, {"long_name": "730523", "short_name": "730523", "types": ["postal_code"]}], "formatted_address": "523 Woodlands Drive 14, Block 523, Singapore 730523", "geometry": {"bounds": {"northeast": {"lat": 1.4335691, "lng": 103.794414}, "southwest": {"lat": 1.4329961, "lng": 103.7935581}}, "location": {"lat": 1.4332178, "lng": 103.794051}, "location_type": "ROOFTOP", "viewport": {"northeast": {"lat": 1.434631580291502, "lng": 103.7953350302915}, "southwest": {"lat": 1.431933619708498, "lng": 103.7926370697085}}}, "place_id": "ChIJAYjclaMT2jERPlWiomqoCpQ", "types": ["premise"]}