{"address_components": [{"long_name": "Block 770", "short_name": "Block 770", "types": ["premise"]}, {"long_name": "770", "short_name": "770", "types": ["street_number"]}, {"long_name": "Bedok Reservoir View", "short_name": "Bedok Reservoir View", "types": ["route"]}, {"long_name": "Bedok", "short_name": "Bedok", "types": ["neighborhood", "political"]}, {"long_name": "Singapore", "short_name": "Singapore", "types": ["locality", "political"]}, {"long_name": "Singapore", "short_name": "SG", "types": ["country", "political"]}, {"long_name": "470770", "short_name": "470770", "types": ["postal_code"]}], "formatted_address": "770 Bedok Reservoir View, Block 770, Singapore 470770", "geometry": {"bounds": {"northeast": {"lat": 1.336195, "lng": 103.9385823}, "southwest": {"lat": 1.3358508, "lng": 103.9380641}}, "location": {"lat": 1.3360637, "lng": 103.938282}, "location_type": "ROOFTOP", "viewport": {"northeast": {"lat": 1.337371880291502, "lng": 103.9396721802915}, "southwest": {"lat": 1.334673919708498, "lng": 103.9369742197085}}}, "place_id": "ChIJgRkBDzg92jERJTzPJHr-6Ts", "types": ["premise"]}