{"address_components": [{"long_name": "Block 473", "short_name": "Block 473", "types": ["premise"]}, {"long_name": "473", "short_name": "473", "types": ["street_number"]}, {"long_name": "Choa Chu Kang Avenue 3", "short_name": "Choa Chu Kang Ave 3", "types": ["route"]}, {"long_name": "Choa Chu Kang", "short_name": "Choa Chu Kang", "types": ["neighborhood", "political"]}, {"long_name": "Singapore", "short_name": "Singapore", "types": ["locality", "political"]}, {"long_name": "Singapore", "short_name": "SG", "types": ["country", "political"]}, {"long_name": "680473", "short_name": "680473", "types": ["postal_code"]}], "formatted_address": "473 Choa Chu Kang Ave 3, Block 473, Singapore 680473", "geometry": {"bounds": {"northeast": {"lat": 1.379701, "lng": 103.738493}, "southwest": {"lat": 1.37901, "lng": 103.73773}}, "location": {"lat": 1.3794218, "lng": 103.7378317}, "location_type": "ROOFTOP", "viewport": {"northeast": {"lat": 1.380704480291502, "lng": 103.7394604802915}, "southwest": {"lat": 1.378006519708498, "lng": 103.7367625197085}}}, "place_id": "ChIJc01wj9wR2jERLJ_gLERAM8M", "types": ["premise"]}