{"address_components": [{"long_name": "Block 129", "short_name": "Block 129", "types": ["premise"]}, {"long_name": "129", "short_name": "129", "types": ["street_number"]}, {"long_name": "Clarence Lane", "short_name": "Clarence Ln", "types": ["route"]}, {"long_name": "Queenstown", "short_name": "Queenstown", "types": ["neighborhood", "political"]}, {"long_name": "Singapore", "short_name": "Singapore", "types": ["locality", "political"]}, {"long_name": "Singapore", "short_name": "SG", "types": ["country", "political"]}, {"long_name": "140129", "short_name": "140129", "types": ["postal_code"]}], "formatted_address": "129 Clarence Ln, Block 129, Singapore 140129", "geometry": {"bounds": {"northeast": {"lat": 1.2934092, "lng": 103.8146134}, "southwest": {"lat": 1.2930753, "lng": 103.8142674}}, "location": {"lat": 1.2932198, "lng": 103.8144035}, "location_type": "ROOFTOP", "viewport": {"northeast": {"lat": 1.294591230291502, "lng": 103.8157893802915}, "southwest": {"lat": 1.291893269708498, "lng": 103.8130914197085}}}, "place_id": "ChIJnc-LPSwa2jERoWYus_7nNJA", "types": ["premise"]}