{"address_components": [{"long_name": "Block 108", "short_name": "Block 108", "types": ["premise"]}, {"long_name": "108", "short_name": "108", "types": ["street_number"]}, {"long_name": "Potong Pasir Avenue 1", "short_name": "Potong Pasir Ave 1", "types": ["route"]}, {"long_name": "Toa Payoh", "short_name": "Toa Payoh", "types": ["neighborhood", "political"]}, {"long_name": "Singapore", "short_name": "Singapore", "types": ["locality", "political"]}, {"long_name": "Singapore", "short_name": "SG", "types": ["country", "political"]}, {"long_name": "350108", "short_name": "350108", "types": ["postal_code"]}], "formatted_address": "108 Potong Pasir Ave 1, Block 108, Singapore 350108", "geometry": {"bounds": {"northeast": {"lat": 1.3352667, "lng": 103.8680527}, "southwest": {"lat": 1.3346868, "lng": 103.8674838}}, "location": {"lat": 1.3350245, "lng": 103.8678461}, "location_type": "ROOFTOP", "viewport": {"northeast": {"lat": 1.336325730291502, "lng": 103.8691172302915}, "southwest": {"lat": 1.333627769708498, "lng": 103.8664192697085}}}, "place_id": "ChIJc_FZCXgX2jERWEdwHYBcPY8", "types": ["premise"]}