{"address_components": [{"long_name": "Block 339A", "short_name": "Block 339A", "types": ["premise"]}, {"long_name": "339A", "short_name": "339A", "types": ["street_number"]}, {"long_name": "Sembawang Close", "short_name": "Sembawang Cl", "types": ["route"]}, {"long_name": "Sembawang", "short_name": "Sembawang", "types": ["neighborhood", "political"]}, {"long_name": "Singapore", "short_name": "Singapore", "types": ["locality", "political"]}, {"long_name": "Singapore", "short_name": "SG", "types": ["country", "political"]}, {"long_name": "751339", "short_name": "751339", "types": ["postal_code"]}], "formatted_address": "339A Sembawang Cl, Block 339A, Singapore 751339", "geometry": {"bounds": {"northeast": {"lat": 1.448192, "lng": 103.8181288}, "southwest": {"lat": 1.4478321, "lng": 103.8177028}}, "location": {"lat": 1.4479157, "lng": 103.8179355}, "location_type": "ROOFTOP", "viewport": {"northeast": {"lat": 1.449361030291502, "lng": 103.8192647802915}, "southwest": {"lat": 1.446663069708498, "lng": 103.8165668197085}}}, "place_id": "ChIJgV-gxXwT2jERSJxL9Vrclh0", "types": ["premise"]}