{"address_components": [{"long_name": "Block 764", "short_name": "Block 764", "types": ["premise"]}, {"long_name": "764", "short_name": "764", "types": ["street_number"]}, {"long_name": "Jurong West Street 74", "short_name": "Jurong West Street 74", "types": ["route"]}, {"long_name": "Jurong West", "short_name": "Jurong West", "types": ["neighborhood", "political"]}, {"long_name": "Singapore", "short_name": "Singapore", "types": ["locality", "political"]}, {"long_name": "Singapore", "short_name": "SG", "types": ["country", "political"]}, {"long_name": "640764", "short_name": "640764", "types": ["postal_code"]}], "formatted_address": "764 Jurong West Street 74, Block 764, Singapore 640764", "geometry": {"bounds": {"northeast": {"lat": 1.34977, "lng": 103.6986545}, "southwest": {"lat": 1.349393, "lng": 103.6981165}}, "location": {"lat": 1.3496806, "lng": 103.6984683}, "location_type": "ROOFTOP", "viewport": {"northeast": {"lat": 1.350930480291502, "lng": 103.6997344802915}, "southwest": {"lat": 1.348232519708498, "lng": 103.6970365197085}}}, "place_id": "ChIJbUcjQbwP2jERQRvxQVFgs5s", "types": ["premise"]}