{"address_components": [{"long_name": "Block 264", "short_name": "Block 264", "types": ["premise"]}, {"long_name": "264", "short_name": "264", "types": ["street_number"]}, {"long_name": "Boon Lay Drive", "short_name": "Boon Lay Dr", "types": ["route"]}, {"long_name": "Jurong West", "short_name": "Jurong West", "types": ["neighborhood", "political"]}, {"long_name": "Singapore", "short_name": "Singapore", "types": ["locality", "political"]}, {"long_name": "Singapore", "short_name": "SG", "types": ["country", "political"]}, {"long_name": "640264", "short_name": "640264", "types": ["postal_code"]}], "formatted_address": "264 Boon Lay Dr, Block 264, Singapore 640264", "geometry": {"bounds": {"northeast": {"lat": 1.3462862, "lng": 103.7071276}, "southwest": {"lat": 1.3459683, "lng": 103.7067816}}, "location": {"lat": 1.3461885, "lng": 103.7069736}, "location_type": "ROOFTOP", "viewport": {"northeast": {"lat": 1.347476230291502, "lng": 103.7083035802915}, "southwest": {"lat": 1.344778269708498, "lng": 103.7056056197085}}}, "place_id": "ChIJtxG5oOoP2jERigTr4kz723U", "types": ["premise"]}