{"address_components": [{"long_name": "Block 271", "short_name": "Block 271", "types": ["premise"]}, {"long_name": "271", "short_name": "271", "types": ["street_number"]}, {"long_name": "Bukit Batok East Avenue 4", "short_name": "Bukit Batok East Ave 4", "types": ["route"]}, {"long_name": "Bukit Batok", "short_name": "Bukit Batok", "types": ["neighborhood", "political"]}, {"long_name": "Singapore", "short_name": "Singapore", "types": ["locality", "political"]}, {"long_name": "Singapore", "short_name": "SG", "types": ["country", "political"]}, {"long_name": "650271", "short_name": "650271", "types": ["postal_code"]}], "formatted_address": "271 Bukit Batok East Ave 4, Block 271, Singapore 650271", "geometry": {"bounds": {"northeast": {"lat": 1.3486153, "lng": 103.7590349}, "southwest": {"lat": 1.3480093, "lng": 103.7585239}}, "location": {"lat": 1.3482544, "lng": 103.7585861}, "location_type": "ROOFTOP", "viewport": {"northeast": {"lat": 1.349661280291502, "lng": 103.7601283802915}, "southwest": {"lat": 1.346963319708498, "lng": 103.7574304197085}}}, "place_id": "ChIJsf_vzUMQ2jERRFOiAc2i7s8", "types": ["premise"]}