{"address_components": [{"long_name": "Block 11", "short_name": "Block 11", "types": ["premise"]}, {"long_name": "11", "short_name": "11", "types": ["street_number"]}, {"long_name": "Eunos Crescent", "short_name": "Eunos Cres", "types": ["route"]}, {"long_name": "Geylang", "short_name": "Geylang", "types": ["neighborhood", "political"]}, {"long_name": "Singapore", "short_name": "Singapore", "types": ["locality", "political"]}, {"long_name": "Singapore", "short_name": "SG", "types": ["country", "political"]}, {"long_name": "400011", "short_name": "400011", "types": ["postal_code"]}], "formatted_address": "11 Eunos Cres, Block 11, Singapore 400011", "geometry": {"bounds": {"northeast": {"lat": 1.3219733, "lng": 103.9049359}, "southwest": {"lat": 1.3217532, "lng": 103.903955}}, "location": {"lat": 1.3218511, "lng": 103.9043813}, "location_type": "ROOFTOP", "viewport": {"northeast": {"lat": 1.323212230291502, "lng": 103.9057944302915}, "southwest": {"lat": 1.320514269708498, "lng": 103.9030964697085}}}, "place_id": "ChIJ8-9MZwMY2jER4KE722nkeGk", "types": ["premise"]}