{"address_components": [{"long_name": "Block 501", "short_name": "Block 501", "types": ["premise"]}, {"long_name": "501", "short_name": "501", "types": ["street_number"]}, {"long_name": "Woodlands Drive 14", "short_name": "Woodlands Drive 14", "types": ["route"]}, {"long_name": "Woodlands", "short_name": "Woodlands", "types": ["neighborhood", "political"]}, {"long_name": "Singapore", "short_name": "Singapore", "types": ["locality", "political"]}, {"long_name": "Singapore", "short_name": "SG", "types": ["country", "political"]}, {"long_name": "730501", "short_name": "730501", "types": ["postal_code"]}], "formatted_address": "501 Woodlands Drive 14, Block 501, Singapore 730501", "geometry": {"bounds": {"northeast": {"lat": 1.4331171, "lng": 103.792173}, "southwest": {"lat": 1.432563, "lng": 103.7918071}}, "location": {"lat": 1.4328637, "lng": 103.7919684}, "location_type": "ROOFTOP", "viewport": {"northeast": {"lat": 1.434189030291502, "lng": 103.7933390302915}, "southwest": {"lat": 1.431491069708498, "lng": 103.7906410697085}}}, "place_id": "ChIJNTTZeqQT2jERa91IYGYr1do", "types": ["premise"]}