{"address_components": [{"long_name": "Block 531", "short_name": "Block 531", "types": ["premise"]}, {"long_name": "531", "short_name": "531", "types": ["street_number"]}, {"long_name": "Jurong West Street 52", "short_name": "Jurong West Street 52", "types": ["route"]}, {"long_name": "Jurong West", "short_name": "Jurong West", "types": ["neighborhood", "political"]}, {"long_name": "Singapore", "short_name": "Singapore", "types": ["locality", "political"]}, {"long_name": "Singapore", "short_name": "SG", "types": ["country", "political"]}, {"long_name": "640531", "short_name": "640531", "types": ["postal_code"]}], "formatted_address": "531 Jurong West Street 52, Block 531, Singapore 640531", "geometry": {"bounds": {"northeast": {"lat": 1.349288, "lng": 103.7156989}, "southwest": {"lat": 1.3488349, "lng": 103.7149563}}, "location": {"lat": 1.3492177, "lng": 103.7152995}, "location_type": "ROOFTOP", "viewport": {"northeast": {"lat": 1.350410430291502, "lng": 103.7166765802915}, "southwest": {"lat": 1.347712469708498, "lng": 103.7139786197085}}}, "place_id": "ChIJuZ18EMMP2jERBDG04JUPp_0", "types": ["premise"]}