{"address_components": [{"long_name": "3", "short_name": "3", "types": ["street_number"]}, {"long_name": "Queen's Road", "short_name": "Queen's Rd", "types": ["route"]}, {"long_name": "Bukit Timah", "short_name": "Bukit Timah", "types": ["neighborhood", "political"]}, {"long_name": "Singapore", "short_name": "Singapore", "types": ["locality", "political"]}, {"long_name": "Singapore", "short_name": "SG", "types": ["country", "political"]}, {"long_name": "266734", "short_name": "266734", "types": ["postal_code"]}], "formatted_address": "3 Queen's Rd, Singapore 266734", "geometry": {"bounds": {"northeast": {"lat": 1.3229691, "lng": 103.8117706}, "southwest": {"lat": 1.3227307, "lng": 103.8115383}}, "location": {"lat": 1.3228663, "lng": 103.8116414}, "location_type": "ROOFTOP", "viewport": {"northeast": {"lat": 1.324198880291502, "lng": 103.8130034302915}, "southwest": {"lat": 1.321500919708498, "lng": 103.8103054697085}}}, "place_id": "ChIJ3TB5awYa2jERDuVC9JBiI7o", "types": ["premise"]}