{"address_components": [{"long_name": "Block 843", "short_name": "Block 843", "types": ["premise"]}, {"long_name": "843", "short_name": "843", "types": ["street_number"]}, {"long_name": "Woodlands Street 82", "short_name": "Woodlands Street 82", "types": ["route"]}, {"long_name": "Woodlands", "short_name": "Woodlands", "types": ["neighborhood", "political"]}, {"long_name": "Singapore", "short_name": "Singapore", "types": ["locality", "political"]}, {"long_name": "Singapore", "short_name": "SG", "types": ["country", "political"]}, {"long_name": "730843", "short_name": "730843", "types": ["postal_code"]}], "formatted_address": "843 Woodlands Street 82, Block 843, Singapore 730843", "geometry": {"bounds": {"northeast": {"lat": 1.443224, "lng": 103.7932891}, "southwest": {"lat": 1.4430558, "lng": 103.792191}}, "location": {"lat": 1.4431347, "lng": 103.7927834}, "location_type": "ROOFTOP", "viewport": {"northeast": {"lat": 1.444488880291502, "lng": 103.7940890302915}, "southwest": {"lat": 1.441790919708498, "lng": 103.7913910697085}}}, "place_id": "ChIJEXO44QsT2jER7FOs_0scCxY", "types": ["premise"]}