{"address_components": [{"long_name": "Block 624", "short_name": "Block 624", "types": ["premise"]}, {"long_name": "624", "short_name": "624", "types": ["street_number"]}, {"long_name": "Senja Road", "short_name": "Senja Rd", "types": ["route"]}, {"long_name": "Bukit Panjang", "short_name": "Bukit Panjang", "types": ["neighborhood", "political"]}, {"long_name": "Singapore", "short_name": "Singapore", "types": ["locality", "political"]}, {"long_name": "Singapore", "short_name": "SG", "types": ["country", "political"]}, {"long_name": "670624", "short_name": "670624", "types": ["postal_code"]}], "formatted_address": "624 Senja Rd, Block 624, Singapore 670624", "geometry": {"bounds": {"northeast": {"lat": 1.3864458, "lng": 103.7618771}, "southwest": {"lat": 1.3860472, "lng": 103.7615281}}, "location": {"lat": 1.3861724, "lng": 103.7617289}, "location_type": "ROOFTOP", "viewport": {"northeast": {"lat": 1.387595480291502, "lng": 103.7630515802915}, "southwest": {"lat": 1.384897519708498, "lng": 103.7603536197085}}}, "place_id": "ChIJ6XctEJcR2jERarNZtqSeREM", "types": ["premise"]}