{"address_components": [{"long_name": "Block 560", "short_name": "Block 560", "types": ["premise"]}, {"long_name": "560", "short_name": "560", "types": ["street_number"]}, {"long_name": "Pasir Ris Street 51", "short_name": "Pasir Ris Street 51", "types": ["route"]}, {"long_name": "Pasir Ris", "short_name": "Pasir Ris", "types": ["neighborhood", "political"]}, {"long_name": "Singapore", "short_name": "Singapore", "types": ["locality", "political"]}, {"long_name": "Singapore", "short_name": "SG", "types": ["country", "political"]}, {"long_name": "510560", "short_name": "510560", "types": ["postal_code"]}], "formatted_address": "560 Pasir Ris Street 51, Block 560, Singapore 510560", "geometry": {"bounds": {"northeast": {"lat": 1.367036, "lng": 103.9509296}, "southwest": {"lat": 1.3665726, "lng": 103.9498931}}, "location": {"lat": 1.3667367, "lng": 103.9504289}, "location_type": "ROOFTOP", "viewport": {"northeast": {"lat": 1.368153280291502, "lng": 103.9517603302915}, "southwest": {"lat": 1.365455319708498, "lng": 103.9490623697085}}}, "place_id": "ChIJdQm_lag92jERkL5-0udCCWI", "types": ["premise"]}