{"address_components": [{"long_name": "Block 641", "short_name": "Block 641", "types": ["premise"]}, {"long_name": "641", "short_name": "641", "types": ["street_number"]}, {"long_name": "Pasir Ris Drive 1", "short_name": "Pasir Ris Dr 1", "types": ["route"]}, {"long_name": "Pasir Ris", "short_name": "Pasir Ris", "types": ["neighborhood", "political"]}, {"long_name": "Singapore", "short_name": "Singapore", "types": ["locality", "political"]}, {"long_name": "Singapore", "short_name": "SG", "types": ["country", "political"]}, {"long_name": "510641", "short_name": "510641", "types": ["postal_code"]}], "formatted_address": "641 Pasir Ris Dr 1, Block 641, Singapore 510641", "geometry": {"bounds": {"northeast": {"lat": 1.3767399, "lng": 103.9398997}, "southwest": {"lat": 1.3761889, "lng": 103.9392207}}, "location": {"lat": 1.37645, "lng": 103.9395737}, "location_type": "ROOFTOP", "viewport": {"northeast": {"lat": 1.377813380291502, "lng": 103.9409091802915}, "southwest": {"lat": 1.375115419708498, "lng": 103.9382112197085}}}, "place_id": "ChIJUZQHx7092jERc1-kcZScIbw", "types": ["premise"]}