{"address_components": [{"long_name": "Block 253", "short_name": "Block 253", "types": ["premise"]}, {"long_name": "253", "short_name": "253", "types": ["street_number"]}, {"long_name": "Hougang Avenue 3", "short_name": "Hougang Ave 3", "types": ["route"]}, {"long_name": "Hougang", "short_name": "Hougang", "types": ["neighborhood", "political"]}, {"long_name": "Singapore", "short_name": "Singapore", "types": ["locality", "political"]}, {"long_name": "Singapore", "short_name": "SG", "types": ["country", "political"]}, {"long_name": "530253", "short_name": "530253", "types": ["postal_code"]}], "formatted_address": "253 Hougang Ave 3, Block 253, Singapore 530253", "geometry": {"bounds": {"northeast": {"lat": 1.3605937, "lng": 103.8924465}, "southwest": {"lat": 1.3603896, "lng": 103.8917745}}, "location": {"lat": 1.3604897, "lng": 103.8921513}, "location_type": "ROOFTOP", "viewport": {"northeast": {"lat": 1.361840630291502, "lng": 103.8934594802915}, "southwest": {"lat": 1.359142669708498, "lng": 103.8907615197085}}}, "place_id": "ChIJo3e3bcoX2jERFaPtFcgM7YI", "types": ["premise"]}