{"address_components": [{"long_name": "Block 605", "short_name": "Block 605", "types": ["premise"]}, {"long_name": "605", "short_name": "605", "types": ["street_number"]}, {"long_name": "Senja Road", "short_name": "Senja Rd", "types": ["route"]}, {"long_name": "Bukit Panjang", "short_name": "Bukit Panjang", "types": ["neighborhood", "political"]}, {"long_name": "Singapore", "short_name": "Singapore", "types": ["locality", "political"]}, {"long_name": "Singapore", "short_name": "SG", "types": ["country", "political"]}, {"long_name": "670605", "short_name": "670605", "types": ["postal_code"]}], "formatted_address": "605 Senja Rd, Block 605, Singapore 670605", "geometry": {"bounds": {"northeast": {"lat": 1.3810039, "lng": 103.7620681}, "southwest": {"lat": 1.3806541, "lng": 103.761636}}, "location": {"lat": 1.38082, "lng": 103.7618194}, "location_type": "ROOFTOP", "viewport": {"northeast": {"lat": 1.382177980291502, "lng": 103.7632010302915}, "southwest": {"lat": 1.379480019708498, "lng": 103.7605030697085}}}, "place_id": "ChIJVf8m4rwR2jERgN3movxL-vY", "types": ["premise"]}