{"address_components": [{"long_name": "205C", "short_name": "205C", "types": ["street_number"]}, {"long_name": "Compassvale Lane", "short_name": "Compassvale Ln", "types": ["route"]}, {"long_name": "Sengkang", "short_name": "Sengkang", "types": ["neighborhood", "political"]}, {"long_name": "Singapore", "short_name": "Singapore", "types": ["locality", "political"]}, {"long_name": "Singapore", "short_name": "SG", "types": ["country", "political"]}, {"long_name": "543205", "short_name": "543205", "types": ["postal_code"]}], "formatted_address": "205C Compassvale Ln, Singapore 543205", "geometry": {"bounds": {"northeast": {"lat": 1.3862807, "lng": 103.8968344}, "southwest": {"lat": 1.38576, "lng": 103.8961842}}, "location": {"lat": 1.3861215, "lng": 103.8964783}, "location_type": "ROOFTOP", "viewport": {"northeast": {"lat": 1.387369330291502, "lng": 103.8978582802915}, "southwest": {"lat": 1.384671369708498, "lng": 103.8951603197085}}}, "place_id": "ChIJfR_AnhYW2jER3bQYghFgDfU", "types": ["premise"]}