{"address_components": [{"long_name": "Block 43A", "short_name": "Block 43A", "types": ["premise"]}, {"long_name": "43A", "short_name": "43A", "types": ["street_number"]}, {"long_name": "Sims Drive", "short_name": "Sims Dr", "types": ["route"]}, {"long_name": "Geylang", "short_name": "Geylang", "types": ["neighborhood", "political"]}, {"long_name": "Singapore", "short_name": "Singapore", "types": ["locality", "political"]}, {"long_name": "Singapore", "short_name": "SG", "types": ["country", "political"]}, {"long_name": "381043", "short_name": "381043", "types": ["postal_code"]}], "formatted_address": "43A Sims Dr, Block 43A, Singapore 381043", "geometry": {"bounds": {"northeast": {"lat": 1.3171051, "lng": 103.8769533}, "southwest": {"lat": 1.3166997, "lng": 103.8763811}}, "location": {"lat": 1.3168065, "lng": 103.8765692}, "location_type": "ROOFTOP", "viewport": {"northeast": {"lat": 1.318251380291502, "lng": 103.8780161802915}, "southwest": {"lat": 1.315553419708498, "lng": 103.8753182197085}}}, "place_id": "ChIJlS4W1TEY2jERVZvL098d-iw", "types": ["premise"]}