{"address_components": [{"long_name": "Block 143", "short_name": "Block 143", "types": ["premise"]}, {"long_name": "143", "short_name": "143", "types": ["street_number"]}, {"long_name": "Pasir Ris Street 11", "short_name": "Pasir Ris Street 11", "types": ["route"]}, {"long_name": "Pasir Ris", "short_name": "Pasir Ris", "types": ["neighborhood", "political"]}, {"long_name": "Singapore", "short_name": "Singapore", "types": ["locality", "political"]}, {"long_name": "Singapore", "short_name": "SG", "types": ["country", "political"]}, {"long_name": "510143", "short_name": "510143", "types": ["postal_code"]}], "formatted_address": "143 Pasir Ris Street 11, Block 143, Singapore 510143", "geometry": {"bounds": {"northeast": {"lat": 1.3625589, "lng": 103.9609069}, "southwest": {"lat": 1.361886, "lng": 103.960032}}, "location": {"lat": 1.3620627, "lng": 103.9607638}, "location_type": "ROOFTOP", "viewport": {"northeast": {"lat": 1.363571430291502, "lng": 103.9618184302915}, "southwest": {"lat": 1.360873469708498, "lng": 103.9591204697085}}}, "place_id": "ChIJzSesGAA92jERoS-zQFGloq8", "types": ["premise"]}