{"address_components": [{"long_name": "Block 26", "short_name": "Block 26", "types": ["premise"]}, {"long_name": "26", "short_name": "26", "types": ["street_number"]}, {"long_name": "Teck Whye Lane", "short_name": "Teck Whye Ln", "types": ["route"]}, {"long_name": "Choa Chu Kang", "short_name": "Choa Chu Kang", "types": ["neighborhood", "political"]}, {"long_name": "Singapore", "short_name": "Singapore", "types": ["locality", "political"]}, {"long_name": "Singapore", "short_name": "SG", "types": ["country", "political"]}, {"long_name": "680026", "short_name": "680026", "types": ["postal_code"]}], "formatted_address": "26 Teck Whye Ln, Block 26, Singapore 680026", "geometry": {"bounds": {"northeast": {"lat": 1.378005, "lng": 103.7558559}, "southwest": {"lat": 1.3773349, "lng": 103.755278}}, "location": {"lat": 1.3775575, "lng": 103.7556637}, "location_type": "ROOFTOP", "viewport": {"northeast": {"lat": 1.379018930291502, "lng": 103.7569159302915}, "southwest": {"lat": 1.376320969708498, "lng": 103.7542179697085}}}, "place_id": "ChIJachyI7kR2jERzAwFPQNk7wg", "types": ["premise"]}