{"address_components": [{"long_name": "Block 109", "short_name": "Block 109", "types": ["premise"]}, {"long_name": "109", "short_name": "109", "types": ["street_number"]}, {"long_name": "Bukit Purmei Road", "short_name": "Bukit Purmei Rd", "types": ["route"]}, {"long_name": "Bukit Merah", "short_name": "Bukit Merah", "types": ["neighborhood", "political"]}, {"long_name": "Singapore", "short_name": "Singapore", "types": ["locality", "political"]}, {"long_name": "Singapore", "short_name": "SG", "types": ["country", "political"]}, {"long_name": "090109", "short_name": "090109", "types": ["postal_code"]}], "formatted_address": "109 Bukit Purmei Rd, Block 109, Singapore 090109", "geometry": {"bounds": {"northeast": {"lat": 1.2740364, "lng": 103.8259105}, "southwest": {"lat": 1.2737955, "lng": 103.824795}}, "location": {"lat": 1.2739482, "lng": 103.8252941}, "location_type": "ROOFTOP", "viewport": {"northeast": {"lat": 1.275264930291502, "lng": 103.8267017302915}, "southwest": {"lat": 1.272566969708498, "lng": 103.8240037697085}}}, "place_id": "ChIJM35eDWEZ2jERaMpmlihxRXY", "types": ["premise"]}