{"address_components": [{"long_name": "Block 123", "short_name": "Block 123", "types": ["premise"]}, {"long_name": "123", "short_name": "123", "types": ["street_number"]}, {"long_name": "Marsiling Rise", "short_name": "Marsiling Rise", "types": ["route"]}, {"long_name": "Woodlands", "short_name": "Woodlands", "types": ["neighborhood", "political"]}, {"long_name": "Singapore", "short_name": "Singapore", "types": ["locality", "political"]}, {"long_name": "Singapore", "short_name": "SG", "types": ["country", "political"]}, {"long_name": "730123", "short_name": "730123", "types": ["postal_code"]}], "formatted_address": "123 Marsiling Rise, Block 123, Singapore 730123", "geometry": {"bounds": {"northeast": {"lat": 1.4392547, "lng": 103.7795396}, "southwest": {"lat": 1.4386706, "lng": 103.7787517}}, "location": {"lat": 1.4391816, "lng": 103.7791113}, "location_type": "ROOFTOP", "viewport": {"northeast": {"lat": 1.440311630291502, "lng": 103.7804946302915}, "southwest": {"lat": 1.437613669708498, "lng": 103.7777966697085}}}, "place_id": "ChIJtam-caoT2jEROB6VKLvayqo", "types": ["premise"]}