{"address_components": [{"long_name": "Block 313", "short_name": "Block 313", "types": ["premise"]}, {"long_name": "313", "short_name": "313", "types": ["street_number"]}, {"long_name": "Woodlands Street 31", "short_name": "Woodlands Street 31", "types": ["route"]}, {"long_name": "Woodlands", "short_name": "Woodlands", "types": ["neighborhood", "political"]}, {"long_name": "Singapore", "short_name": "Singapore", "types": ["locality", "political"]}, {"long_name": "Singapore", "short_name": "SG", "types": ["country", "political"]}, {"long_name": "730313", "short_name": "730313", "types": ["postal_code"]}], "formatted_address": "313 Woodlands Street 31, Block 313, Singapore 730313", "geometry": {"bounds": {"northeast": {"lat": 1.430878, "lng": 103.776534}, "southwest": {"lat": 1.4307319, "lng": 103.7757611}}, "location": {"lat": 1.4308324, "lng": 103.7761235}, "location_type": "ROOFTOP", "viewport": {"northeast": {"lat": 1.432153930291502, "lng": 103.7774965302915}, "southwest": {"lat": 1.429455969708498, "lng": 103.7747985697085}}}, "place_id": "ChIJ4dUeRa0T2jER9zUIpD1mGS0", "types": ["premise"]}