{"address_components": [{"long_name": "Block 641B", "short_name": "Block 641B", "types": ["premise"]}, {"long_name": "641B", "short_name": "641B", "types": ["street_number"]}, {"long_name": "Punggol Drive", "short_name": "Punggol Dr", "types": ["route"]}, {"long_name": "Punggol", "short_name": "Punggol", "types": ["neighborhood", "political"]}, {"long_name": "Singapore", "short_name": "Singapore", "types": ["locality", "political"]}, {"long_name": "Singapore", "short_name": "SG", "types": ["country", "political"]}, {"long_name": "822641", "short_name": "822641", "types": ["postal_code"]}], "formatted_address": "641B Punggol Dr, Block 641B, Singapore 822641", "geometry": {"bounds": {"northeast": {"lat": 1.3990743, "lng": 103.9169706}, "southwest": {"lat": 1.3986837, "lng": 103.9165711}}, "location": {"lat": 1.3988574, "lng": 103.9167447}, "location_type": "ROOFTOP", "viewport": {"northeast": {"lat": 1.400227980291502, "lng": 103.9181198302915}, "southwest": {"lat": 1.397530019708498, "lng": 103.9154218697085}}}, "place_id": "ChIJC3_Oqf892jER0mQhTrk_-ZU", "types": ["premise"]}