{"address_components": [{"long_name": "Block 894C", "short_name": "Block 894C", "types": ["premise"]}, {"long_name": "894C", "short_name": "894C", "types": ["street_number"]}, {"long_name": "Woodlands Drive 50", "short_name": "Woodlands Drive 50", "types": ["route"]}, {"long_name": "Woodlands", "short_name": "Woodlands", "types": ["neighborhood", "political"]}, {"long_name": "Singapore", "short_name": "Singapore", "types": ["locality", "political"]}, {"long_name": "Singapore", "short_name": "SG", "types": ["country", "political"]}, {"long_name": "732894", "short_name": "732894", "types": ["postal_code"]}], "formatted_address": "894C Woodlands Drive 50, Block 894C, Singapore 732894", "geometry": {"bounds": {"northeast": {"lat": 1.435813, "lng": 103.790732}, "southwest": {"lat": 1.435577, "lng": 103.7898971}}, "location": {"lat": 1.4356442, "lng": 103.7903612}, "location_type": "ROOFTOP", "viewport": {"northeast": {"lat": 1.437043980291502, "lng": 103.7916635302915}, "southwest": {"lat": 1.434346019708498, "lng": 103.7889655697085}}}, "place_id": "ChIJrRjKjaYT2jERsts6JD8-mQg", "types": ["premise"]}