{"address_components": [{"long_name": "Block 660B", "short_name": "Block 660B", "types": ["premise"]}, {"long_name": "660B", "short_name": "660B", "types": ["street_number"]}, {"long_name": "Jurong West Street 64", "short_name": "Jurong West Street 64", "types": ["route"]}, {"long_name": "Jurong West", "short_name": "Jurong West", "types": ["neighborhood", "political"]}, {"long_name": "Singapore", "short_name": "Singapore", "types": ["locality", "political"]}, {"long_name": "Singapore", "short_name": "SG", "types": ["country", "political"]}, {"long_name": "642660", "short_name": "642660", "types": ["postal_code"]}], "formatted_address": "660B Jurong West Street 64, Block 660B, Singapore 642660", "geometry": {"bounds": {"northeast": {"lat": 1.3364407, "lng": 103.7043111}, "southwest": {"lat": 1.3360658, "lng": 103.7040381}}, "location": {"lat": 1.3362049, "lng": 103.7042111}, "location_type": "ROOFTOP", "viewport": {"northeast": {"lat": 1.337602230291502, "lng": 103.7055235802915}, "southwest": {"lat": 1.334904269708498, "lng": 103.7028256197085}}}, "place_id": "ChIJNaSlZ40P2jER-BBT6ZnVUgU", "types": ["premise"]}