{"address_components": [{"long_name": "265", "short_name": "265", "types": ["street_number"]}, {"long_name": "Yishun Street 22", "short_name": "Yishun Street 22", "types": ["route"]}, {"long_name": "Yishun", "short_name": "Yishun", "types": ["neighborhood", "political"]}, {"long_name": "Singapore", "short_name": "Singapore", "types": ["locality", "political"]}, {"long_name": "Singapore", "short_name": "SG", "types": ["country", "political"]}, {"long_name": "760265", "short_name": "760265", "types": ["postal_code"]}], "formatted_address": "265 Yishun Street 22, Singapore 760265", "geometry": {"bounds": {"northeast": {"lat": 1.4369112, "lng": 103.8392114}, "southwest": {"lat": 1.4364778, "lng": 103.8380856}}, "location": {"lat": 1.4366846, "lng": 103.8388803}, "location_type": "ROOFTOP", "viewport": {"northeast": {"lat": 1.438043480291502, "lng": 103.8399974802915}, "southwest": {"lat": 1.435345519708498, "lng": 103.8372995197085}}}, "place_id": "ChIJabmv1GMU2jERfuZvpE_hSbs", "types": ["premise"]}