{"address_components": [{"long_name": "Block 681", "short_name": "Block 681", "types": ["premise"]}, {"long_name": "681", "short_name": "681", "types": ["street_number"]}, {"long_name": "Race Course Road", "short_name": "Race Course Rd", "types": ["route"]}, {"long_name": "Kallang", "short_name": "Kallang", "types": ["neighborhood", "political"]}, {"long_name": "Singapore", "short_name": "Singapore", "types": ["locality", "political"]}, {"long_name": "Singapore", "short_name": "SG", "types": ["country", "political"]}, {"long_name": "210681", "short_name": "210681", "types": ["postal_code"]}], "formatted_address": "681 Race Course Rd, Block 681, Singapore 210681", "geometry": {"bounds": {"northeast": {"lat": 1.3143852, "lng": 103.8557035}, "southwest": {"lat": 1.3135135, "lng": 103.8548214}}, "location": {"lat": 1.3140759, "lng": 103.855277}, "location_type": "ROOFTOP", "viewport": {"northeast": {"lat": 1.315298330291502, "lng": 103.8566114302915}, "southwest": {"lat": 1.312600369708498, "lng": 103.8539134697085}}}, "place_id": "ChIJyxqblsUZ2jERXvLp7HbUZz0", "types": ["premise"]}