{"address_components": [{"long_name": "Block 271", "short_name": "Block 271", "types": ["premise"]}, {"long_name": "271", "short_name": "271", "types": ["street_number"]}, {"long_name": "Yishun Street 22", "short_name": "Yishun Street 22", "types": ["route"]}, {"long_name": "Yishun", "short_name": "Yishun", "types": ["neighborhood", "political"]}, {"long_name": "Singapore", "short_name": "Singapore", "types": ["locality", "political"]}, {"long_name": "Singapore", "short_name": "SG", "types": ["country", "political"]}, {"long_name": "760271", "short_name": "760271", "types": ["postal_code"]}], "formatted_address": "271 Yishun Street 22, Block 271, Singapore 760271", "geometry": {"bounds": {"northeast": {"lat": 1.4381014, "lng": 103.8406441}, "southwest": {"lat": 1.4375995, "lng": 103.840122}}, "location": {"lat": 1.4378677, "lng": 103.8403975}, "location_type": "ROOFTOP", "viewport": {"northeast": {"lat": 1.439199430291502, "lng": 103.8417320302915}, "southwest": {"lat": 1.436501469708498, "lng": 103.8390340697085}}}, "place_id": "ChIJNSyklWEU2jERSvYd6ycyr5s", "types": ["premise"]}