{"address_components": [{"long_name": "Block 34", "short_name": "Block 34", "types": ["premise"]}, {"long_name": "34", "short_name": "34", "types": ["street_number"]}, {"long_name": "Eunos Crescent", "short_name": "Eunos Cres", "types": ["route"]}, {"long_name": "Geylang", "short_name": "Geylang", "types": ["neighborhood", "political"]}, {"long_name": "Singapore", "short_name": "Singapore", "types": ["locality", "political"]}, {"long_name": "Singapore", "short_name": "SG", "types": ["country", "political"]}, {"long_name": "400034", "short_name": "400034", "types": ["postal_code"]}], "formatted_address": "34 Eunos Cres, Block 34, Singapore 400034", "geometry": {"bounds": {"northeast": {"lat": 1.3211859, "lng": 103.9009944}, "southwest": {"lat": 1.3208439, "lng": 103.9005863}}, "location": {"lat": 1.3209863, "lng": 103.9007594}, "location_type": "ROOFTOP", "viewport": {"northeast": {"lat": 1.322363880291502, "lng": 103.9021393302915}, "southwest": {"lat": 1.319665919708498, "lng": 103.8994413697085}}}, "place_id": "ChIJtzZcbxsY2jERfBkInD4sFu0", "types": ["premise"]}