{"address_components": [{"long_name": "434B", "short_name": "434B", "types": ["street_number"]}, {"long_name": "Fernvale Road", "short_name": "Fernvale Rd", "types": ["route"]}, {"long_name": "Sengkang", "short_name": "Sengkang", "types": ["neighborhood", "political"]}, {"long_name": "Singapore", "short_name": "Singapore", "types": ["locality", "political"]}, {"long_name": "Singapore", "short_name": "SG", "types": ["country", "political"]}, {"long_name": "792434", "short_name": "792434", "types": ["postal_code"]}], "formatted_address": "434B Fernvale Rd, Singapore 792434", "geometry": {"bounds": {"northeast": {"lat": 1.3947961, "lng": 103.8767744}, "southwest": {"lat": 1.3944142, "lng": 103.8764569}}, "location": {"lat": 1.3947239, "lng": 103.8765665}, "location_type": "ROOFTOP", "viewport": {"northeast": {"lat": 1.395954130291502, "lng": 103.8779646302915}, "southwest": {"lat": 1.393256169708498, "lng": 103.8752666697085}}}, "place_id": "ChIJ14oMrnsW2jERNCCkCnXd--Y", "types": ["premise"]}