{"address_components": [{"long_name": "Block 420", "short_name": "Block 420", "types": ["premise"]}, {"long_name": "420", "short_name": "420", "types": ["street_number"]}, {"long_name": "Fajar Road", "short_name": "Fajar Rd", "types": ["route"]}, {"long_name": "Bukit Panjang", "short_name": "Bukit Panjang", "types": ["neighborhood", "political"]}, {"long_name": "Singapore", "short_name": "Singapore", "types": ["locality", "political"]}, {"long_name": "Singapore", "short_name": "SG", "types": ["country", "political"]}, {"long_name": "670420", "short_name": "670420", "types": ["postal_code"]}], "formatted_address": "420 Fajar Rd, Block 420, Singapore 670420", "geometry": {"bounds": {"northeast": {"lat": 1.3849438, "lng": 103.7704117}, "southwest": {"lat": 1.3843217, "lng": 103.7691979}}, "location": {"lat": 1.3845856, "lng": 103.7696955}, "location_type": "ROOFTOP", "viewport": {"northeast": {"lat": 1.385981730291502, "lng": 103.7711537802915}, "southwest": {"lat": 1.383283769708498, "lng": 103.7684558197085}}}, "place_id": "ChIJ_U-4zJgR2jERWlGgF3VXt7M", "types": ["premise"]}