{"address_components": [{"long_name": "Block 115", "short_name": "Block 115", "types": ["premise"]}, {"long_name": "115", "short_name": "115", "types": ["street_number"]}, {"long_name": "Marsiling Rise", "short_name": "Marsiling Rise", "types": ["route"]}, {"long_name": "Woodlands", "short_name": "Woodlands", "types": ["neighborhood", "political"]}, {"long_name": "Singapore", "short_name": "Singapore", "types": ["locality", "political"]}, {"long_name": "Singapore", "short_name": "SG", "types": ["country", "political"]}, {"long_name": "730115", "short_name": "730115", "types": ["postal_code"]}], "formatted_address": "115 Marsiling Rise, Block 115, Singapore 730115", "geometry": {"bounds": {"northeast": {"lat": 1.4386259, "lng": 103.7813172}, "southwest": {"lat": 1.4379449, "lng": 103.7806261}}, "location": {"lat": 1.4381433, "lng": 103.7808315}, "location_type": "ROOFTOP", "viewport": {"northeast": {"lat": 1.439634380291502, "lng": 103.7823206302915}, "southwest": {"lat": 1.436936419708498, "lng": 103.7796226697085}}}, "place_id": "ChIJ_Q8yIKoT2jERWp84BnCK6P0", "types": ["premise"]}