{"address_components": [{"long_name": "Block 896C", "short_name": "Block 896C", "types": ["premise"]}, {"long_name": "896C", "short_name": "896C", "types": ["street_number"]}, {"long_name": "Woodlands Drive 50", "short_name": "Woodlands Drive 50", "types": ["route"]}, {"long_name": "Woodlands", "short_name": "Woodlands", "types": ["neighborhood", "political"]}, {"long_name": "Singapore", "short_name": "Singapore", "types": ["locality", "political"]}, {"long_name": "Singapore", "short_name": "SG", "types": ["country", "political"]}, {"long_name": "732896", "short_name": "732896", "types": ["postal_code"]}], "formatted_address": "896C Woodlands Drive 50, Block 896C, Singapore 732896", "geometry": {"bounds": {"northeast": {"lat": 1.4372381, "lng": 103.7934541}, "southwest": {"lat": 1.436689, "lng": 103.7928581}}, "location": {"lat": 1.4370405, "lng": 103.793055}, "location_type": "ROOFTOP", "viewport": {"northeast": {"lat": 1.438312530291502, "lng": 103.7945050802915}, "southwest": {"lat": 1.435614569708498, "lng": 103.7918071197085}}}, "place_id": "ChIJUcyvKaET2jER0UZZY7yzG0Y", "types": ["premise"]}