{"address_components": [{"long_name": "Block 68", "short_name": "Block 68", "types": ["premise"]}, {"long_name": "68", "short_name": "68", "types": ["street_number"]}, {"long_name": "Telok Blangah Heights", "short_name": "Telok Blangah Heights", "types": ["route"]}, {"long_name": "Bukit Merah", "short_name": "Bukit Merah", "types": ["neighborhood", "political"]}, {"long_name": "Singapore", "short_name": "Singapore", "types": ["locality", "political"]}, {"long_name": "Singapore", "short_name": "SG", "types": ["country", "political"]}, {"long_name": "100068", "short_name": "100068", "types": ["postal_code"]}], "formatted_address": "68 Telok Blangah Heights, Block 68, Singapore 100068", "geometry": {"bounds": {"northeast": {"lat": 1.2754689, "lng": 103.8104587}, "southwest": {"lat": 1.275097, "lng": 103.8098027}}, "location": {"lat": 1.2753539, "lng": 103.8099914}, "location_type": "ROOFTOP", "viewport": {"northeast": {"lat": 1.276631930291502, "lng": 103.8114796802915}, "southwest": {"lat": 1.273933969708498, "lng": 103.8087817197085}}}, "place_id": "ChIJK4lMVcMb2jERBVB3NgyM-Q0", "types": ["premise"]}