{"address_components": [{"long_name": "323", "short_name": "323", "types": ["street_number"]}, {"long_name": "Hougang Avenue 5", "short_name": "Hougang Ave 5", "types": ["route"]}, {"long_name": "Hougang", "short_name": "Hougang", "types": ["neighborhood", "political"]}, {"long_name": "Singapore", "short_name": "Singapore", "types": ["locality", "political"]}, {"long_name": "Singapore", "short_name": "SG", "types": ["country", "political"]}, {"long_name": "530323", "short_name": "530323", "types": ["postal_code"]}], "formatted_address": "323 Hougang Ave 5, Singapore 530323", "geometry": {"bounds": {"northeast": {"lat": 1.3673592, "lng": 103.89793}, "southwest": {"lat": 1.3670694, "lng": 103.8977534}}, "location": {"lat": 1.367194, "lng": 103.8978602}, "location_type": "ROOFTOP", "viewport": {"northeast": {"lat": 1.368563280291502, "lng": 103.8991906802915}, "southwest": {"lat": 1.365865319708498, "lng": 103.8964927197085}}}, "place_id": "ChIJH_C2kjMW2jERCBSOdYl6j2Q", "types": ["premise"]}