{"address_components": [{"long_name": "Block 120", "short_name": "Block 120", "types": ["premise"]}, {"long_name": "120", "short_name": "120", "types": ["street_number"]}, {"long_name": "Bedok Reservoir Road", "short_name": "Bedok Reservoir Rd", "types": ["route"]}, {"long_name": "Bedok", "short_name": "Bedok", "types": ["neighborhood", "political"]}, {"long_name": "Singapore", "short_name": "Singapore", "types": ["locality", "political"]}, {"long_name": "Singapore", "short_name": "SG", "types": ["country", "political"]}, {"long_name": "470120", "short_name": "470120", "types": ["postal_code"]}], "formatted_address": "120 Bedok Reservoir Rd, Block 120, Singapore 470120", "geometry": {"bounds": {"northeast": {"lat": 1.3310429, "lng": 103.910198}, "southwest": {"lat": 1.3308749, "lng": 103.9095212}}, "location": {"lat": 1.3309592, "lng": 103.9098223}, "location_type": "ROOFTOP", "viewport": {"northeast": {"lat": 1.332307880291502, "lng": 103.9112085802915}, "southwest": {"lat": 1.329609919708498, "lng": 103.9085106197085}}}, "place_id": "ChIJGyI0HvwX2jER51c04RzjnOI", "types": ["premise"]}