{"address_components": [{"long_name": "Block 113", "short_name": "Block 113", "types": ["premise"]}, {"long_name": "113", "short_name": "113", "types": ["street_number"]}, {"long_name": "Simei Street 1", "short_name": "Simei Street 1", "types": ["route"]}, {"long_name": "Tampines", "short_name": "Tampines", "types": ["neighborhood", "political"]}, {"long_name": "Singapore", "short_name": "Singapore", "types": ["locality", "political"]}, {"long_name": "Singapore", "short_name": "SG", "types": ["country", "political"]}, {"long_name": "520113", "short_name": "520113", "types": ["postal_code"]}], "formatted_address": "113 Simei Street 1, Block 113, Singapore 520113", "geometry": {"bounds": {"northeast": {"lat": 1.3431484, "lng": 103.9501665}, "southwest": {"lat": 1.3425393, "lng": 103.9495675}}, "location": {"lat": 1.3428567, "lng": 103.9499077}, "location_type": "ROOFTOP", "viewport": {"northeast": {"lat": 1.344192830291502, "lng": 103.9512159802915}, "southwest": {"lat": 1.341494869708498, "lng": 103.9485180197085}}}, "place_id": "ChIJFQ_FzyI92jERoAsDrZBGeDs", "types": ["premise"]}