{"address_components": [{"long_name": "Block 609", "short_name": "Block 609", "types": ["premise"]}, {"long_name": "609", "short_name": "609", "types": ["street_number"]}, {"long_name": "Jurong West Street 65", "short_name": "Jurong West Street 65", "types": ["route"]}, {"long_name": "Jurong West", "short_name": "Jurong West", "types": ["neighborhood", "political"]}, {"long_name": "Singapore", "short_name": "Singapore", "types": ["locality", "political"]}, {"long_name": "Singapore", "short_name": "SG", "types": ["country", "political"]}, {"long_name": "640609", "short_name": "640609", "types": ["postal_code"]}], "formatted_address": "609 Jurong West Street 65, Block 609, Singapore 640609", "geometry": {"bounds": {"northeast": {"lat": 1.3382027, "lng": 103.7008025}, "southwest": {"lat": 1.3378868, "lng": 103.7004513}}, "location": {"lat": 1.3380078, "lng": 103.7005988}, "location_type": "ROOFTOP", "viewport": {"northeast": {"lat": 1.339393730291502, "lng": 103.7019758802915}, "southwest": {"lat": 1.336695769708498, "lng": 103.6992779197085}}}, "place_id": "ChIJcdRQIpIP2jER7vBBf0Yd4iw", "types": ["premise"]}