{"address_components": [{"long_name": "Block 118", "short_name": "Block 118", "types": ["premise"]}, {"long_name": "118", "short_name": "118", "types": ["street_number"]}, {"long_name": "Ang Mo Kio Avenue 4", "short_name": "Ang Mo Kio Ave 4", "types": ["route"]}, {"long_name": "Ang Mo Kio", "short_name": "Ang Mo Kio", "types": ["neighborhood", "political"]}, {"long_name": "Singapore", "short_name": "Singapore", "types": ["locality", "political"]}, {"long_name": "Singapore", "short_name": "SG", "types": ["country", "political"]}, {"long_name": "560118", "short_name": "560118", "types": ["postal_code"]}], "formatted_address": "118 Ang Mo Kio Ave 4, Block 118, Singapore 560118", "geometry": {"bounds": {"northeast": {"lat": 1.3735669, "lng": 103.8358912}, "southwest": {"lat": 1.372944, "lng": 103.8351329}}, "location": {"lat": 1.3732764, "lng": 103.8354384}, "location_type": "ROOFTOP", "viewport": {"northeast": {"lat": 1.374604430291502, "lng": 103.8368610302915}, "southwest": {"lat": 1.371906469708498, "lng": 103.8341630697085}}}, "place_id": "ChIJg8dpzdoW2jERmbK-C1JhVpw", "types": ["premise"]}