{"address_components": [{"long_name": "Block 540", "short_name": "Block 540", "types": ["premise"]}, {"long_name": "540", "short_name": "540", "types": ["street_number"]}, {"long_name": "Serangoon North Avenue 4", "short_name": "Serangoon North Ave 4", "types": ["route"]}, {"long_name": "Serangoon", "short_name": "Serangoon", "types": ["neighborhood", "political"]}, {"long_name": "Singapore", "short_name": "Singapore", "types": ["locality", "political"]}, {"long_name": "Singapore", "short_name": "SG", "types": ["country", "political"]}, {"long_name": "550540", "short_name": "550540", "types": ["postal_code"]}], "formatted_address": "540 Serangoon North Ave 4, Block 540, Singapore 550540", "geometry": {"bounds": {"northeast": {"lat": 1.3747238, "lng": 103.8731318}, "southwest": {"lat": 1.374565, "lng": 103.8720533}}, "location": {"lat": 1.3746619, "lng": 103.8725794}, "location_type": "ROOFTOP", "viewport": {"northeast": {"lat": 1.375993380291502, "lng": 103.8739415302915}, "southwest": {"lat": 1.373295419708498, "lng": 103.8712435697085}}}, "place_id": "ChIJMyfIlVkW2jERGtnHMOwT4CQ", "types": ["premise"]}