{"address_components": [{"long_name": "207", "short_name": "207", "types": ["street_number"]}, {"long_name": "Serangoon Central", "short_name": "Serangoon Central", "types": ["route"]}, {"long_name": "Serangoon", "short_name": "Serangoon", "types": ["neighborhood", "political"]}, {"long_name": "Singapore", "short_name": "Singapore", "types": ["locality", "political"]}, {"long_name": "Singapore", "short_name": "SG", "types": ["country", "political"]}, {"long_name": "550207", "short_name": "550207", "types": ["postal_code"]}], "formatted_address": "207 Serangoon Central, Singapore 550207", "geometry": {"bounds": {"northeast": {"lat": 1.3543757, "lng": 103.8738929}, "southwest": {"lat": 1.3536579, "lng": 103.8731295}}, "location": {"lat": 1.3538086, "lng": 103.8734327}, "location_type": "ROOFTOP", "viewport": {"northeast": {"lat": 1.355365780291502, "lng": 103.8748601802915}, "southwest": {"lat": 1.352667819708498, "lng": 103.8721622197085}}}, "place_id": "ChIJe2vUBaYX2jER_598mxe7HCw", "types": ["premise"]}