{"address_components": [{"long_name": "Block 931", "short_name": "Block 931", "types": ["premise"]}, {"long_name": "931", "short_name": "931", "types": ["street_number"]}, {"long_name": "Tampines Street 91", "short_name": "Tampines Street 91", "types": ["route"]}, {"long_name": "Tampines", "short_name": "Tampines", "types": ["neighborhood", "political"]}, {"long_name": "Singapore", "short_name": "Singapore", "types": ["locality", "political"]}, {"long_name": "Singapore", "short_name": "SG", "types": ["country", "political"]}, {"long_name": "520931", "short_name": "520931", "types": ["postal_code"]}], "formatted_address": "931 Tampines Street 91, Block 931, Singapore 520931", "geometry": {"bounds": {"northeast": {"lat": 1.3464379, "lng": 103.9391511}, "southwest": {"lat": 1.3457771, "lng": 103.9389612}}, "location": {"lat": 1.3458655, "lng": 103.9390978}, "location_type": "ROOFTOP", "viewport": {"northeast": {"lat": 1.347456480291502, "lng": 103.9404051302915}, "southwest": {"lat": 1.344758519708498, "lng": 103.9377071697085}}}, "place_id": "ChIJ3UkiPhU92jERDqNQDZZzHkA", "types": ["premise"]}