{"address_components": [{"long_name": "Block 705", "short_name": "Block 705", "types": ["premise"]}, {"long_name": "705", "short_name": "705", "types": ["street_number"]}, {"long_name": "Pasir Ris Drive 10", "short_name": "Pasir Ris Drive 10", "types": ["route"]}, {"long_name": "Pasir Ris", "short_name": "Pasir Ris", "types": ["neighborhood", "political"]}, {"long_name": "Singapore", "short_name": "Singapore", "types": ["locality", "political"]}, {"long_name": "Singapore", "short_name": "SG", "types": ["country", "political"]}, {"long_name": "510705", "short_name": "510705", "types": ["postal_code"]}], "formatted_address": "705 Pasir Ris Drive 10, Block 705, Singapore 510705", "geometry": {"bounds": {"northeast": {"lat": 1.3808616, "lng": 103.9379646}, "southwest": {"lat": 1.3804665, "lng": 103.9376897}}, "location": {"lat": 1.3807091, "lng": 103.9378061}, "location_type": "ROOFTOP", "viewport": {"northeast": {"lat": 1.382013030291502, "lng": 103.9391761302915}, "southwest": {"lat": 1.379315069708498, "lng": 103.9364781697085}}}, "place_id": "ChIJm3Sr2b892jER20TlmwhPCAg", "types": ["premise"]}