{"address_components": [{"long_name": "Block 923", "short_name": "Block 923", "types": ["premise"]}, {"long_name": "923", "short_name": "923", "types": ["street_number"]}, {"long_name": "Hougang Avenue 9", "short_name": "Hougang Ave 9", "types": ["route"]}, {"long_name": "Hougang", "short_name": "Hougang", "types": ["neighborhood", "political"]}, {"long_name": "Singapore", "short_name": "Singapore", "types": ["locality", "political"]}, {"long_name": "Singapore", "short_name": "SG", "types": ["country", "political"]}, {"long_name": "530923", "short_name": "530923", "types": ["postal_code"]}], "formatted_address": "923 Hougang Ave 9, Block 923, Singapore 530923", "geometry": {"bounds": {"northeast": {"lat": 1.3763366, "lng": 103.8832046}, "southwest": {"lat": 1.3759527, "lng": 103.8825834}}, "location": {"lat": 1.376224, "lng": 103.8828211}, "location_type": "ROOFTOP", "viewport": {"northeast": {"lat": 1.377493630291502, "lng": 103.8842429802915}, "southwest": {"lat": 1.374795669708498, "lng": 103.8815450197085}}}, "place_id": "ChIJYbr_WUQW2jERiDhgG1HSSVk", "types": ["premise"]}