{"address_components": [{"long_name": "Block 137", "short_name": "Block 137", "types": ["premise"]}, {"long_name": "137", "short_name": "137", "types": ["street_number"]}, {"long_name": "Bedok North Avenue 3", "short_name": "Bedok North Ave 3", "types": ["route"]}, {"long_name": "Bedok", "short_name": "Bedok", "types": ["neighborhood", "political"]}, {"long_name": "Singapore", "short_name": "Singapore", "types": ["locality", "political"]}, {"long_name": "Singapore", "short_name": "SG", "types": ["country", "political"]}, {"long_name": "460137", "short_name": "460137", "types": ["postal_code"]}], "formatted_address": "137 Bedok North Ave 3, Block 137, Singapore 460137", "geometry": {"bounds": {"northeast": {"lat": 1.3289676, "lng": 103.9359308}, "southwest": {"lat": 1.3286716, "lng": 103.9350589}}, "location": {"lat": 1.3288356, "lng": 103.9355626}, "location_type": "ROOFTOP", "viewport": {"northeast": {"lat": 1.330168580291502, "lng": 103.9368438302915}, "southwest": {"lat": 1.327470619708498, "lng": 103.9341458697085}}}, "place_id": "ChIJLfUeUEo92jERCwvgd5U0G8Y", "types": ["premise"]}