{"address_components": [{"long_name": "Block 615", "short_name": "Block 615", "types": ["premise"]}, {"long_name": "615", "short_name": "615", "types": ["street_number"]}, {"long_name": "Bedok Reservoir Road", "short_name": "Bedok Reservoir Rd", "types": ["route"]}, {"long_name": "Bedok", "short_name": "Bedok", "types": ["neighborhood", "political"]}, {"long_name": "Singapore", "short_name": "Singapore", "types": ["locality", "political"]}, {"long_name": "Singapore", "short_name": "SG", "types": ["country", "political"]}, {"long_name": "470615", "short_name": "470615", "types": ["postal_code"]}], "formatted_address": "615 Bedok Reservoir Rd, Block 615, Singapore 470615", "geometry": {"bounds": {"northeast": {"lat": 1.3327684, "lng": 103.9162928}, "southwest": {"lat": 1.3320298, "lng": 103.9153532}}, "location": {"lat": 1.3322067, "lng": 103.9155772}, "location_type": "ROOFTOP", "viewport": {"northeast": {"lat": 1.333748080291502, "lng": 103.9171719802915}, "southwest": {"lat": 1.331050119708498, "lng": 103.9144740197085}}}, "place_id": "ChIJ-9qmOFY92jER76AR_bprQdQ", "types": ["premise"]}