{"address_components": [{"long_name": "Block 317", "short_name": "Block 317", "types": ["premise"]}, {"long_name": "317", "short_name": "317", "types": ["street_number"]}, {"long_name": "Hougang Avenue 7", "short_name": "Hougang Ave 7", "types": ["route"]}, {"long_name": "Hougang", "short_name": "Hougang", "types": ["neighborhood", "political"]}, {"long_name": "Singapore", "short_name": "Singapore", "types": ["locality", "political"]}, {"long_name": "Singapore", "short_name": "SG", "types": ["country", "political"]}, {"long_name": "530317", "short_name": "530317", "types": ["postal_code"]}], "formatted_address": "317 Hougang Ave 7, Block 317, Singapore 530317", "geometry": {"bounds": {"northeast": {"lat": 1.3653659, "lng": 103.896778}, "southwest": {"lat": 1.3651519, "lng": 103.895935}}, "location": {"lat": 1.3652988, "lng": 103.8963197}, "location_type": "ROOFTOP", "viewport": {"northeast": {"lat": 1.366607880291502, "lng": 103.8977054802915}, "southwest": {"lat": 1.363909919708498, "lng": 103.8950075197085}}}, "place_id": "ChIJLTsVmjQW2jERUD4vgtLyo8o", "types": ["premise"]}