{"address_components": [{"long_name": "2", "short_name": "2", "types": ["street_number"]}, {"long_name": "Queen's Road", "short_name": "Queen's Rd", "types": ["route"]}, {"long_name": "Bukit Timah", "short_name": "Bukit Timah", "types": ["neighborhood", "political"]}, {"long_name": "Singapore", "short_name": "Singapore", "types": ["locality", "political"]}, {"long_name": "Singapore", "short_name": "SG", "types": ["country", "political"]}, {"long_name": "260002", "short_name": "260002", "types": ["postal_code"]}], "formatted_address": "2 Queen's Rd, Singapore 260002", "geometry": {"bounds": {"northeast": {"lat": 1.3229817, "lng": 103.8111239}, "southwest": {"lat": 1.3227142, "lng": 103.8108466}}, "location": {"lat": 1.3228333, "lng": 103.8110075}, "location_type": "ROOFTOP", "viewport": {"northeast": {"lat": 1.324196930291502, "lng": 103.8123342302915}, "southwest": {"lat": 1.321498969708498, "lng": 103.8096362697085}}}, "place_id": "ChIJISjTFgYa2jER2odilZx7-Dw", "types": ["premise"]}