{"address_components": [{"long_name": "Block 107", "short_name": "Block 107", "types": ["premise"]}, {"long_name": "107", "short_name": "107", "types": ["street_number"]}, {"long_name": "Bedok North Road", "short_name": "Bedok North Rd", "types": ["route"]}, {"long_name": "Bedok", "short_name": "Bedok", "types": ["neighborhood", "political"]}, {"long_name": "Singapore", "short_name": "Singapore", "types": ["locality", "political"]}, {"long_name": "Singapore", "short_name": "SG", "types": ["country", "political"]}, {"long_name": "460107", "short_name": "460107", "types": ["postal_code"]}], "formatted_address": "107 Bedok North Rd, Block 107, Singapore 460107", "geometry": {"bounds": {"northeast": {"lat": 1.3325385, "lng": 103.9367181}, "southwest": {"lat": 1.3322297, "lng": 103.9358509}}, "location": {"lat": 1.3324161, "lng": 103.9363784}, "location_type": "ROOFTOP", "viewport": {"northeast": {"lat": 1.333733080291502, "lng": 103.9376334802915}, "southwest": {"lat": 1.331035119708498, "lng": 103.9349355197085}}}, "place_id": "ChIJFWkPuEk92jERelCfZodN0yg", "types": ["premise"]}