{"address_components": [{"long_name": "Block 311", "short_name": "Block 311", "types": ["premise"]}, {"long_name": "311", "short_name": "311", "types": ["street_number"]}, {"long_name": "Shunfu Road", "short_name": "Shunfu Rd", "types": ["route"]}, {"long_name": "Bishan", "short_name": "Bishan", "types": ["neighborhood", "political"]}, {"long_name": "Singapore", "short_name": "Singapore", "types": ["locality", "political"]}, {"long_name": "Singapore", "short_name": "SG", "types": ["country", "political"]}, {"long_name": "570311", "short_name": "570311", "types": ["postal_code"]}], "formatted_address": "311 Shunfu Rd, Block 311, Singapore 570311", "geometry": {"bounds": {"northeast": {"lat": 1.3512922, "lng": 103.8396171}, "southwest": {"lat": 1.3506954, "lng": 103.8392624}}, "location": {"lat": 1.3509537, "lng": 103.8394726}, "location_type": "ROOFTOP", "viewport": {"northeast": {"lat": 1.352342780291502, "lng": 103.8407887302915}, "southwest": {"lat": 1.349644819708498, "lng": 103.8380907697085}}}, "place_id": "ChIJx7auCzwX2jERoMQ79z7Xs5w", "types": ["premise"]}