{"address_components": [{"long_name": "Block 614", "short_name": "Block 614", "types": ["premise"]}, {"long_name": "614", "short_name": "614", "types": ["street_number"]}, {"long_name": "Woodlands Avenue 4", "short_name": "Woodlands Ave 4", "types": ["route"]}, {"long_name": "Woodlands", "short_name": "Woodlands", "types": ["neighborhood", "political"]}, {"long_name": "Singapore", "short_name": "Singapore", "types": ["locality", "political"]}, {"long_name": "Singapore", "short_name": "SG", "types": ["country", "political"]}, {"long_name": "730614", "short_name": "730614", "types": ["postal_code"]}], "formatted_address": "614 Woodlands Ave 4, Block 614, Singapore 730614", "geometry": {"bounds": {"northeast": {"lat": 1.4347381, "lng": 103.7966384}, "southwest": {"lat": 1.4343952, "lng": 103.7961626}}, "location": {"lat": 1.4345062, "lng": 103.7963827}, "location_type": "ROOFTOP", "viewport": {"northeast": {"lat": 1.435915630291502, "lng": 103.7977494802915}, "southwest": {"lat": 1.433217669708498, "lng": 103.7950515197085}}}, "place_id": "ChIJ0WBJJqIT2jERzIzkmRpXtNc", "types": ["premise"]}