{"address_components": [{"long_name": "Block 112", "short_name": "Block 112", "types": ["premise"]}, {"long_name": "112", "short_name": "112", "types": ["street_number"]}, {"long_name": "Bishan Street 12", "short_name": "Bishan Street 12", "types": ["route"]}, {"long_name": "Bishan", "short_name": "Bishan", "types": ["neighborhood", "political"]}, {"long_name": "Singapore", "short_name": "Singapore", "types": ["locality", "political"]}, {"long_name": "Singapore", "short_name": "SG", "types": ["country", "political"]}, {"long_name": "570112", "short_name": "570112", "types": ["postal_code"]}], "formatted_address": "112 Bishan Street 12, Block 112, Singapore 570112", "geometry": {"bounds": {"northeast": {"lat": 1.3471767, "lng": 103.8494733}, "southwest": {"lat": 1.3467177, "lng": 103.8485174}}, "location": {"lat": 1.3468279, "lng": 103.8488528}, "location_type": "ROOFTOP", "viewport": {"northeast": {"lat": 1.348296180291502, "lng": 103.8503443302915}, "southwest": {"lat": 1.345598219708498, "lng": 103.8476463697085}}}, "place_id": "ChIJ36N17RQX2jERAxDiRafeHLI", "types": ["premise"]}