{"address_components": [{"long_name": "Block 613", "short_name": "Block 613", "types": ["premise"]}, {"long_name": "613", "short_name": "613", "types": ["street_number"]}, {"long_name": "Woodlands Avenue 4", "short_name": "Woodlands Ave 4", "types": ["route"]}, {"long_name": "Woodlands", "short_name": "Woodlands", "types": ["neighborhood", "political"]}, {"long_name": "Singapore", "short_name": "Singapore", "types": ["locality", "political"]}, {"long_name": "Singapore", "short_name": "SG", "types": ["country", "political"]}, {"long_name": "730613", "short_name": "730613", "types": ["postal_code"]}], "formatted_address": "613 Woodlands Ave 4, Block 613, Singapore 730613", "geometry": {"bounds": {"northeast": {"lat": 1.4348642, "lng": 103.7971619}, "southwest": {"lat": 1.4342025, "lng": 103.7966631}}, "location": {"lat": 1.4344477, "lng": 103.7969487}, "location_type": "ROOFTOP", "viewport": {"northeast": {"lat": 1.435882330291502, "lng": 103.7982614802915}, "southwest": {"lat": 1.433184369708498, "lng": 103.7955635197085}}}, "place_id": "ChIJp_22IaIT2jERJiSYtlM4ElE", "types": ["premise"]}