{"address_components": [{"long_name": "Block 8", "short_name": "Block 8", "types": ["premise"]}, {"long_name": "8", "short_name": "8", "types": ["street_number"]}, {"long_name": "Bedok South Avenue 2", "short_name": "Bedok South Ave 2", "types": ["route"]}, {"long_name": "Bedok", "short_name": "Bedok", "types": ["neighborhood", "political"]}, {"long_name": "Singapore", "short_name": "Singapore", "types": ["locality", "political"]}, {"long_name": "Singapore", "short_name": "SG", "types": ["country", "political"]}, {"long_name": "460008", "short_name": "460008", "types": ["postal_code"]}], "formatted_address": "8 Bedok South Ave 2, Block 8, Singapore 460008", "geometry": {"bounds": {"northeast": {"lat": 1.3229812, "lng": 103.9364001}, "southwest": {"lat": 1.3227533, "lng": 103.93575}}, "location": {"lat": 1.322852, "lng": 103.9360838}, "location_type": "ROOFTOP", "viewport": {"northeast": {"lat": 1.324216230291502, "lng": 103.9374240302915}, "southwest": {"lat": 1.321518269708498, "lng": 103.9347260697085}}}, "place_id": "ChIJDa1_vLUi2jER4E_eU_VKSkw", "types": ["premise"]}