{"address_components": [{"long_name": "Block 180", "short_name": "Block 180", "types": ["premise"]}, {"long_name": "180", "short_name": "180", "types": ["street_number"]}, {"long_name": "Bedok North Road", "short_name": "Bedok North Rd", "types": ["route"]}, {"long_name": "Bedok", "short_name": "Bedok", "types": ["neighborhood", "political"]}, {"long_name": "Singapore", "short_name": "Singapore", "types": ["locality", "political"]}, {"long_name": "Singapore", "short_name": "SG", "types": ["country", "political"]}, {"long_name": "460180", "short_name": "460180", "types": ["postal_code"]}], "formatted_address": "180 Bedok North Rd, Block 180, Singapore 460180", "geometry": {"bounds": {"northeast": {"lat": 1.3269564, "lng": 103.9410574}, "southwest": {"lat": 1.3265013, "lng": 103.9405266}}, "location": {"lat": 1.3267569, "lng": 103.94082}, "location_type": "ROOFTOP", "viewport": {"northeast": {"lat": 1.328077830291502, "lng": 103.9421409802915}, "southwest": {"lat": 1.325379869708498, "lng": 103.9394430197085}}}, "place_id": "ChIJ624S2TQ92jERjvnASoUeoM4", "types": ["premise"]}