{"address_components": [{"long_name": "Block 613B", "short_name": "Block 613B", "types": ["premise"]}, {"long_name": "613B", "short_name": "613B", "types": ["street_number"]}, {"long_name": "Bedok Reservoir Road", "short_name": "Bedok Reservoir Rd", "types": ["route"]}, {"long_name": "Bedok", "short_name": "Bedok", "types": ["neighborhood", "political"]}, {"long_name": "Singapore", "short_name": "Singapore", "types": ["locality", "political"]}, {"long_name": "Singapore", "short_name": "SG", "types": ["country", "political"]}, {"long_name": "472613", "short_name": "472613", "types": ["postal_code"]}], "formatted_address": "613B Bedok Reservoir Rd, Block 613B, Singapore 472613", "geometry": {"bounds": {"northeast": {"lat": 1.3331862, "lng": 103.9183731}, "southwest": {"lat": 1.3324871, "lng": 103.9179629}}, "location": {"lat": 1.333107, "lng": 103.9180696}, "location_type": "ROOFTOP", "viewport": {"northeast": {"lat": 1.334185630291502, "lng": 103.9195169802915}, "southwest": {"lat": 1.331487669708498, "lng": 103.9168190197085}}}, "place_id": "ChIJNWTJ5FY92jERO6zSSL0MjKw", "types": ["premise"]}