{"address_components": [{"long_name": "Block 116", "short_name": "Block 116", "types": ["premise"]}, {"long_name": "116", "short_name": "116", "types": ["street_number"]}, {"long_name": "Lengkong Tiga", "short_name": "Lengkong Tiga", "types": ["route"]}, {"long_name": "Bedok", "short_name": "Bedok", "types": ["neighborhood", "political"]}, {"long_name": "Singapore", "short_name": "Singapore", "types": ["locality", "political"]}, {"long_name": "Singapore", "short_name": "SG", "types": ["country", "political"]}, {"long_name": "410116", "short_name": "410116", "types": ["postal_code"]}], "formatted_address": "116 Lengkong Tiga, Block 116, Singapore 410116", "geometry": {"bounds": {"northeast": {"lat": 1.3230615, "lng": 103.9122405}, "southwest": {"lat": 1.3227064, "lng": 103.9114519}}, "location": {"lat": 1.3228258, "lng": 103.9119068}, "location_type": "ROOFTOP", "viewport": {"northeast": {"lat": 1.324232930291502, "lng": 103.9131951802915}, "southwest": {"lat": 1.321534969708498, "lng": 103.9104972197085}}}, "place_id": "ChIJZbNN4QAY2jERGyDfCcHyaao", "types": ["premise"]}