{"address_components": [{"long_name": "Block 251", "short_name": "Block 251", "types": ["premise"]}, {"long_name": "251", "short_name": "251", "types": ["street_number"]}, {"long_name": "Hougang Avenue 3", "short_name": "Hougang Ave 3", "types": ["route"]}, {"long_name": "Hougang", "short_name": "Hougang", "types": ["neighborhood", "political"]}, {"long_name": "Singapore", "short_name": "Singapore", "types": ["locality", "political"]}, {"long_name": "Singapore", "short_name": "SG", "types": ["country", "political"]}, {"long_name": "530251", "short_name": "530251", "types": ["postal_code"]}], "formatted_address": "251 Hougang Ave 3, Block 251, Singapore 530251", "geometry": {"bounds": {"northeast": {"lat": 1.3601476, "lng": 103.8919698}, "southwest": {"lat": 1.3599208, "lng": 103.8910987}}, "location": {"lat": 1.3600535, "lng": 103.8916077}, "location_type": "ROOFTOP", "viewport": {"northeast": {"lat": 1.361383180291502, "lng": 103.8928832302915}, "southwest": {"lat": 1.358685219708498, "lng": 103.8901852697085}}}, "place_id": "ChIJ5_76C8oX2jERcWxkPMAg9yQ", "types": ["premise"]}