{"address_components": [{"long_name": "Block 534", "short_name": "Block 534", "types": ["premise"]}, {"long_name": "534", "short_name": "534", "types": ["street_number"]}, {"long_name": "Serangoon North Avenue 4", "short_name": "Serangoon North Ave 4", "types": ["route"]}, {"long_name": "Serangoon", "short_name": "Serangoon", "types": ["neighborhood", "political"]}, {"long_name": "Singapore", "short_name": "Singapore", "types": ["locality", "political"]}, {"long_name": "Singapore", "short_name": "SG", "types": ["country", "political"]}, {"long_name": "550534", "short_name": "550534", "types": ["postal_code"]}], "formatted_address": "534 Serangoon North Ave 4, Block 534, Singapore 550534", "geometry": {"bounds": {"northeast": {"lat": 1.3743271, "lng": 103.8749426}, "southwest": {"lat": 1.3741791, "lng": 103.8741037}}, "location": {"lat": 1.3742658, "lng": 103.8745082}, "location_type": "ROOFTOP", "viewport": {"northeast": {"lat": 1.375602080291502, "lng": 103.8758721302915}, "southwest": {"lat": 1.372904119708498, "lng": 103.8731741697085}}}, "place_id": "ChIJw6LWGVoW2jERaDe7PjIltkI", "types": ["premise"]}