{"address_components": [{"long_name": "Block 831", "short_name": "Block 831", "types": ["premise"]}, {"long_name": "831", "short_name": "831", "types": ["street_number"]}, {"long_name": "Woodlands Street 83", "short_name": "Woodlands Street 83", "types": ["route"]}, {"long_name": "Woodlands", "short_name": "Woodlands", "types": ["neighborhood", "political"]}, {"long_name": "Singapore", "short_name": "Singapore", "types": ["locality", "political"]}, {"long_name": "Singapore", "short_name": "SG", "types": ["country", "political"]}, {"long_name": "730831", "short_name": "730831", "types": ["postal_code"]}], "formatted_address": "831 Woodlands Street 83, Block 831, Singapore 730831", "geometry": {"bounds": {"northeast": {"lat": 1.4398051, "lng": 103.791499}, "southwest": {"lat": 1.439257, "lng": 103.7912229}}, "location": {"lat": 1.4395467, "lng": 103.7913346}, "location_type": "ROOFTOP", "viewport": {"northeast": {"lat": 1.440880030291502, "lng": 103.7927099302915}, "southwest": {"lat": 1.438182069708498, "lng": 103.7900119697085}}}, "place_id": "ChIJpRFM4AkT2jERnfjqU-Jj-xA", "types": ["premise"]}