{"address_components": [{"long_name": "Block 913", "short_name": "Block 913", "types": ["premise"]}, {"long_name": "913", "short_name": "913", "types": ["street_number"]}, {"long_name": "Tampines Street 91", "short_name": "Tampines Street 91", "types": ["route"]}, {"long_name": "Tampines", "short_name": "Tampines", "types": ["neighborhood", "political"]}, {"long_name": "Singapore", "short_name": "Singapore", "types": ["locality", "political"]}, {"long_name": "Singapore", "short_name": "SG", "types": ["country", "political"]}, {"long_name": "520913", "short_name": "520913", "types": ["postal_code"]}], "formatted_address": "913 Tampines Street 91, Block 913, Singapore 520913", "geometry": {"bounds": {"northeast": {"lat": 1.349196, "lng": 103.9390819}, "southwest": {"lat": 1.3485281, "lng": 103.938867}}, "location": {"lat": 1.3487944, "lng": 103.9389165}, "location_type": "ROOFTOP", "viewport": {"northeast": {"lat": 1.350211030291502, "lng": 103.9403234302915}, "southwest": {"lat": 1.347513069708498, "lng": 103.9376254697085}}}, "place_id": "ChIJgQu3ohQ92jEROo0T5nF-txM", "types": ["premise"]}