{"address_components": [{"long_name": "Block 128", "short_name": "Block 128", "types": ["premise"]}, {"long_name": "128", "short_name": "128", "types": ["street_number"]}, {"long_name": "Pending Road", "short_name": "Pending Rd", "types": ["route"]}, {"long_name": "Bukit Panjang", "short_name": "Bukit Panjang", "types": ["neighborhood", "political"]}, {"long_name": "Singapore", "short_name": "Singapore", "types": ["locality", "political"]}, {"long_name": "Singapore", "short_name": "SG", "types": ["country", "political"]}, {"long_name": "670128", "short_name": "670128", "types": ["postal_code"]}], "formatted_address": "128 Pending Rd, Block 128, Singapore 670128", "geometry": {"bounds": {"northeast": {"lat": 1.3763338, "lng": 103.7701697}, "southwest": {"lat": 1.3757157, "lng": 103.7692861}}, "location": {"lat": 1.3760827, "lng": 103.769605}, "location_type": "ROOFTOP", "viewport": {"northeast": {"lat": 1.377373730291502, "lng": 103.7710768802915}, "southwest": {"lat": 1.374675769708498, "lng": 103.7683789197085}}}, "place_id": "ChIJEzhZfqYR2jERj2o4rCAHVZw", "types": ["premise"]}