{"address_components": [{"long_name": "Block 165", "short_name": "Block 165", "types": ["premise"]}, {"long_name": "165", "short_name": "165", "types": ["street_number"]}, {"long_name": "Hougang Avenue 1", "short_name": "Hougang Ave 1", "types": ["route"]}, {"long_name": "Hougang", "short_name": "Hougang", "types": ["neighborhood", "political"]}, {"long_name": "Singapore", "short_name": "Singapore", "types": ["locality", "political"]}, {"long_name": "Singapore", "short_name": "SG", "types": ["country", "political"]}, {"long_name": "530165", "short_name": "530165", "types": ["postal_code"]}], "formatted_address": "165 Hougang Ave 1, Block 165, Singapore 530165", "geometry": {"bounds": {"northeast": {"lat": 1.3507346, "lng": 103.8881306}, "southwest": {"lat": 1.3501675, "lng": 103.8876025}}, "location": {"lat": 1.3505387, "lng": 103.8877339}, "location_type": "ROOFTOP", "viewport": {"northeast": {"lat": 1.351800030291502, "lng": 103.8892155302915}, "southwest": {"lat": 1.349102069708498, "lng": 103.8865175697085}}}, "place_id": "ChIJU7t6JrkX2jERp3txHfNz-_U", "types": ["premise"]}