{"address_components": [{"long_name": "Block 980C", "short_name": "Block 980C", "types": ["premise"]}, {"long_name": "980C", "short_name": "980C", "types": ["street_number"]}, {"long_name": "Buangkok Crescent", "short_name": "Buangkok Cres", "types": ["route"]}, {"long_name": "Hougang", "short_name": "Hougang", "types": ["neighborhood", "political"]}, {"long_name": "Singapore", "short_name": "Singapore", "types": ["locality", "political"]}, {"long_name": "Singapore", "short_name": "SG", "types": ["country", "political"]}, {"long_name": "533980", "short_name": "533980", "types": ["postal_code"]}], "formatted_address": "980C Buangkok Cres, Block 980C, Singapore 533980", "geometry": {"bounds": {"northeast": {"lat": 1.3802007, "lng": 103.8812128}, "southwest": {"lat": 1.3799731, "lng": 103.8807127}}, "location": {"lat": 1.3801143, "lng": 103.8809156}, "location_type": "ROOFTOP", "viewport": {"northeast": {"lat": 1.381435880291502, "lng": 103.8823117302915}, "southwest": {"lat": 1.378737919708498, "lng": 103.8796137697085}}}, "place_id": "ChIJOQQzIEMW2jERYd__dlE50pE", "types": ["premise"]}