{"address_components": [{"long_name": "Block 541", "short_name": "Block 541", "types": ["premise"]}, {"long_name": "541", "short_name": "541", "types": ["street_number"]}, {"long_name": "Bukit Batok Street 52", "short_name": "Bukit Batok Street 52", "types": ["route"]}, {"long_name": "Bukit Batok", "short_name": "Bukit Batok", "types": ["neighborhood", "political"]}, {"long_name": "Singapore", "short_name": "Singapore", "types": ["locality", "political"]}, {"long_name": "Singapore", "short_name": "SG", "types": ["country", "political"]}, {"long_name": "650541", "short_name": "650541", "types": ["postal_code"]}], "formatted_address": "541 Bukit Batok Street 52, Block 541, Singapore 650541", "geometry": {"bounds": {"northeast": {"lat": 1.3544074, "lng": 103.7517082}, "southwest": {"lat": 1.3537255, "lng": 103.7515558}}, "location": {"lat": 1.354002, "lng": 103.7516128}, "location_type": "ROOFTOP", "viewport": {"northeast": {"lat": 1.355415430291502, "lng": 103.7529809802915}, "southwest": {"lat": 1.352717469708498, "lng": 103.7502830197085}}}, "place_id": "ChIJp_A6DTgQ2jER7Cnfp9JU80U", "types": ["premise"]}