{"address_components": [{"long_name": "Block 470", "short_name": "Block 470", "types": ["premise"]}, {"long_name": "470", "short_name": "470", "types": ["street_number"]}, {"long_name": "Ang Mo Kio Avenue 10", "short_name": "Ang Mo Kio Ave 10", "types": ["route"]}, {"long_name": "Ang Mo Kio", "short_name": "Ang Mo Kio", "types": ["neighborhood", "political"]}, {"long_name": "Singapore", "short_name": "Singapore", "types": ["locality", "political"]}, {"long_name": "Singapore", "short_name": "SG", "types": ["country", "political"]}, {"long_name": "560470", "short_name": "560470", "types": ["postal_code"]}], "formatted_address": "470 Ang Mo Kio Ave 10, Block 470, Singapore 560470", "geometry": {"bounds": {"northeast": {"lat": 1.364301, "lng": 103.8572753}, "southwest": {"lat": 1.3640813, "lng": 103.8561241}}, "location": {"lat": 1.3641395, "lng": 103.8568162}, "location_type": "ROOFTOP", "viewport": {"northeast": {"lat": 1.365540130291502, "lng": 103.8580486802915}, "southwest": {"lat": 1.362842169708498, "lng": 103.8553507197085}}}, "place_id": "ChIJZR31VP0W2jERJeCPsHpZkms", "types": ["premise"]}