{"address_components": [{"long_name": "Block 20", "short_name": "Block 20", "types": ["premise"]}, {"long_name": "20", "short_name": "20", "types": ["street_number"]}, {"long_name": "Jalan Membina", "short_name": "Jln Membina", "types": ["route"]}, {"long_name": "Bukit Merah", "short_name": "Bukit Merah", "types": ["neighborhood", "political"]}, {"long_name": "Singapore", "short_name": "Singapore", "types": ["locality", "political"]}, {"long_name": "Singapore", "short_name": "SG", "types": ["country", "political"]}, {"long_name": "164020", "short_name": "164020", "types": ["postal_code"]}], "formatted_address": "20 Jln Membina, Block 20, Singapore 164020", "geometry": {"bounds": {"northeast": {"lat": 1.2858044, "lng": 103.8259707}, "southwest": {"lat": 1.2856153, "lng": 103.8255907}}, "location": {"lat": 1.2857166, "lng": 103.8257516}, "location_type": "ROOFTOP", "viewport": {"northeast": {"lat": 1.287058830291502, "lng": 103.8271296802915}, "southwest": {"lat": 1.284360869708498, "lng": 103.8244317197085}}}, "place_id": "ChIJKcdT634Z2jERYVBBKSbjgN4", "types": ["premise"]}