{"address_components": [{"long_name": "Block 37", "short_name": "Block 37", "types": ["premise"]}, {"long_name": "37", "short_name": "37", "types": ["street_number"]}, {"long_name": "Cambridge Road", "short_name": "Cambridge Rd", "types": ["route"]}, {"long_name": "Kallang", "short_name": "Kallang", "types": ["neighborhood", "political"]}, {"long_name": "Singapore", "short_name": "Singapore", "types": ["locality", "political"]}, {"long_name": "Singapore", "short_name": "SG", "types": ["country", "political"]}, {"long_name": "210037", "short_name": "210037", "types": ["postal_code"]}], "formatted_address": "37 Cambridge Rd, Block 37, Singapore 210037", "geometry": {"bounds": {"northeast": {"lat": 1.317225, "lng": 103.8495653}, "southwest": {"lat": 1.316833, "lng": 103.8492343}}, "location": {"lat": 1.3169626, "lng": 103.8493879}, "location_type": "ROOFTOP", "viewport": {"northeast": {"lat": 1.318377980291502, "lng": 103.8507487802915}, "southwest": {"lat": 1.315680019708498, "lng": 103.8480508197085}}}, "place_id": "ChIJn8QsSsMZ2jER4jdGNbY-wXU", "types": ["premise"]}