{"address_components": [{"long_name": "Block 267", "short_name": "Block 267", "types": ["premise"]}, {"long_name": "267", "short_name": "267", "types": ["street_number"]}, {"long_name": "Bukit Batok East Avenue 4", "short_name": "Bukit Batok East Ave 4", "types": ["route"]}, {"long_name": "Bukit Batok", "short_name": "Bukit Batok", "types": ["neighborhood", "political"]}, {"long_name": "Singapore", "short_name": "Singapore", "types": ["locality", "political"]}, {"long_name": "Singapore", "short_name": "SG", "types": ["country", "political"]}, {"long_name": "650267", "short_name": "650267", "types": ["postal_code"]}], "formatted_address": "267 Bukit Batok East Ave 4, Block 267, Singapore 650267", "geometry": {"bounds": {"northeast": {"lat": 1.3491196, "lng": 103.7604354}, "southwest": {"lat": 1.3485346, "lng": 103.7597034}}, "location": {"lat": 1.3485931, "lng": 103.760193}, "location_type": "ROOFTOP", "viewport": {"northeast": {"lat": 1.350176080291502, "lng": 103.7614183802915}, "southwest": {"lat": 1.347478119708498, "lng": 103.7587204197085}}}, "place_id": "ChIJBxwwu0MQ2jER1QNuj-JvQOI", "types": ["premise"]}