{"address_components": [{"long_name": "Block 866", "short_name": "Block 866", "types": ["premise"]}, {"long_name": "866", "short_name": "866", "types": ["street_number"]}, {"long_name": "Jurong West Street 81", "short_name": "Jurong West Street 81", "types": ["route"]}, {"long_name": "Jurong West", "short_name": "Jurong West", "types": ["neighborhood", "political"]}, {"long_name": "Singapore", "short_name": "Singapore", "types": ["locality", "political"]}, {"long_name": "Singapore", "short_name": "SG", "types": ["country", "political"]}, {"long_name": "640866", "short_name": "640866", "types": ["postal_code"]}], "formatted_address": "866 Jurong West Street 81, Block 866, Singapore 640866", "geometry": {"bounds": {"northeast": {"lat": 1.3507369, "lng": 103.6957102}, "southwest": {"lat": 1.3497101, "lng": 103.6951304}}, "location": {"lat": 1.3499919, "lng": 103.6953015}, "location_type": "ROOFTOP", "viewport": {"northeast": {"lat": 1.351572480291502, "lng": 103.6967692802915}, "southwest": {"lat": 1.348874519708498, "lng": 103.6940713197085}}}, "place_id": "ChIJdQ0gorwP2jER_wwA1f6AolE", "types": ["premise"]}