{"address_components": [{"long_name": "446", "short_name": "446", "types": ["street_number"]}, {"long_name": "Pasir Ris Drive 6", "short_name": "Pasir Ris Drive 6", "types": ["route"]}, {"long_name": "Pasir Ris", "short_name": "Pasir Ris", "types": ["neighborhood", "political"]}, {"long_name": "Singapore", "short_name": "Singapore", "types": ["locality", "political"]}, {"long_name": "Singapore", "short_name": "SG", "types": ["country", "political"]}, {"long_name": "510446", "short_name": "510446", "types": ["postal_code"]}], "formatted_address": "446 Pasir Ris Drive 6, Singapore 510446", "geometry": {"bounds": {"northeast": {"lat": 1.3707138, "lng": 103.9581163}, "southwest": {"lat": 1.370259, "lng": 103.9571844}}, "location": {"lat": 1.3704673, "lng": 103.9572734}, "location_type": "ROOFTOP", "viewport": {"northeast": {"lat": 1.371835380291502, "lng": 103.9589993302915}, "southwest": {"lat": 1.369137419708498, "lng": 103.9563013697085}}}, "place_id": "ChIJeRKmra092jER5KIQVVA4dvw", "types": ["premise"]}