{"address_components": [{"long_name": "Block 296", "short_name": "Block 296", "types": ["premise"]}, {"long_name": "296A", "short_name": "296A", "types": ["street_number"]}, {"long_name": "Choa Chu Kang Avenue 2", "short_name": "Choa Chu Kang Ave 2", "types": ["route"]}, {"long_name": "Choa Chu Kang", "short_name": "Choa Chu Kang", "types": ["neighborhood", "political"]}, {"long_name": "Singapore", "short_name": "Singapore", "types": ["locality", "political"]}, {"long_name": "Singapore", "short_name": "SG", "types": ["country", "political"]}, {"long_name": "681296", "short_name": "681296", "types": ["postal_code"]}], "formatted_address": "296A Choa Chu Kang Ave 2, Block 296, Singapore 681296", "geometry": {"bounds": {"northeast": {"lat": 1.3776543, "lng": 103.7412324}, "southwest": {"lat": 1.376929, "lng": 103.7405104}}, "location": {"lat": 1.3774069, "lng": 103.7407508}, "location_type": "ROOFTOP", "viewport": {"northeast": {"lat": 1.378640630291502, "lng": 103.7422203802915}, "southwest": {"lat": 1.375942669708498, "lng": 103.7395224197085}}}, "place_id": "ChIJ_fTJy8QR2jERxV8S7eeQK00", "types": ["premise"]}