{"address_components": [{"long_name": "Block 170", "short_name": "Block 170", "types": ["premise"]}, {"long_name": "170", "short_name": "170", "types": ["street_number"]}, {"long_name": "Bedok South Road", "short_name": "Bedok S Rd", "types": ["route"]}, {"long_name": "Bedok", "short_name": "Bedok", "types": ["neighborhood", "political"]}, {"long_name": "Singapore", "short_name": "Singapore", "types": ["locality", "political"]}, {"long_name": "Singapore", "short_name": "SG", "types": ["country", "political"]}, {"long_name": "460170", "short_name": "460170", "types": ["postal_code"]}], "formatted_address": "170 Bedok S Rd, Block 170, Singapore 460170", "geometry": {"bounds": {"northeast": {"lat": 1.320825, "lng": 103.9465179}, "southwest": {"lat": 1.3204728, "lng": 103.9457461}}, "location": {"lat": 1.3206577, "lng": 103.9461681}, "location_type": "ROOFTOP", "viewport": {"northeast": {"lat": 1.321997880291502, "lng": 103.9474809802915}, "southwest": {"lat": 1.319299919708498, "lng": 103.9447830197085}}}, "place_id": "ChIJHUvWh84i2jERzTxbaMqvpiE", "types": ["premise"]}