{"address_components": [{"long_name": "Block 234", "short_name": "Block 234", "types": ["premise"]}, {"long_name": "234", "short_name": "234", "types": ["street_number"]}, {"long_name": "Bishan Street 22", "short_name": "Bishan Street 22", "types": ["route"]}, {"long_name": "Bishan", "short_name": "Bishan", "types": ["neighborhood", "political"]}, {"long_name": "Singapore", "short_name": "Singapore", "types": ["locality", "political"]}, {"long_name": "Singapore", "short_name": "SG", "types": ["country", "political"]}, {"long_name": "570234", "short_name": "570234", "types": ["postal_code"]}], "formatted_address": "234 Bishan Street 22, Block 234, Singapore 570234", "geometry": {"bounds": {"northeast": {"lat": 1.3586142, "lng": 103.8463127}, "southwest": {"lat": 1.3582445, "lng": 103.8459127}}, "location": {"lat": 1.3584894, "lng": 103.8460363}, "location_type": "ROOFTOP", "viewport": {"northeast": {"lat": 1.359778330291502, "lng": 103.8474616802915}, "southwest": {"lat": 1.357080369708498, "lng": 103.8447637197085}}}, "place_id": "ChIJpx1NuRgX2jERVxvCIHGkYPY", "types": ["premise"]}