{"address_components": [{"long_name": "Block 787", "short_name": "Block 787", "types": ["premise"]}, {"long_name": "787", "short_name": "787", "types": ["street_number"]}, {"long_name": "Choa Chu Kang North 6", "short_name": "Choa Chu Kang North 6", "types": ["route"]}, {"long_name": "Choa Chu Kang", "short_name": "Choa Chu Kang", "types": ["neighborhood", "political"]}, {"long_name": "Singapore", "short_name": "Singapore", "types": ["locality", "political"]}, {"long_name": "Singapore", "short_name": "SG", "types": ["country", "political"]}, {"long_name": "682787", "short_name": "682787", "types": ["postal_code"]}], "formatted_address": "787 Choa Chu Kang North 6, Block 787, Singapore 682787", "geometry": {"bounds": {"northeast": {"lat": 1.3959796, "lng": 103.7480192}, "southwest": {"lat": 1.3956097, "lng": 103.7473663}}, "location": {"lat": 1.3958071, "lng": 103.74763}, "location_type": "ROOFTOP", "viewport": {"northeast": {"lat": 1.397143630291502, "lng": 103.7490417302915}, "southwest": {"lat": 1.394445669708498, "lng": 103.7463437697085}}}, "partial_match": true, "place_id": "ChIJDRQKx_MR2jERC1I1fq1P_IU", "types": ["premise"]}