{"address_components": [{"long_name": "Block 226", "short_name": "Block 226", "types": ["premise"]}, {"long_name": "226", "short_name": "226", "types": ["street_number"]}, {"long_name": "Serangoon Avenue 4", "short_name": "Serangoon Ave 4", "types": ["route"]}, {"long_name": "Serangoon", "short_name": "Serangoon", "types": ["neighborhood", "political"]}, {"long_name": "Singapore", "short_name": "Singapore", "types": ["locality", "political"]}, {"long_name": "Singapore", "short_name": "SG", "types": ["country", "political"]}, {"long_name": "550226", "short_name": "550226", "types": ["postal_code"]}], "formatted_address": "226 Serangoon Ave 4, Block 226, Singapore 550226", "geometry": {"bounds": {"northeast": {"lat": 1.3569349, "lng": 103.8712211}, "southwest": {"lat": 1.356762, "lng": 103.8703811}}, "location": {"lat": 1.3568796, "lng": 103.8708586}, "location_type": "ROOFTOP", "viewport": {"northeast": {"lat": 1.358197430291502, "lng": 103.8721500802915}, "southwest": {"lat": 1.355499469708498, "lng": 103.8694521197085}}}, "place_id": "ChIJ4x7LqqkX2jERy8laOal5XdQ", "types": ["premise"]}