{"address_components": [{"long_name": "Block 319", "short_name": "Block 319", "types": ["premise"]}, {"long_name": "319", "short_name": "319", "types": ["street_number"]}, {"long_name": "Woodlands Street 31", "short_name": "Woodlands Street 31", "types": ["route"]}, {"long_name": "Woodlands", "short_name": "Woodlands", "types": ["neighborhood", "political"]}, {"long_name": "Singapore", "short_name": "Singapore", "types": ["locality", "political"]}, {"long_name": "Singapore", "short_name": "SG", "types": ["country", "political"]}, {"long_name": "730319", "short_name": "730319", "types": ["postal_code"]}], "formatted_address": "319 Woodlands Street 31, Block 319, Singapore 730319", "geometry": {"bounds": {"northeast": {"lat": 1.431594, "lng": 103.77772}, "southwest": {"lat": 1.431462, "lng": 103.776954}}, "location": {"lat": 1.4315039, "lng": 103.7773231}, "location_type": "ROOFTOP", "viewport": {"northeast": {"lat": 1.432876980291502, "lng": 103.7786859802915}, "southwest": {"lat": 1.430179019708498, "lng": 103.7759880197085}}}, "place_id": "ChIJoaQ_Eq0T2jERf7lkt4GRVy0", "types": ["premise"]}