{"address_components": [{"long_name": "Block 105", "short_name": "Block 105", "types": ["premise"]}, {"long_name": "105", "short_name": "105", "types": ["street_number"]}, {"long_name": "Pasir Ris Street 12", "short_name": "Pasir Ris Street 12", "types": ["route"]}, {"long_name": "Pasir Ris", "short_name": "Pasir Ris", "types": ["neighborhood", "political"]}, {"long_name": "Singapore", "short_name": "Singapore", "types": ["locality", "political"]}, {"long_name": "Singapore", "short_name": "SG", "types": ["country", "political"]}, {"long_name": "510105", "short_name": "510105", "types": ["postal_code"]}], "formatted_address": "105 Pasir Ris Street 12, Block 105, Singapore 510105", "geometry": {"bounds": {"northeast": {"lat": 1.3686151, "lng": 103.958082}, "southwest": {"lat": 1.368079, "lng": 103.9570309}}, "location": {"lat": 1.368527, "lng": 103.9572281}, "location_type": "ROOFTOP", "viewport": {"northeast": {"lat": 1.369696030291502, "lng": 103.9589054302915}, "southwest": {"lat": 1.366998069708498, "lng": 103.9562074697085}}}, "place_id": "ChIJxUoAfKw92jERY7JabP8NsSY", "types": ["premise"]}