{"address_components": [{"long_name": "Block 835", "short_name": "Block 835", "types": ["premise"]}, {"long_name": "835", "short_name": "835", "types": ["street_number"]}, {"long_name": "Hougang Central", "short_name": "Hougang Central", "types": ["route"]}, {"long_name": "Hougang", "short_name": "Hougang", "types": ["neighborhood", "political"]}, {"long_name": "Singapore", "short_name": "Singapore", "types": ["locality", "political"]}, {"long_name": "Singapore", "short_name": "SG", "types": ["country", "political"]}, {"long_name": "530835", "short_name": "530835", "types": ["postal_code"]}], "formatted_address": "835 Hougang Central, Block 835, Singapore 530835", "geometry": {"bounds": {"northeast": {"lat": 1.3704035, "lng": 103.8901691}, "southwest": {"lat": 1.3701455, "lng": 103.889547}}, "location": {"lat": 1.3703185, "lng": 103.8897048}, "location_type": "ROOFTOP", "viewport": {"northeast": {"lat": 1.371623480291502, "lng": 103.8912070302915}, "southwest": {"lat": 1.368925519708498, "lng": 103.8885090697085}}}, "place_id": "ChIJQROtyUkW2jERgq72gquB0UI", "types": ["premise"]}