{"address_components": [{"long_name": "Block 227", "short_name": "Block 227", "types": ["premise"]}, {"long_name": "227", "short_name": "227", "types": ["street_number"]}, {"long_name": "Pasir Ris Street 21", "short_name": "Pasir Ris Street 21", "types": ["route"]}, {"long_name": "Pasir Ris", "short_name": "Pasir Ris", "types": ["neighborhood", "political"]}, {"long_name": "Singapore", "short_name": "Singapore", "types": ["locality", "political"]}, {"long_name": "Singapore", "short_name": "SG", "types": ["country", "political"]}, {"long_name": "510227", "short_name": "510227", "types": ["postal_code"]}], "formatted_address": "227 Pasir Ris Street 21, Block 227, Singapore 510227", "geometry": {"bounds": {"northeast": {"lat": 1.3717792, "lng": 103.9619805}, "southwest": {"lat": 1.3715217, "lng": 103.9611726}}, "location": {"lat": 1.3717232, "lng": 103.9615797}, "location_type": "ROOFTOP", "viewport": {"northeast": {"lat": 1.372999430291502, "lng": 103.9629255302915}, "southwest": {"lat": 1.370301469708498, "lng": 103.9602275697085}}}, "place_id": "ChIJKwQXuFI82jER0mtmNYr9gNE", "types": ["premise"]}