{"address_components": [{"long_name": "Block 723", "short_name": "Block 723", "types": ["premise"]}, {"long_name": "723", "short_name": "723", "types": ["street_number"]}, {"long_name": "Jurong West Avenue 5", "short_name": "Jurong West Ave 5", "types": ["route"]}, {"long_name": "Jurong West", "short_name": "Jurong West", "types": ["neighborhood", "political"]}, {"long_name": "Singapore", "short_name": "Singapore", "types": ["locality", "political"]}, {"long_name": "Singapore", "short_name": "SG", "types": ["country", "political"]}, {"long_name": "640723", "short_name": "640723", "types": ["postal_code"]}], "formatted_address": "723 Jurong West Ave 5, Block 723, Singapore 640723", "geometry": {"bounds": {"northeast": {"lat": 1.344747, "lng": 103.6985621}, "southwest": {"lat": 1.343991, "lng": 103.6977942}}, "location": {"lat": 1.3443335, "lng": 103.6982863}, "location_type": "ROOFTOP", "viewport": {"northeast": {"lat": 1.345717980291502, "lng": 103.6995271302915}, "southwest": {"lat": 1.343020019708498, "lng": 103.6968291697085}}}, "place_id": "ChIJq7esXJYP2jERAqwbv5yVKgc", "types": ["premise"]}