{"address_components": [{"long_name": "Block 678B", "short_name": "Block 678B", "types": ["premise"]}, {"long_name": "678B", "short_name": "678B", "types": ["street_number"]}, {"long_name": "Jurong West Street 64", "short_name": "Jurong West Street 64", "types": ["route"]}, {"long_name": "Jurong West", "short_name": "Jurong West", "types": ["neighborhood", "political"]}, {"long_name": "Singapore", "short_name": "Singapore", "types": ["locality", "political"]}, {"long_name": "Singapore", "short_name": "SG", "types": ["country", "political"]}, {"long_name": "642678", "short_name": "642678", "types": ["postal_code"]}], "formatted_address": "678B Jurong West Street 64, Block 678B, Singapore 642678", "geometry": {"bounds": {"northeast": {"lat": 1.345275, "lng": 103.7040224}, "southwest": {"lat": 1.3449969, "lng": 103.7037422}}, "location": {"lat": 1.3451073, "lng": 103.7038965}, "location_type": "ROOFTOP", "viewport": {"northeast": {"lat": 1.346484930291502, "lng": 103.7052312802915}, "southwest": {"lat": 1.343786969708498, "lng": 103.7025333197085}}}, "place_id": "ChIJrfBsbJUP2jERqY5gSJhKVpg", "types": ["premise"]}