{"address_components": [{"long_name": "Block 609", "short_name": "Block 609", "types": ["premise"]}, {"long_name": "609", "short_name": "609", "types": ["street_number"]}, {"long_name": "Choa Chu Kang Street 62", "short_name": "Choa Chu Kang Street 62", "types": ["route"]}, {"long_name": "Choa Chu Kang", "short_name": "Choa Chu Kang", "types": ["neighborhood", "political"]}, {"long_name": "Singapore", "short_name": "Singapore", "types": ["locality", "political"]}, {"long_name": "Singapore", "short_name": "SG", "types": ["country", "political"]}, {"long_name": "680609", "short_name": "680609", "types": ["postal_code"]}], "formatted_address": "609 Choa Chu Kang Street 62, Block 609, Singapore 680609", "geometry": {"bounds": {"northeast": {"lat": 1.3994036, "lng": 103.7451147}, "southwest": {"lat": 1.3989336, "lng": 103.7443166}}, "location": {"lat": 1.3993272, "lng": 103.7446203}, "location_type": "ROOFTOP", "viewport": {"northeast": {"lat": 1.400517580291502, "lng": 103.7460646302915}, "southwest": {"lat": 1.397819619708498, "lng": 103.7433666697085}}}, "place_id": "ChIJD4B27fYR2jERbf8wLiJY3js", "types": ["premise"]}