{"address_components": [{"long_name": "Block 208", "short_name": "Block 208", "types": ["premise"]}, {"long_name": "208", "short_name": "208", "types": ["street_number"]}, {"long_name": "Bukit Batok Street 21", "short_name": "Bukit Batok Street 21", "types": ["route"]}, {"long_name": "Bukit Batok", "short_name": "Bukit Batok", "types": ["neighborhood", "political"]}, {"long_name": "Singapore", "short_name": "Singapore", "types": ["locality", "political"]}, {"long_name": "Singapore", "short_name": "SG", "types": ["country", "political"]}, {"long_name": "650208", "short_name": "650208", "types": ["postal_code"]}], "formatted_address": "208 Bukit Batok Street 21, Block 208, Singapore 650208", "geometry": {"bounds": {"northeast": {"lat": 1.345979, "lng": 103.7491987}, "southwest": {"lat": 1.3458441, "lng": 103.748436}}, "location": {"lat": 1.3458934, "lng": 103.7488545}, "location_type": "ROOFTOP", "viewport": {"northeast": {"lat": 1.347260530291502, "lng": 103.7501663302915}, "southwest": {"lat": 1.344562569708498, "lng": 103.7474683697085}}}, "place_id": "ChIJUYnuKT4Q2jEROXupQa73B2k", "types": ["premise"]}