{"address_components": [{"long_name": "309", "short_name": "309", "types": ["street_number"]}, {"long_name": "Bukit Batok Street 31", "short_name": "Bukit Batok Street 31", "types": ["route"]}, {"long_name": "Bukit Batok", "short_name": "Bukit Batok", "types": ["neighborhood", "political"]}, {"long_name": "Singapore", "short_name": "Singapore", "types": ["locality", "political"]}, {"long_name": "Singapore", "short_name": "SG", "types": ["country", "political"]}, {"long_name": "650309", "short_name": "650309", "types": ["postal_code"]}], "formatted_address": "309 Bukit Batok Street 31, Singapore 650309", "geometry": {"bounds": {"northeast": {"lat": 1.3586616, "lng": 103.7488478}, "southwest": {"lat": 1.3579322, "lng": 103.7486859}}, "location": {"lat": 1.358268, "lng": 103.7487614}, "location_type": "ROOFTOP", "viewport": {"northeast": {"lat": 1.359645880291502, "lng": 103.7501158302915}, "southwest": {"lat": 1.356947919708498, "lng": 103.7474178697085}}}, "place_id": "ChIJl8nc8DYQ2jERQ53KrpHCVP4", "types": ["premise"]}