{"address_components": [{"long_name": "Block 141", "short_name": "Block 141", "types": ["premise"]}, {"long_name": "141", "short_name": "141", "types": ["street_number"]}, {"long_name": "Lorong 2 Toa Payoh", "short_name": "Lor 2 Toa Payoh", "types": ["route"]}, {"long_name": "Toa Payoh", "short_name": "Toa Payoh", "types": ["neighborhood", "political"]}, {"long_name": "Singapore", "short_name": "Singapore", "types": ["locality", "political"]}, {"long_name": "Singapore", "short_name": "SG", "types": ["country", "political"]}, {"long_name": "311141", "short_name": "311141", "types": ["postal_code"]}], "formatted_address": "141 Lor 2 Toa Payoh, Block 141, Singapore 311141", "geometry": {"bounds": {"northeast": {"lat": 1.3359037, "lng": 103.8460624}, "southwest": {"lat": 1.3355913, "lng": 103.8454593}}, "location": {"lat": 1.3356868, "lng": 103.8458059}, "location_type": "ROOFTOP", "viewport": {"northeast": {"lat": 1.337096480291502, "lng": 103.8471098302915}, "southwest": {"lat": 1.334398519708498, "lng": 103.8444118697085}}}, "place_id": "ChIJhYys42cX2jERM674YLCSGho", "types": ["premise"]}