{"address_components": [{"long_name": "Block 172", "short_name": "Block 172", "types": ["premise"]}, {"long_name": "172", "short_name": "172", "types": ["street_number"]}, {"long_name": "Gangsa Road", "short_name": "Gangsa Rd", "types": ["route"]}, {"long_name": "Bukit Panjang", "short_name": "Bukit Panjang", "types": ["neighborhood", "political"]}, {"long_name": "Singapore", "short_name": "Singapore", "types": ["locality", "political"]}, {"long_name": "Singapore", "short_name": "SG", "types": ["country", "political"]}, {"long_name": "670172", "short_name": "670172", "types": ["postal_code"]}], "formatted_address": "172 Gangsa Rd, Block 172, Singapore 670172", "geometry": {"bounds": {"northeast": {"lat": 1.3796474, "lng": 103.7669257}, "southwest": {"lat": 1.3792298, "lng": 103.7665151}}, "location": {"lat": 1.3794532, "lng": 103.7667306}, "location_type": "ROOFTOP", "viewport": {"northeast": {"lat": 1.380787580291502, "lng": 103.7680693802915}, "southwest": {"lat": 1.378089619708498, "lng": 103.7653714197085}}}, "place_id": "ChIJRRD-naMR2jERGGWXT7lU1VU", "types": ["premise"]}