{"address_components": [{"long_name": "Block 331", "short_name": "Block 331", "types": ["premise"]}, {"long_name": "331", "short_name": "331", "types": ["street_number"]}, {"long_name": "Bukit Batok Street 33", "short_name": "Bukit Batok Street 33", "types": ["route"]}, {"long_name": "Bukit Batok", "short_name": "Bukit Batok", "types": ["neighborhood", "political"]}, {"long_name": "Singapore", "short_name": "Singapore", "types": ["locality", "political"]}, {"long_name": "Singapore", "short_name": "SG", "types": ["country", "political"]}, {"long_name": "650331", "short_name": "650331", "types": ["postal_code"]}], "formatted_address": "331 Bukit Batok Street 33, Block 331, Singapore 650331", "geometry": {"bounds": {"northeast": {"lat": 1.364027, "lng": 103.747973}, "southwest": {"lat": 1.363535, "lng": 103.747307}}, "location": {"lat": 1.3636062, "lng": 103.7475168}, "location_type": "ROOFTOP", "viewport": {"northeast": {"lat": 1.365129980291502, "lng": 103.7489889802915}, "southwest": {"lat": 1.362432019708498, "lng": 103.7462910197085}}}, "place_id": "ChIJJazBuDQQ2jERvsUD6vpJ6bk", "types": ["premise"]}