{"address_components": [{"long_name": "Block 139", "short_name": "Block 139", "types": ["premise"]}, {"long_name": "139", "short_name": "139", "types": ["street_number"]}, {"long_name": "Lorong Ah Soo", "short_name": "Lor Ah Soo", "types": ["route"]}, {"long_name": "Hougang", "short_name": "Hougang", "types": ["neighborhood", "political"]}, {"long_name": "Singapore", "short_name": "Singapore", "types": ["locality", "political"]}, {"long_name": "Singapore", "short_name": "SG", "types": ["country", "political"]}, {"long_name": "530139", "short_name": "530139", "types": ["postal_code"]}], "formatted_address": "139 Lor Ah Soo, Block 139, Singapore 530139", "geometry": {"bounds": {"northeast": {"lat": 1.3523461, "lng": 103.8845181}, "southwest": {"lat": 1.351966, "lng": 103.8839001}}, "location": {"lat": 1.3522613, "lng": 103.8842681}, "location_type": "ROOFTOP", "viewport": {"northeast": {"lat": 1.353505030291502, "lng": 103.8855580802915}, "southwest": {"lat": 1.350807069708498, "lng": 103.8828601197085}}}, "place_id": "ChIJv2fqNLoX2jER-Zkxeb5j2h4", "types": ["premise"]}