{"address_components": [{"long_name": "Block 14", "short_name": "Block 14", "types": ["premise"]}, {"long_name": "14", "short_name": "14", "types": ["street_number"]}, {"long_name": "Lorong 7 Toa Payoh", "short_name": "Lor 7 Toa Payoh", "types": ["route"]}, {"long_name": "Toa Payoh", "short_name": "Toa Payoh", "types": ["neighborhood", "political"]}, {"long_name": "Singapore", "short_name": "Singapore", "types": ["locality", "political"]}, {"long_name": "Singapore", "short_name": "SG", "types": ["country", "political"]}, {"long_name": "310014", "short_name": "310014", "types": ["postal_code"]}], "formatted_address": "14 Lor 7 Toa Payoh, Block 14, Singapore 310014", "geometry": {"bounds": {"northeast": {"lat": 1.3368298, "lng": 103.8584027}, "southwest": {"lat": 1.3365527, "lng": 103.8581577}}, "location": {"lat": 1.3366745, "lng": 103.8582693}, "location_type": "ROOFTOP", "viewport": {"northeast": {"lat": 1.338040230291502, "lng": 103.8596291802915}, "southwest": {"lat": 1.335342269708498, "lng": 103.8569312197085}}}, "place_id": "ChIJR4KxbnAX2jERJ2ZbIlXQMRU", "types": ["premise"]}