{"address_components": [{"long_name": "Block 39", "short_name": "Block 39", "types": ["premise"]}, {"long_name": "39", "short_name": "39", "types": ["street_number"]}, {"long_name": "Cambridge Road", "short_name": "Cambridge Rd", "types": ["route"]}, {"long_name": "Kallang", "short_name": "Kallang", "types": ["neighborhood", "political"]}, {"long_name": "Singapore", "short_name": "Singapore", "types": ["locality", "political"]}, {"long_name": "Singapore", "short_name": "SG", "types": ["country", "political"]}, {"long_name": "210039", "short_name": "210039", "types": ["postal_code"]}], "formatted_address": "39 Cambridge Rd, Block 39, Singapore 210039", "geometry": {"bounds": {"northeast": {"lat": 1.3166908, "lng": 103.8486757}, "southwest": {"lat": 1.3162188, "lng": 103.8483857}}, "location": {"lat": 1.3163824, "lng": 103.8484821}, "location_type": "ROOFTOP", "viewport": {"northeast": {"lat": 1.317803780291502, "lng": 103.8498796802915}, "southwest": {"lat": 1.315105819708498, "lng": 103.8471817197085}}}, "place_id": "ChIJX_bLJMMZ2jERfWKICIIfGWE", "types": ["premise"]}