{"address_components": [{"long_name": "226A", "short_name": "226A", "types": ["street_number"]}, {"long_name": "Compassvale Walk", "short_name": "Compassvale Walk", "types": ["route"]}, {"long_name": "Sengkang", "short_name": "Sengkang", "types": ["neighborhood", "political"]}, {"long_name": "Singapore", "short_name": "Singapore", "types": ["locality", "political"]}, {"long_name": "Singapore", "short_name": "SG", "types": ["country", "political"]}, {"long_name": "541226", "short_name": "541226", "types": ["postal_code"]}], "formatted_address": "226A Compassvale Walk, Singapore 541226", "geometry": {"bounds": {"northeast": {"lat": 1.3881679, "lng": 103.8999199}, "southwest": {"lat": 1.3872809, "lng": 103.8984718}}, "location": {"lat": 1.387662, "lng": 103.8992648}, "location_type": "ROOFTOP", "viewport": {"northeast": {"lat": 1.389073380291502, "lng": 103.9005448302915}, "southwest": {"lat": 1.386375419708498, "lng": 103.8978468697085}}}, "place_id": "ChIJbdL-LxEW2jERi4_foPe1z3Y", "types": ["premise"]}