{"address_components": [{"long_name": "421", "short_name": "421", "types": ["street_number"]}, {"long_name": "Clementi Avenue 1", "short_name": "Clementi Ave 1", "types": ["route"]}, {"long_name": "Clementi", "short_name": "Clementi", "types": ["neighborhood", "political"]}, {"long_name": "Singapore", "short_name": "Singapore", "types": ["locality", "political"]}, {"long_name": "Singapore", "short_name": "SG", "types": ["country", "political"]}, {"long_name": "120421", "short_name": "120421", "types": ["postal_code"]}], "formatted_address": "421 Clementi Ave 1, Singapore 120421", "geometry": {"bounds": {"northeast": {"lat": 1.3093169, "lng": 103.768777}, "southwest": {"lat": 1.3090148, "lng": 103.7682321}}, "location": {"lat": 1.3091484, "lng": 103.7686997}, "location_type": "ROOFTOP", "viewport": {"northeast": {"lat": 1.310514830291502, "lng": 103.7698535302915}, "southwest": {"lat": 1.307816869708498, "lng": 103.7671555697085}}}, "place_id": "ChIJPYBUuYwa2jERToj4MUINu7k", "types": ["premise"]}