{"address_components": [{"long_name": "Block 850", "short_name": "Block 850", "types": ["premise"]}, {"long_name": "850", "short_name": "850", "types": ["street_number"]}, {"long_name": "Woodlands Street 82", "short_name": "Woodlands Street 82", "types": ["route"]}, {"long_name": "Woodlands", "short_name": "Woodlands", "types": ["neighborhood", "political"]}, {"long_name": "Singapore", "short_name": "Singapore", "types": ["locality", "political"]}, {"long_name": "Singapore", "short_name": "SG", "types": ["country", "political"]}, {"long_name": "730850", "short_name": "730850", "types": ["postal_code"]}], "formatted_address": "850 Woodlands Street 82, Block 850, Singapore 730850", "geometry": {"bounds": {"northeast": {"lat": 1.441052, "lng": 103.7924381}, "southwest": {"lat": 1.440869, "lng": 103.7916971}}, "location": {"lat": 1.440937, "lng": 103.792059}, "location_type": "ROOFTOP", "viewport": {"northeast": {"lat": 1.442309480291502, "lng": 103.7934165802915}, "southwest": {"lat": 1.439611519708498, "lng": 103.7907186197085}}}, "place_id": "ChIJ01xmjgkT2jER7fYxPhzGQNU", "types": ["premise"]}