{"address_components": [{"long_name": "Block 651B", "short_name": "Block 651B", "types": ["premise"]}, {"long_name": "651B", "short_name": "651B", "types": ["street_number"]}, {"long_name": "Jurong West Street 61", "short_name": "Jurong West Street 61", "types": ["route"]}, {"long_name": "Jurong West", "short_name": "Jurong West", "types": ["neighborhood", "political"]}, {"long_name": "Singapore", "short_name": "Singapore", "types": ["locality", "political"]}, {"long_name": "Singapore", "short_name": "SG", "types": ["country", "political"]}, {"long_name": "642651", "short_name": "642651", "types": ["postal_code"]}], "formatted_address": "651B Jurong West Street 61, Block 651B, Singapore 642651", "geometry": {"bounds": {"northeast": {"lat": 1.3371969, "lng": 103.6986303}, "southwest": {"lat": 1.3370079, "lng": 103.6981494}}, "location": {"lat": 1.3371168, "lng": 103.6984202}, "location_type": "ROOFTOP", "viewport": {"northeast": {"lat": 1.338451380291502, "lng": 103.6997388302915}, "southwest": {"lat": 1.335753419708498, "lng": 103.6970408697085}}}, "place_id": "ChIJy5PG3ZEP2jERxySknB8YVQY", "types": ["premise"]}