{"address_components": [{"long_name": "306A", "short_name": "306A", "types": ["street_number"]}, {"long_name": "Anchorvale Link", "short_name": "Anchorvale Link", "types": ["route"]}, {"long_name": "Sengkang", "short_name": "Sengkang", "types": ["neighborhood", "political"]}, {"long_name": "Singapore", "short_name": "Singapore", "types": ["locality", "political"]}, {"long_name": "Singapore", "short_name": "SG", "types": ["country", "political"]}, {"long_name": "541306", "short_name": "541306", "types": ["postal_code"]}], "formatted_address": "306A Anchorvale Link, Singapore 541306", "geometry": {"bounds": {"northeast": {"lat": 1.3907247, "lng": 103.8891403}, "southwest": {"lat": 1.3898555, "lng": 103.8879446}}, "location": {"lat": 1.390388, "lng": 103.8886113}, "location_type": "ROOFTOP", "viewport": {"northeast": {"lat": 1.391639080291502, "lng": 103.8898914302915}, "southwest": {"lat": 1.388941119708498, "lng": 103.8871934697085}}}, "place_id": "ChIJ2-tzD20W2jERH3idMSb7o3c", "types": ["premise"]}