{"address_components": [{"long_name": "Block 276", "short_name": "Block 276", "types": ["premise"]}, {"long_name": "276", "short_name": "276", "types": ["street_number"]}, {"long_name": "Toh Guan Road", "short_name": "Toh Guan Rd", "types": ["route"]}, {"long_name": "Jurong East", "short_name": "Jurong East", "types": ["neighborhood", "political"]}, {"long_name": "Singapore", "short_name": "Singapore", "types": ["locality", "political"]}, {"long_name": "Singapore", "short_name": "SG", "types": ["country", "political"]}, {"long_name": "600276", "short_name": "600276", "types": ["postal_code"]}], "formatted_address": "276 Toh Guan Rd, Block 276, Singapore 600276", "geometry": {"bounds": {"northeast": {"lat": 1.3411731, "lng": 103.7476071}, "southwest": {"lat": 1.34069, "lng": 103.7473079}}, "location": {"lat": 1.341042, "lng": 103.7474263}, "location_type": "ROOFTOP", "viewport": {"northeast": {"lat": 1.342280530291502, "lng": 103.7488064802915}, "southwest": {"lat": 1.339582569708498, "lng": 103.7461085197085}}}, "place_id": "ChIJ0YcV9BMQ2jERgm7-lpUG7sk", "types": ["premise"]}