{"address_components": [{"long_name": "Block 765", "short_name": "Block 765", "types": ["premise"]}, {"long_name": "765", "short_name": "765", "types": ["street_number"]}, {"long_name": "Bedok Reservoir View", "short_name": "Bedok Reservoir View", "types": ["route"]}, {"long_name": "Bedok", "short_name": "Bedok", "types": ["neighborhood", "political"]}, {"long_name": "Singapore", "short_name": "Singapore", "types": ["locality", "political"]}, {"long_name": "Singapore", "short_name": "SG", "types": ["country", "political"]}, {"long_name": "470765", "short_name": "470765", "types": ["postal_code"]}], "formatted_address": "765 Bedok Reservoir View, Block 765, Singapore 470765", "geometry": {"bounds": {"northeast": {"lat": 1.3363011, "lng": 103.936085}, "southwest": {"lat": 1.3359021, "lng": 103.935604}}, "location": {"lat": 1.336151, "lng": 103.9358346}, "location_type": "ROOFTOP", "viewport": {"northeast": {"lat": 1.337450580291502, "lng": 103.9371934802915}, "southwest": {"lat": 1.334752619708498, "lng": 103.9344955197085}}}, "place_id": "ChIJbxT2xEc92jERydeV5riW1Cs", "types": ["premise"]}