{"address_components": [{"long_name": "Block 140", "short_name": "Block 140", "types": ["premise"]}, {"long_name": "140", "short_name": "140", "types": ["street_number"]}, {"long_name": "Marsiling Road", "short_name": "Marsiling Rd", "types": ["route"]}, {"long_name": "Woodlands", "short_name": "Woodlands", "types": ["neighborhood", "political"]}, {"long_name": "Singapore", "short_name": "Singapore", "types": ["locality", "political"]}, {"long_name": "Singapore", "short_name": "SG", "types": ["country", "political"]}, {"long_name": "730140", "short_name": "730140", "types": ["postal_code"]}], "formatted_address": "140 Marsiling Rd, Block 140, Singapore 730140", "geometry": {"bounds": {"northeast": {"lat": 1.437831, "lng": 103.7768309}, "southwest": {"lat": 1.437504, "lng": 103.7766778}}, "location": {"lat": 1.4376546, "lng": 103.7767573}, "location_type": "ROOFTOP", "viewport": {"northeast": {"lat": 1.439016480291502, "lng": 103.7781033302915}, "southwest": {"lat": 1.436318519708498, "lng": 103.7754053697085}}}, "place_id": "ChIJITln3aoT2jERfZGWyIiDnMA", "types": ["premise"]}