{"address_components": [{"long_name": "Block 625", "short_name": "Block 625", "types": ["premise"]}, {"long_name": "625", "short_name": "625", "types": ["street_number"]}, {"long_name": "Hougang Avenue 8", "short_name": "Hougang Ave 8", "types": ["route"]}, {"long_name": "Hougang", "short_name": "Hougang", "types": ["neighborhood", "political"]}, {"long_name": "Singapore", "short_name": "Singapore", "types": ["locality", "political"]}, {"long_name": "Singapore", "short_name": "SG", "types": ["country", "political"]}, {"long_name": "530625", "short_name": "530625", "types": ["postal_code"]}], "formatted_address": "625 Hougang Ave 8, Block 625, Singapore 530625", "geometry": {"bounds": {"northeast": {"lat": 1.3703858, "lng": 103.8818033}, "southwest": {"lat": 1.369843, "lng": 103.8815666}}, "location": {"lat": 1.3702924, "lng": 103.8817311}, "location_type": "ROOFTOP", "viewport": {"northeast": {"lat": 1.371463380291502, "lng": 103.8830339302915}, "southwest": {"lat": 1.368765419708498, "lng": 103.8803359697085}}}, "place_id": "ChIJY0YDRU4W2jERcY7SnFCcykE", "types": ["premise"]}