{"address_components": [{"long_name": "Block 108", "short_name": "Block 108", "types": ["premise"]}, {"long_name": "108", "short_name": "108", "types": ["street_number"]}, {"long_name": "Gangsa Road", "short_name": "Gangsa Rd", "types": ["route"]}, {"long_name": "Bukit Panjang", "short_name": "Bukit Panjang", "types": ["neighborhood", "political"]}, {"long_name": "Singapore", "short_name": "Singapore", "types": ["locality", "political"]}, {"long_name": "Singapore", "short_name": "SG", "types": ["country", "political"]}, {"long_name": "670108", "short_name": "670108", "types": ["postal_code"]}], "formatted_address": "108 Gangsa Rd, Block 108, Singapore 670108", "geometry": {"bounds": {"northeast": {"lat": 1.3778907, "lng": 103.7675713}, "southwest": {"lat": 1.3774066, "lng": 103.7668962}}, "location": {"lat": 1.3776359, "lng": 103.7672512}, "location_type": "ROOFTOP", "viewport": {"northeast": {"lat": 1.378997630291502, "lng": 103.7685827302915}, "southwest": {"lat": 1.376299669708498, "lng": 103.7658847697085}}}, "place_id": "ChIJuYBhZqQR2jERv5uoa1pMmDg", "types": ["premise"]}