{"address_components": [{"long_name": "Block 470", "short_name": "Block 470", "types": ["premise"]}, {"long_name": "470", "short_name": "470", "types": ["street_number"]}, {"long_name": "Sembawang Drive", "short_name": "Sembawang Dr", "types": ["route"]}, {"long_name": "Sembawang", "short_name": "Sembawang", "types": ["neighborhood", "political"]}, {"long_name": "Singapore", "short_name": "Singapore", "types": ["locality", "political"]}, {"long_name": "Singapore", "short_name": "SG", "types": ["country", "political"]}, {"long_name": "750470", "short_name": "750470", "types": ["postal_code"]}], "formatted_address": "470 Sembawang Dr, Block 470, Singapore 750470", "geometry": {"bounds": {"northeast": {"lat": 1.4518399, "lng": 103.815403}, "southwest": {"lat": 1.4514441, "lng": 103.8147321}}, "location": {"lat": 1.4516582, "lng": 103.8152412}, "location_type": "ROOFTOP", "viewport": {"northeast": {"lat": 1.452990980291502, "lng": 103.8164165302915}, "southwest": {"lat": 1.450293019708498, "lng": 103.8137185697085}}}, "place_id": "ChIJoSb6b2QT2jERKA0lHhVqJXQ", "types": ["premise"]}