{"address_components": [{"long_name": "Block 356C", "short_name": "Block 356C", "types": ["premise"]}, {"long_name": "356C", "short_name": "356C", "types": ["street_number"]}, {"long_name": "Admiralty Drive", "short_name": "Admiralty Dr", "types": ["route"]}, {"long_name": "Sembawang", "short_name": "Sembawang", "types": ["neighborhood", "political"]}, {"long_name": "Singapore", "short_name": "Singapore", "types": ["locality", "political"]}, {"long_name": "Singapore", "short_name": "SG", "types": ["country", "political"]}, {"long_name": "753356", "short_name": "753356", "types": ["postal_code"]}], "formatted_address": "356C Admiralty Dr, Block 356C, Singapore 753356", "geometry": {"bounds": {"northeast": {"lat": 1.4496415, "lng": 103.8180897}, "southwest": {"lat": 1.4491575, "lng": 103.8176837}}, "location": {"lat": 1.4492741, "lng": 103.8178902}, "location_type": "ROOFTOP", "viewport": {"northeast": {"lat": 1.450748480291502, "lng": 103.8192356802915}, "southwest": {"lat": 1.448050519708498, "lng": 103.8165377197085}}}, "place_id": "ChIJZfZPOmMT2jERKF8HNUgUNhU", "types": ["premise"]}