{"address_components": [{"long_name": "Block 405", "short_name": "Block 405", "types": ["premise"]}, {"long_name": "405", "short_name": "405", "types": ["street_number"]}, {"long_name": "Admiralty Link", "short_name": "Admiralty Link", "types": ["route"]}, {"long_name": "Sembawang", "short_name": "Sembawang", "types": ["neighborhood", "political"]}, {"long_name": "Singapore", "short_name": "Singapore", "types": ["locality", "political"]}, {"long_name": "Singapore", "short_name": "SG", "types": ["country", "political"]}, {"long_name": "750405", "short_name": "750405", "types": ["postal_code"]}], "formatted_address": "405 Admiralty Link, Block 405, Singapore 750405", "geometry": {"bounds": {"northeast": {"lat": 1.4536898, "lng": 103.8164938}, "southwest": {"lat": 1.4531258, "lng": 103.8157589}}, "location": {"lat": 1.4533235, "lng": 103.8160337}, "location_type": "ROOFTOP", "viewport": {"northeast": {"lat": 1.454756780291502, "lng": 103.8174753302915}, "southwest": {"lat": 1.452058819708498, "lng": 103.8147773697085}}}, "place_id": "ChIJXSOKVWET2jERauCf4WXs7DM", "types": ["premise"]}