{"address_components": [{"long_name": "Block 641", "short_name": "Block 641", "types": ["premise"]}, {"long_name": "641", "short_name": "641", "types": ["street_number"]}, {"long_name": "Yishun Street 61", "short_name": "Yishun Street 61", "types": ["route"]}, {"long_name": "Yishun", "short_name": "Yishun", "types": ["neighborhood", "political"]}, {"long_name": "Singapore", "short_name": "Singapore", "types": ["locality", "political"]}, {"long_name": "Singapore", "short_name": "SG", "types": ["country", "political"]}, {"long_name": "760641", "short_name": "760641", "types": ["postal_code"]}], "formatted_address": "641 Yishun Street 61, Block 641, Singapore 760641", "geometry": {"bounds": {"northeast": {"lat": 1.4209827, "lng": 103.8384243}, "southwest": {"lat": 1.4205937, "lng": 103.8378573}}, "location": {"lat": 1.4207865, "lng": 103.8380878}, "location_type": "ROOFTOP", "viewport": {"northeast": {"lat": 1.422137180291502, "lng": 103.8394897802915}, "southwest": {"lat": 1.419439219708498, "lng": 103.8367918197085}}}, "place_id": "ChIJ6ZHesGwU2jERe2oMd5VdRfc", "types": ["premise"]}