{"address_components": [{"long_name": "Block 274", "short_name": "Block 274", "types": ["premise"]}, {"long_name": "274", "short_name": "274", "types": ["street_number"]}, {"long_name": "Pasir Ris Street 21", "short_name": "Pasir Ris Street 21", "types": ["route"]}, {"long_name": "Pasir Ris", "short_name": "Pasir Ris", "types": ["neighborhood", "political"]}, {"long_name": "Singapore", "short_name": "Singapore", "types": ["locality", "political"]}, {"long_name": "Singapore", "short_name": "SG", "types": ["country", "political"]}, {"long_name": "510274", "short_name": "510274", "types": ["postal_code"]}], "formatted_address": "274 Pasir Ris Street 21, Block 274, Singapore 510274", "geometry": {"bounds": {"northeast": {"lat": 1.364474, "lng": 103.9644475}, "southwest": {"lat": 1.3638561, "lng": 103.9639115}}, "location": {"lat": 1.364184, "lng": 103.9641862}, "location_type": "ROOFTOP", "viewport": {"northeast": {"lat": 1.365514030291502, "lng": 103.9655284802915}, "southwest": {"lat": 1.362816069708498, "lng": 103.9628305197085}}}, "place_id": "ChIJcfTvm1U82jERN9zbDQsXhTM", "types": ["premise"]}