{"address_components": [{"long_name": "Block 184", "short_name": "Block 184", "types": ["premise"]}, {"long_name": "184", "short_name": "184", "types": ["street_number"]}, {"long_name": "Yung Sheng Road", "short_name": "Yung Sheng Rd", "types": ["route"]}, {"long_name": "Jurong West", "short_name": "Jurong West", "types": ["neighborhood", "political"]}, {"long_name": "Singapore", "short_name": "Singapore", "types": ["locality", "political"]}, {"long_name": "Singapore", "short_name": "SG", "types": ["country", "political"]}, {"long_name": "610184", "short_name": "610184", "types": ["postal_code"]}], "formatted_address": "184 Yung Sheng Rd, Block 184, Singapore 610184", "geometry": {"bounds": {"northeast": {"lat": 1.3334616, "lng": 103.7224043}, "southwest": {"lat": 1.333203, "lng": 103.7219645}}, "location": {"lat": 1.3334227, "lng": 103.7221742}, "location_type": "ROOFTOP", "viewport": {"northeast": {"lat": 1.334681280291502, "lng": 103.7235333802915}, "southwest": {"lat": 1.331983319708498, "lng": 103.7208354197085}}}, "place_id": "ChIJOfe5k_sP2jERJU47wlLqW-0", "types": ["premise"]}