{"address_components": [{"long_name": "Block 754", "short_name": "Block 754", "types": ["premise"]}, {"long_name": "754", "short_name": "754", "types": ["street_number"]}, {"long_name": "Yishun Street 72", "short_name": "Yishun Street 72", "types": ["route"]}, {"long_name": "Yishun", "short_name": "Yishun", "types": ["neighborhood", "political"]}, {"long_name": "Singapore", "short_name": "Singapore", "types": ["locality", "political"]}, {"long_name": "Singapore", "short_name": "SG", "types": ["country", "political"]}, {"long_name": "760754", "short_name": "760754", "types": ["postal_code"]}], "formatted_address": "754 Yishun Street 72, Block 754, Singapore 760754", "geometry": {"bounds": {"northeast": {"lat": 1.427002, "lng": 103.8345637}, "southwest": {"lat": 1.426844, "lng": 103.8336567}}, "location": {"lat": 1.4269573, "lng": 103.8337174}, "location_type": "ROOFTOP", "viewport": {"northeast": {"lat": 1.428271980291502, "lng": 103.8354591802915}, "southwest": {"lat": 1.425574019708498, "lng": 103.8327612197085}}}, "place_id": "ChIJGS7cL24U2jERhgUxImKREvM", "types": ["premise"]}