{"address_components": [{"long_name": "Block 106", "short_name": "Block 106", "types": ["premise"]}, {"long_name": "106", "short_name": "106", "types": ["street_number"]}, {"long_name": "Gangsa Road", "short_name": "Gangsa Rd", "types": ["route"]}, {"long_name": "Bukit Panjang", "short_name": "Bukit Panjang", "types": ["neighborhood", "political"]}, {"long_name": "Singapore", "short_name": "Singapore", "types": ["locality", "political"]}, {"long_name": "Singapore", "short_name": "SG", "types": ["country", "political"]}, {"long_name": "670106", "short_name": "670106", "types": ["postal_code"]}], "formatted_address": "106 Gangsa Rd, Block 106, Singapore 670106", "geometry": {"bounds": {"northeast": {"lat": 1.378234, "lng": 103.7677334}, "southwest": {"lat": 1.377734, "lng": 103.7670325}}, "location": {"lat": 1.3779831, "lng": 103.7674096}, "location_type": "ROOFTOP", "viewport": {"northeast": {"lat": 1.379332980291502, "lng": 103.7687319302915}, "southwest": {"lat": 1.376635019708498, "lng": 103.7660339697085}}}, "place_id": "ChIJFWH0b6QR2jERDQ1TvzewzFM", "types": ["premise"]}