{"address_components": [{"long_name": "273C", "short_name": "273C", "types": ["street_number"]}, {"long_name": "Punggol Place", "short_name": "Punggol Pl", "types": ["route"]}, {"long_name": "Punggol", "short_name": "Punggol", "types": ["neighborhood", "political"]}, {"long_name": "Singapore", "short_name": "Singapore", "types": ["locality", "political"]}, {"long_name": "Singapore", "short_name": "SG", "types": ["country", "political"]}, {"long_name": "823273", "short_name": "823273", "types": ["postal_code"]}], "formatted_address": "273C Punggol Pl, Singapore 823273", "geometry": {"bounds": {"northeast": {"lat": 1.4023855, "lng": 103.9016236}, "southwest": {"lat": 1.4020728, "lng": 103.9012051}}, "location": {"lat": 1.4022707, "lng": 103.9013943}, "location_type": "ROOFTOP", "viewport": {"northeast": {"lat": 1.403578130291502, "lng": 103.9027633302915}, "southwest": {"lat": 1.400880169708498, "lng": 103.9000653697085}}}, "place_id": "ChIJ9UoLv-IV2jERULRgBa6OakA", "types": ["premise"]}