{"address_components": [{"long_name": "Block 329", "short_name": "Block 329", "types": ["premise"]}, {"long_name": "329", "short_name": "329", "types": ["street_number"]}, {"long_name": "Jurong East Avenue 1", "short_name": "Jurong East Ave 1", "types": ["route"]}, {"long_name": "Jurong East", "short_name": "Jurong East", "types": ["neighborhood", "political"]}, {"long_name": "Singapore", "short_name": "Singapore", "types": ["locality", "political"]}, {"long_name": "Singapore", "short_name": "SG", "types": ["country", "political"]}, {"long_name": "600329", "short_name": "600329", "types": ["postal_code"]}], "formatted_address": "329 Jurong East Ave 1, Block 329, Singapore 600329", "geometry": {"bounds": {"northeast": {"lat": 1.3502761, "lng": 103.7302673}, "southwest": {"lat": 1.3500596, "lng": 103.7296014}}, "location": {"lat": 1.3501778, "lng": 103.7298929}, "location_type": "ROOFTOP", "viewport": {"northeast": {"lat": 1.351516830291502, "lng": 103.7312833302915}, "southwest": {"lat": 1.348818869708498, "lng": 103.7285853697085}}}, "place_id": "ChIJb8EytyAQ2jER8hGfj5MKUe0", "types": ["premise"]}