{"address_components": [{"long_name": "Block 117", "short_name": "Block 117", "types": ["premise"]}, {"long_name": "117", "short_name": "117", "types": ["street_number"]}, {"long_name": "Teck Whye Lane", "short_name": "Teck Whye Ln", "types": ["route"]}, {"long_name": "Choa Chu Kang", "short_name": "Choa Chu Kang", "types": ["neighborhood", "political"]}, {"long_name": "Singapore", "short_name": "Singapore", "types": ["locality", "political"]}, {"long_name": "Singapore", "short_name": "SG", "types": ["country", "political"]}, {"long_name": "680117", "short_name": "680117", "types": ["postal_code"]}], "formatted_address": "117 Teck Whye Ln, Block 117, Singapore 680117", "geometry": {"bounds": {"northeast": {"lat": 1.3797529, "lng": 103.7516373}, "southwest": {"lat": 1.3792649, "lng": 103.7509998}}, "location": {"lat": 1.3796362, "lng": 103.7512281}, "location_type": "ROOFTOP", "viewport": {"northeast": {"lat": 1.380857880291502, "lng": 103.7526675302915}, "southwest": {"lat": 1.378159919708498, "lng": 103.7499695697085}}}, "place_id": "ChIJyetnu8AR2jER1LGA18BvVu8", "types": ["premise"]}