{"address_components": [{"long_name": "Block 752", "short_name": "Block 752", "types": ["premise"]}, {"long_name": "752", "short_name": "752", "types": ["street_number"]}, {"long_name": "Choa Chu Kang North 5", "short_name": "Choa Chu Kang North 5", "types": ["route"]}, {"long_name": "Choa Chu Kang", "short_name": "Choa Chu Kang", "types": ["neighborhood", "political"]}, {"long_name": "Singapore", "short_name": "Singapore", "types": ["locality", "political"]}, {"long_name": "Singapore", "short_name": "SG", "types": ["country", "political"]}, {"long_name": "680752", "short_name": "680752", "types": ["postal_code"]}], "formatted_address": "752 Choa Chu Kang North 5, Block 752, Singapore 680752", "geometry": {"bounds": {"northeast": {"lat": 1.3926261, "lng": 103.7475657}, "southwest": {"lat": 1.39219, "lng": 103.7472107}}, "location": {"lat": 1.3923438, "lng": 103.7473358}, "location_type": "ROOFTOP", "viewport": {"northeast": {"lat": 1.393757030291502, "lng": 103.7487371802915}, "southwest": {"lat": 1.391059069708498, "lng": 103.7460392197085}}}, "partial_match": true, "place_id": "ChIJBQxd8e0R2jERUN0oEhlxo0I", "types": ["premise"]}