{"address_components": [{"long_name": "Block 787C", "short_name": "Block 787C", "types": ["premise"]}, {"long_name": "787C", "short_name": "787C", "types": ["street_number"]}, {"long_name": "Woodlands Crescent", "short_name": "Woodlands Cres", "types": ["route"]}, {"long_name": "Woodlands", "short_name": "Woodlands", "types": ["neighborhood", "political"]}, {"long_name": "Singapore", "short_name": "Singapore", "types": ["locality", "political"]}, {"long_name": "Singapore", "short_name": "SG", "types": ["country", "political"]}, {"long_name": "733787", "short_name": "733787", "types": ["postal_code"]}], "formatted_address": "787C Woodlands Cres, Block 787C, Singapore 733787", "geometry": {"bounds": {"northeast": {"lat": 1.4452899, "lng": 103.801339}, "southwest": {"lat": 1.444733, "lng": 103.8006099}}, "location": {"lat": 1.4448456, "lng": 103.8010235}, "location_type": "ROOFTOP", "viewport": {"northeast": {"lat": 1.446360430291502, "lng": 103.8023234302915}, "southwest": {"lat": 1.443662469708498, "lng": 103.7996254697085}}}, "place_id": "ChIJT-L1c3MT2jERL1JdkcYNzns", "types": ["premise"]}