{"address_components": [{"long_name": "Block 111", "short_name": "Block 111", "types": ["premise"]}, {"long_name": "111", "short_name": "111", "types": ["street_number"]}, {"long_name": "McNair Road", "short_name": "McNair Rd", "types": ["route"]}, {"long_name": "Kallang", "short_name": "Kallang", "types": ["neighborhood", "political"]}, {"long_name": "Singapore", "short_name": "Singapore", "types": ["locality", "political"]}, {"long_name": "Singapore", "short_name": "SG", "types": ["country", "political"]}, {"long_name": "320111", "short_name": "320111", "types": ["postal_code"]}], "formatted_address": "111 McNair Rd, Block 111, Singapore 320111", "geometry": {"bounds": {"northeast": {"lat": 1.3217167, "lng": 103.858686}, "southwest": {"lat": 1.3209657, "lng": 103.8581391}}, "location": {"lat": 1.3213757, "lng": 103.8582657}, "location_type": "ROOFTOP", "viewport": {"northeast": {"lat": 1.322690180291502, "lng": 103.8597615302915}, "southwest": {"lat": 1.319992219708498, "lng": 103.8570635697085}}}, "partial_match": true, "place_id": "ChIJNRxxz9AZ2jERN715MLVVYZ8", "types": ["premise"]}