{"address_components": [{"long_name": "Block 166", "short_name": "Block 166", "types": ["premise"]}, {"long_name": "166", "short_name": "166", "types": ["street_number"]}, {"long_name": "Hougang Avenue 1", "short_name": "Hougang Ave 1", "types": ["route"]}, {"long_name": "Hougang", "short_name": "Hougang", "types": ["neighborhood", "political"]}, {"long_name": "Singapore", "short_name": "Singapore", "types": ["locality", "political"]}, {"long_name": "Singapore", "short_name": "SG", "types": ["country", "political"]}, {"long_name": "530166", "short_name": "530166", "types": ["postal_code"]}], "formatted_address": "166 Hougang Ave 1, Block 166, Singapore 530166", "geometry": {"bounds": {"northeast": {"lat": 1.3516176, "lng": 103.8887368}, "southwest": {"lat": 1.35097, "lng": 103.8880765}}, "location": {"lat": 1.3512862, "lng": 103.888255}, "location_type": "ROOFTOP", "viewport": {"northeast": {"lat": 1.352642780291502, "lng": 103.8897556302915}, "southwest": {"lat": 1.349944819708498, "lng": 103.8870576697085}}}, "place_id": "ChIJBy9e4rgX2jERLnQjoOss0yA", "types": ["premise"]}