{"address_components": [{"long_name": "Block 621", "short_name": "Block 621", "types": ["premise"]}, {"long_name": "621", "short_name": "621", "types": ["street_number"]}, {"long_name": "Ang Mo Kio Avenue 9", "short_name": "Ang Mo Kio Ave 9", "types": ["route"]}, {"long_name": "Ang Mo Kio", "short_name": "Ang Mo Kio", "types": ["neighborhood", "political"]}, {"long_name": "Singapore", "short_name": "Singapore", "types": ["locality", "political"]}, {"long_name": "Singapore", "short_name": "SG", "types": ["country", "political"]}, {"long_name": "560621", "short_name": "560621", "types": ["postal_code"]}], "formatted_address": "621 Ang Mo Kio Ave 9, Block 621, Singapore 560621", "geometry": {"bounds": {"northeast": {"lat": 1.3833386, "lng": 103.8409986}, "southwest": {"lat": 1.3828661, "lng": 103.8403439}}, "location": {"lat": 1.3830649, "lng": 103.8406919}, "location_type": "ROOFTOP", "viewport": {"northeast": {"lat": 1.384451330291502, "lng": 103.8420202302915}, "southwest": {"lat": 1.381753369708498, "lng": 103.8393222697085}}}, "place_id": "ChIJz0PeYL8W2jEREq8j50I8Af4", "types": ["premise"]}