{"address_components": [{"long_name": "Block 4", "short_name": "Block 4", "types": ["premise"]}, {"long_name": "4", "short_name": "4", "types": ["street_number"]}, {"long_name": "Holland Close", "short_name": "Holland Cl", "types": ["route"]}, {"long_name": "Queenstown", "short_name": "Queenstown", "types": ["neighborhood", "political"]}, {"long_name": "Singapore", "short_name": "Singapore", "types": ["locality", "political"]}, {"long_name": "Singapore", "short_name": "SG", "types": ["country", "political"]}, {"long_name": "271004", "short_name": "271004", "types": ["postal_code"]}], "formatted_address": "4 Holland Cl, Block 4, Singapore 271004", "geometry": {"bounds": {"northeast": {"lat": 1.3086112, "lng": 103.7961198}, "southwest": {"lat": 1.3078132, "lng": 103.7955148}}, "location": {"lat": 1.3079724, "lng": 103.7957715}, "location_type": "ROOFTOP", "viewport": {"northeast": {"lat": 1.309561180291502, "lng": 103.7971662802915}, "southwest": {"lat": 1.306863219708498, "lng": 103.7944683197085}}}, "place_id": "ChIJjZI2gGoa2jER7tmlG5LofuM", "types": ["premise"]}