{"address_components": [{"long_name": "Block 777", "short_name": "Block 777", "types": ["premise"]}, {"long_name": "776", "short_name": "776", "types": ["street_number"]}, {"long_name": "Pasir Ris Street 71", "short_name": "Pasir Ris Street 71", "types": ["route"]}, {"long_name": "Pasir Ris", "short_name": "Pasir Ris", "types": ["neighborhood", "political"]}, {"long_name": "Singapore", "short_name": "Singapore", "types": ["locality", "political"]}, {"long_name": "Singapore", "short_name": "SG", "types": ["country", "political"]}, {"long_name": "510776", "short_name": "510776", "types": ["postal_code"]}], "formatted_address": "776 Pasir Ris Street 71, Block 777, Singapore 510776", "geometry": {"bounds": {"northeast": {"lat": 1.3752969, "lng": 103.9375408}, "southwest": {"lat": 1.3745223, "lng": 103.9369128}}, "location": {"lat": 1.3751087, "lng": 103.9372622}, "location_type": "ROOFTOP", "viewport": {"northeast": {"lat": 1.376258580291502, "lng": 103.9385757802915}, "southwest": {"lat": 1.373560619708498, "lng": 103.9358778197085}}}, "place_id": "ChIJA3PSLJY92jERAtCemWOu2Ys", "types": ["premise"]}