{"address_components": [{"long_name": "Block 633", "short_name": "Block 633", "types": ["premise"]}, {"long_name": "633", "short_name": "633", "types": ["street_number"]}, {"long_name": "Ang Mo Kio Avenue 6", "short_name": "Ang Mo Kio Ave 6", "types": ["route"]}, {"long_name": "Ang Mo Kio", "short_name": "Ang Mo Kio", "types": ["neighborhood", "political"]}, {"long_name": "Singapore", "short_name": "Singapore", "types": ["locality", "political"]}, {"long_name": "Singapore", "short_name": "SG", "types": ["country", "political"]}, {"long_name": "560633", "short_name": "560633", "types": ["postal_code"]}], "formatted_address": "633 Ang Mo Kio Ave 6, Block 633, Singapore 560633", "geometry": {"bounds": {"northeast": {"lat": 1.3813306, "lng": 103.8427842}, "southwest": {"lat": 1.3810548, "lng": 103.8417597}}, "location": {"lat": 1.381223, "lng": 103.8423224}, "location_type": "ROOFTOP", "viewport": {"northeast": {"lat": 1.382541680291502, "lng": 103.8436209302915}, "southwest": {"lat": 1.379843719708498, "lng": 103.8409229697085}}}, "place_id": "ChIJL-SSWcAW2jERagAT4hYO4R0", "types": ["premise"]}