{"address_components": [{"long_name": "Block 321", "short_name": "Block 321", "types": ["premise"]}, {"long_name": "321", "short_name": "321", "types": ["street_number"]}, {"long_name": "Hougang Avenue 5", "short_name": "Hougang Ave 5", "types": ["route"]}, {"long_name": "Hougang", "short_name": "Hougang", "types": ["neighborhood", "political"]}, {"long_name": "Singapore", "short_name": "Singapore", "types": ["locality", "political"]}, {"long_name": "Singapore", "short_name": "SG", "types": ["country", "political"]}, {"long_name": "530321", "short_name": "530321", "types": ["postal_code"]}], "formatted_address": "321 Hougang Ave 5, Block 321, Singapore 530321", "geometry": {"bounds": {"northeast": {"lat": 1.3671946, "lng": 103.8987719}, "southwest": {"lat": 1.3667136, "lng": 103.897733}}, "location": {"lat": 1.3671186, "lng": 103.8982227}, "location_type": "ROOFTOP", "viewport": {"northeast": {"lat": 1.368303080291502, "lng": 103.8996014302915}, "southwest": {"lat": 1.365605119708498, "lng": 103.8969034697085}}}, "place_id": "ChIJ_WOdljMW2jERj5wciOVn-Lg", "types": ["premise"]}