{"address_components": [{"long_name": "Block 850", "short_name": "Block 850", "types": ["premise"]}, {"long_name": "850", "short_name": "850", "types": ["street_number"]}, {"long_name": "Jurong West Street 81", "short_name": "Jurong West Street 81", "types": ["route"]}, {"long_name": "Jurong West", "short_name": "Jurong West", "types": ["neighborhood", "political"]}, {"long_name": "Singapore", "short_name": "Singapore", "types": ["locality", "political"]}, {"long_name": "Singapore", "short_name": "SG", "types": ["country", "political"]}, {"long_name": "640850", "short_name": "640850", "types": ["postal_code"]}], "formatted_address": "850 Jurong West Street 81, Block 850, Singapore 640850", "geometry": {"bounds": {"northeast": {"lat": 1.3466216, "lng": 103.6922387}, "southwest": {"lat": 1.3461365, "lng": 103.6916087}}, "location": {"lat": 1.3463667, "lng": 103.6918399}, "location_type": "ROOFTOP", "viewport": {"northeast": {"lat": 1.347728030291502, "lng": 103.6932726802915}, "southwest": {"lat": 1.345030069708498, "lng": 103.6905747197085}}}, "place_id": "ChIJf_YYg6IP2jERsuzOzZ06zs4", "types": ["premise"]}