{"address_components": [{"long_name": "Block 28", "short_name": "Block 28", "types": ["premise"]}, {"long_name": "28", "short_name": "28", "types": ["street_number"]}, {"long_name": "Cassia Crescent", "short_name": "Cassia Cres", "types": ["route"]}, {"long_name": "Geylang", "short_name": "Geylang", "types": ["neighborhood", "political"]}, {"long_name": "Singapore", "short_name": "Singapore", "types": ["locality", "political"]}, {"long_name": "Singapore", "short_name": "SG", "types": ["country", "political"]}, {"long_name": "391028", "short_name": "391028", "types": ["postal_code"]}], "formatted_address": "28 Cassia Cres, Block 28, Singapore 391028", "geometry": {"bounds": {"northeast": {"lat": 1.3092133, "lng": 103.883964}, "southwest": {"lat": 1.3088432, "lng": 103.8832699}}, "location": {"lat": 1.3090145, "lng": 103.8836338}, "location_type": "ROOFTOP", "viewport": {"northeast": {"lat": 1.310377230291502, "lng": 103.8849659302915}, "southwest": {"lat": 1.307679269708498, "lng": 103.8822679697085}}}, "place_id": "ChIJ--Y17DgY2jERp2B5hDsFft8", "types": ["premise"]}