{"address_components": [{"long_name": "Block 723", "short_name": "Block 723", "types": ["premise"]}, {"long_name": "723", "short_name": "723", "types": ["street_number"]}, {"long_name": "Pasir Ris Street 72", "short_name": "Pasir Ris Street 72", "types": ["route"]}, {"long_name": "Pasir Ris", "short_name": "Pasir Ris", "types": ["neighborhood", "political"]}, {"long_name": "Singapore", "short_name": "Singapore", "types": ["locality", "political"]}, {"long_name": "Singapore", "short_name": "SG", "types": ["country", "political"]}, {"long_name": "510723", "short_name": "510723", "types": ["postal_code"]}], "formatted_address": "723 Pasir Ris Street 72, Block 723, Singapore 510723", "geometry": {"bounds": {"northeast": {"lat": 1.3810256, "lng": 103.9367629}, "southwest": {"lat": 1.3806274, "lng": 103.9364509}}, "location": {"lat": 1.3807343, "lng": 103.9366504}, "location_type": "ROOFTOP", "viewport": {"northeast": {"lat": 1.382175480291502, "lng": 103.9379558802915}, "southwest": {"lat": 1.379477519708498, "lng": 103.9352579197085}}}, "place_id": "ChIJfYi5bpU92jER07phUeLvivw", "types": ["premise"]}