{"address_components": [{"long_name": "Block 201", "short_name": "Block 201", "types": ["premise"]}, {"long_name": "201", "short_name": "201", "types": ["street_number"]}, {"long_name": "Toa Payoh North", "short_name": "Toa Payoh N", "types": ["route"]}, {"long_name": "Toa Payoh", "short_name": "Toa Payoh", "types": ["neighborhood", "political"]}, {"long_name": "Singapore", "short_name": "Singapore", "types": ["locality", "political"]}, {"long_name": "Singapore", "short_name": "SG", "types": ["country", "political"]}, {"long_name": "310201", "short_name": "310201", "types": ["postal_code"]}], "formatted_address": "201 Toa Payoh N, Block 201, Singapore 310201", "geometry": {"bounds": {"northeast": {"lat": 1.3417055, "lng": 103.850661}, "southwest": {"lat": 1.3410473, "lng": 103.8500189}}, "location": {"lat": 1.3410918, "lng": 103.8502712}, "location_type": "ROOFTOP", "viewport": {"northeast": {"lat": 1.342725380291502, "lng": 103.8516889302915}, "southwest": {"lat": 1.340027419708498, "lng": 103.8489909697085}}}, "place_id": "ChIJIQyr9msX2jERClkUb5gORq0", "types": ["premise"]}