{"address_components": [{"long_name": "Block 119", "short_name": "Block 119", "types": ["premise"]}, {"long_name": "119", "short_name": "119", "types": ["street_number"]}, {"long_name": "Pending Road", "short_name": "Pending Rd", "types": ["route"]}, {"long_name": "Bukit Panjang", "short_name": "Bukit Panjang", "types": ["neighborhood", "political"]}, {"long_name": "Singapore", "short_name": "Singapore", "types": ["locality", "political"]}, {"long_name": "Singapore", "short_name": "SG", "types": ["country", "political"]}, {"long_name": "670119", "short_name": "670119", "types": ["postal_code"]}], "formatted_address": "119 Pending Rd, Block 119, Singapore 670119", "geometry": {"bounds": {"northeast": {"lat": 1.376879, "lng": 103.7692279}, "southwest": {"lat": 1.3763879, "lng": 103.7687951}}, "location": {"lat": 1.3766723, "lng": 103.7690618}, "location_type": "ROOFTOP", "viewport": {"northeast": {"lat": 1.377982430291502, "lng": 103.7703604802915}, "southwest": {"lat": 1.375284469708498, "lng": 103.7676625197085}}}, "place_id": "ChIJnRfgLqQR2jER7Ws8SDI1478", "types": ["premise"]}