{"address_components": [{"long_name": "Block 142", "short_name": "Block 142", "types": ["premise"]}, {"long_name": "142", "short_name": "142", "types": ["street_number"]}, {"long_name": "Pasir Ris Street 11", "short_name": "Pasir Ris Street 11", "types": ["route"]}, {"long_name": "Pasir Ris", "short_name": "Pasir Ris", "types": ["neighborhood", "political"]}, {"long_name": "Singapore", "short_name": "Singapore", "types": ["locality", "political"]}, {"long_name": "Singapore", "short_name": "SG", "types": ["country", "political"]}, {"long_name": "510142", "short_name": "510142", "types": ["postal_code"]}], "formatted_address": "142 Pasir Ris Street 11, Block 142, Singapore 510142", "geometry": {"bounds": {"northeast": {"lat": 1.3638547, "lng": 103.9594327}, "southwest": {"lat": 1.3630336, "lng": 103.9583717}}, "location": {"lat": 1.3635388, "lng": 103.9587693}, "location_type": "ROOFTOP", "viewport": {"northeast": {"lat": 1.364793130291502, "lng": 103.9602511802915}, "southwest": {"lat": 1.362095169708498, "lng": 103.9575532197085}}}, "place_id": "ChIJWe2knao92jERPPRJxj4m6qQ", "types": ["premise"]}