{"address_components": [{"long_name": "Block 241", "short_name": "Block 241", "types": ["premise"]}, {"long_name": "241", "short_name": "241", "types": ["street_number"]}, {"long_name": "Bukit Batok East Avenue 5", "short_name": "Bukit Batok East Ave 5", "types": ["route"]}, {"long_name": "Bukit Batok", "short_name": "Bukit Batok", "types": ["neighborhood", "political"]}, {"long_name": "Singapore", "short_name": "Singapore", "types": ["locality", "political"]}, {"long_name": "Singapore", "short_name": "SG", "types": ["country", "political"]}, {"long_name": "650241", "short_name": "650241", "types": ["postal_code"]}], "formatted_address": "241 Bukit Batok East Ave 5, Block 241, Singapore 650241", "geometry": {"bounds": {"northeast": {"lat": 1.3510128, "lng": 103.7548522}, "southwest": {"lat": 1.3505116, "lng": 103.7540313}}, "location": {"lat": 1.3509696, "lng": 103.7545808}, "location_type": "ROOFTOP", "viewport": {"northeast": {"lat": 1.352111180291502, "lng": 103.7557907302915}, "southwest": {"lat": 1.349413219708498, "lng": 103.7530927697085}}}, "place_id": "ChIJuTrTLUcQ2jERlTBx7mujIy8", "types": ["premise"]}