{"address_components": [{"long_name": "Block 497B", "short_name": "Block 497B", "types": ["premise"]}, {"long_name": "497B", "short_name": "497B", "types": ["street_number"]}, {"long_name": "Tampines Street 45", "short_name": "Tampines Street 45", "types": ["route"]}, {"long_name": "Tampines", "short_name": "Tampines", "types": ["neighborhood", "political"]}, {"long_name": "Singapore", "short_name": "Singapore", "types": ["locality", "political"]}, {"long_name": "Singapore", "short_name": "SG", "types": ["country", "political"]}, {"long_name": "521497", "short_name": "521497", "types": ["postal_code"]}], "formatted_address": "497B Tampines Street 45, Block 497B, Singapore 521497", "geometry": {"bounds": {"northeast": {"lat": 1.3591841, "lng": 103.9584776}, "southwest": {"lat": 1.3583289, "lng": 103.9578695}}, "location": {"lat": 1.3586014, "lng": 103.9579987}, "location_type": "ROOFTOP", "viewport": {"northeast": {"lat": 1.360105480291502, "lng": 103.9595225302915}, "southwest": {"lat": 1.357407519708498, "lng": 103.9568245697085}}}, "place_id": "ChIJJ_v8gAE92jER5GINofpg2BA", "types": ["premise"]}