{"address_components": [{"long_name": "Block 403B", "short_name": "Block 403B", "types": ["premise"]}, {"long_name": "403A", "short_name": "403A", "types": ["street_number"]}, {"long_name": "Fernvale Lane", "short_name": "Fernvale Ln", "types": ["route"]}, {"long_name": "Sengkang", "short_name": "Sengkang", "types": ["neighborhood", "political"]}, {"long_name": "Singapore", "short_name": "Singapore", "types": ["locality", "political"]}, {"long_name": "Singapore", "short_name": "SG", "types": ["country", "political"]}, {"long_name": "791403", "short_name": "791403", "types": ["postal_code"]}], "formatted_address": "403A Fernvale Ln, Block 403B, Singapore 791403", "geometry": {"bounds": {"northeast": {"lat": 1.388953, "lng": 103.8731302}, "southwest": {"lat": 1.3885612, "lng": 103.8728395}}, "location": {"lat": 1.3886912, "lng": 103.872987}, "location_type": "ROOFTOP", "viewport": {"northeast": {"lat": 1.390106080291502, "lng": 103.8743338302915}, "southwest": {"lat": 1.387408119708498, "lng": 103.8716358697085}}}, "place_id": "ChIJj-_GkWMW2jER_xZit61Hnow", "types": ["premise"]}