{"address_components": [{"long_name": "Block 235", "short_name": "Block 235", "types": ["premise"]}, {"long_name": "235", "short_name": "235", "types": ["street_number"]}, {"long_name": "Bishan Street 22", "short_name": "Bishan Street 22", "types": ["route"]}, {"long_name": "Bishan", "short_name": "Bishan", "types": ["neighborhood", "political"]}, {"long_name": "Singapore", "short_name": "Singapore", "types": ["locality", "political"]}, {"long_name": "Singapore", "short_name": "SG", "types": ["country", "political"]}, {"long_name": "570235", "short_name": "570235", "types": ["postal_code"]}], "formatted_address": "235 Bishan Street 22, Block 235, Singapore 570235", "geometry": {"bounds": {"northeast": {"lat": 1.3589633, "lng": 103.84687}, "southwest": {"lat": 1.3584974, "lng": 103.8461119}}, "location": {"lat": 1.3586332, "lng": 103.8464892}, "location_type": "ROOFTOP", "viewport": {"northeast": {"lat": 1.360079330291502, "lng": 103.8478399302915}, "southwest": {"lat": 1.357381369708498, "lng": 103.8451419697085}}}, "place_id": "ChIJR6y4xxgX2jER_XHk5wTUjIo", "types": ["premise"]}