{"address_components": [{"long_name": "Block 282", "short_name": "Block 282", "types": ["premise"]}, {"long_name": "282", "short_name": "282", "types": ["street_number"]}, {"long_name": "Tampines Street 22", "short_name": "Tampines Street 22", "types": ["route"]}, {"long_name": "Tampines", "short_name": "Tampines", "types": ["neighborhood", "political"]}, {"long_name": "Singapore", "short_name": "Singapore", "types": ["locality", "political"]}, {"long_name": "Singapore", "short_name": "SG", "types": ["country", "political"]}, {"long_name": "520282", "short_name": "520282", "types": ["postal_code"]}], "formatted_address": "282 Tampines Street 22, Block 282, Singapore 520282", "geometry": {"bounds": {"northeast": {"lat": 1.3478645, "lng": 103.952854}, "southwest": {"lat": 1.3476563, "lng": 103.9519461}}, "location": {"lat": 1.3477639, "lng": 103.9524233}, "location_type": "ROOFTOP", "viewport": {"northeast": {"lat": 1.349109380291502, "lng": 103.9537490302915}, "southwest": {"lat": 1.346411419708498, "lng": 103.9510510697085}}}, "place_id": "ChIJWbEiCRk92jERGwoTaSkGoAg", "types": ["premise"]}