{"address_components": [{"long_name": "Block 709", "short_name": "Block 709", "types": ["premise"]}, {"long_name": "709", "short_name": "709", "types": ["street_number"]}, {"long_name": "Woodlands Drive 70", "short_name": "Woodlands Drive 70", "types": ["route"]}, {"long_name": "Woodlands", "short_name": "Woodlands", "types": ["neighborhood", "political"]}, {"long_name": "Singapore", "short_name": "Singapore", "types": ["locality", "political"]}, {"long_name": "Singapore", "short_name": "SG", "types": ["country", "political"]}, {"long_name": "730709", "short_name": "730709", "types": ["postal_code"]}], "formatted_address": "709 Woodlands Drive 70, Block 709, Singapore 730709", "geometry": {"bounds": {"northeast": {"lat": 1.4406381, "lng": 103.7981289}, "southwest": {"lat": 1.44015, "lng": 103.7977039}}, "location": {"lat": 1.4403128, "lng": 103.7980353}, "location_type": "ROOFTOP", "viewport": {"northeast": {"lat": 1.441743030291502, "lng": 103.7992653802915}, "southwest": {"lat": 1.439045069708498, "lng": 103.7965674197085}}}, "place_id": "ChIJU438tgoT2jERw4x_oP3UX5s", "types": ["premise"]}