{"address_components": [{"long_name": "Block 118", "short_name": "Block 118", "types": ["premise"]}, {"long_name": "118", "short_name": "118", "types": ["street_number"]}, {"long_name": "Bukit Batok West Avenue 6", "short_name": "Bukit Batok West Ave 6", "types": ["route"]}, {"long_name": "Bukit Batok", "short_name": "Bukit Batok", "types": ["neighborhood", "political"]}, {"long_name": "Singapore", "short_name": "Singapore", "types": ["locality", "political"]}, {"long_name": "Singapore", "short_name": "SG", "types": ["country", "political"]}, {"long_name": "650118", "short_name": "650118", "types": ["postal_code"]}], "formatted_address": "118 Bukit Batok West Ave 6, Block 118, Singapore 650118", "geometry": {"bounds": {"northeast": {"lat": 1.3504979, "lng": 103.7468824}, "southwest": {"lat": 1.3499517, "lng": 103.7461977}}, "location": {"lat": 1.350285, "lng": 103.7462529}, "location_type": "ROOFTOP", "viewport": {"northeast": {"lat": 1.351573780291502, "lng": 103.7478890302915}, "southwest": {"lat": 1.348875819708498, "lng": 103.7451910697085}}}, "place_id": "ChIJT5llqT4Q2jERd_MJWYYi9nc", "types": ["premise"]}