{"address_components": [{"long_name": "138C", "short_name": "138C", "types": ["street_number"]}, {"long_name": "Yuan Ching Road", "short_name": "Yuan Ching Rd", "types": ["route"]}, {"long_name": "Jurong West", "short_name": "Jurong West", "types": ["neighborhood", "political"]}, {"long_name": "Singapore", "short_name": "Singapore", "types": ["locality", "political"]}, {"long_name": "Singapore", "short_name": "SG", "types": ["country", "political"]}, {"long_name": "613138", "short_name": "613138", "types": ["postal_code"]}], "formatted_address": "138C Yuan Ching Rd, Singapore 613138", "geometry": {"bounds": {"northeast": {"lat": 1.3286263, "lng": 103.7240907}, "southwest": {"lat": 1.3282385, "lng": 103.7235573}}, "location": {"lat": 1.3284519, "lng": 103.7238259}, "location_type": "ROOFTOP", "viewport": {"northeast": {"lat": 1.329781380291502, "lng": 103.7251729802915}, "southwest": {"lat": 1.327083419708498, "lng": 103.7224750197085}}}, "place_id": "ChIJUTG8N_8P2jERqjZyuNA5Kp4", "types": ["premise"]}