{"address_components": [{"long_name": "Block 678", "short_name": "Block 678", "types": ["premise"]}, {"long_name": "678", "short_name": "678", "types": ["street_number"]}, {"long_name": "Choa Chu Kang Crescent", "short_name": "Choa Chu Kang Cres", "types": ["route"]}, {"long_name": "Choa Chu Kang", "short_name": "Choa Chu Kang", "types": ["neighborhood", "political"]}, {"long_name": "Singapore", "short_name": "Singapore", "types": ["locality", "political"]}, {"long_name": "Singapore", "short_name": "SG", "types": ["country", "political"]}, {"long_name": "680678", "short_name": "680678", "types": ["postal_code"]}], "formatted_address": "678 Choa Chu Kang Cres, Block 678, Singapore 680678", "geometry": {"bounds": {"northeast": {"lat": 1.402229, "lng": 103.7445526}, "southwest": {"lat": 1.4015376, "lng": 103.7439526}}, "location": {"lat": 1.4018221, "lng": 103.7444392}, "location_type": "ROOFTOP", "viewport": {"northeast": {"lat": 1.403232280291502, "lng": 103.7456015802915}, "southwest": {"lat": 1.400534319708498, "lng": 103.7429036197085}}}, "place_id": "ChIJ3V91JvYR2jERdbm2U5zrXDE", "types": ["premise"]}