{"address_components": [{"long_name": "Block 691A", "short_name": "Block 691A", "types": ["premise"]}, {"long_name": "691A", "short_name": "691A", "types": ["street_number"]}, {"long_name": "Choa Chu Kang Crescent", "short_name": "Choa Chu Kang Cres", "types": ["route"]}, {"long_name": "Choa Chu Kang", "short_name": "Choa Chu Kang", "types": ["neighborhood", "political"]}, {"long_name": "Singapore", "short_name": "Singapore", "types": ["locality", "political"]}, {"long_name": "Singapore", "short_name": "SG", "types": ["country", "political"]}, {"long_name": "681691", "short_name": "681691", "types": ["postal_code"]}], "formatted_address": "691A Choa Chu Kang Cres, Block 691A, Singapore 681691", "geometry": {"bounds": {"northeast": {"lat": 1.4013101, "lng": 103.7517999}, "southwest": {"lat": 1.400979, "lng": 103.75126}}, "location": {"lat": 1.4012113, "lng": 103.7515223}, "location_type": "ROOFTOP", "viewport": {"northeast": {"lat": 1.402493530291502, "lng": 103.7528789302915}, "southwest": {"lat": 1.399795569708498, "lng": 103.7501809697085}}}, "place_id": "ChIJ9RDhSPUR2jERmm7YkJc5Irw", "types": ["premise"]}