{"address_components": [{"long_name": "Block 119", "short_name": "Block 119", "types": ["premise"]}, {"long_name": "119", "short_name": "119", "types": ["street_number"]}, {"long_name": "Bedok Reservoir Road", "short_name": "Bedok Reservoir Rd", "types": ["route"]}, {"long_name": "Bedok", "short_name": "Bedok", "types": ["neighborhood", "political"]}, {"long_name": "Singapore", "short_name": "Singapore", "types": ["locality", "political"]}, {"long_name": "Singapore", "short_name": "SG", "types": ["country", "political"]}, {"long_name": "470119", "short_name": "470119", "types": ["postal_code"]}], "formatted_address": "119 Bedok Reservoir Rd, Block 119, Singapore 470119", "geometry": {"bounds": {"northeast": {"lat": 1.331392, "lng": 103.9095251}, "southwest": {"lat": 1.3307389, "lng": 103.909341}}, "location": {"lat": 1.331254, "lng": 103.9094598}, "location_type": "ROOFTOP", "viewport": {"northeast": {"lat": 1.332414430291502, "lng": 103.9107820302915}, "southwest": {"lat": 1.329716469708498, "lng": 103.9080840697085}}}, "place_id": "ChIJqW7rHPwX2jERKi-2Ew7KMWA", "types": ["premise"]}