{"address_components": [{"long_name": "Block 368", "short_name": "Block 368", "types": ["premise"]}, {"long_name": "368", "short_name": "368", "types": ["street_number"]}, {"long_name": "Tampines Street 34", "short_name": "Tampines Street 34", "types": ["route"]}, {"long_name": "Tampines", "short_name": "Tampines", "types": ["neighborhood", "political"]}, {"long_name": "Singapore", "short_name": "Singapore", "types": ["locality", "political"]}, {"long_name": "Singapore", "short_name": "SG", "types": ["country", "political"]}, {"long_name": "520368", "short_name": "520368", "types": ["postal_code"]}], "formatted_address": "368 Tampines Street 34, Block 368, Singapore 520368", "geometry": {"bounds": {"northeast": {"lat": 1.3592461, "lng": 103.961433}, "southwest": {"lat": 1.3582409, "lng": 103.960465}}, "location": {"lat": 1.3587853, "lng": 103.9609678}, "location_type": "ROOFTOP", "viewport": {"northeast": {"lat": 1.360092480291502, "lng": 103.9622979802915}, "southwest": {"lat": 1.357394519708498, "lng": 103.9596000197085}}}, "place_id": "ChIJ58ZcAP482jER1aCsRBR2TNY", "types": ["premise"]}