{"address_components": [{"long_name": "Block 704", "short_name": "Block 704", "types": ["premise"]}, {"long_name": "704", "short_name": "704", "types": ["street_number"]}, {"long_name": "Tampines Street 71", "short_name": "Tampines Street 71", "types": ["route"]}, {"long_name": "Tampines", "short_name": "Tampines", "types": ["neighborhood", "political"]}, {"long_name": "Singapore", "short_name": "Singapore", "types": ["locality", "political"]}, {"long_name": "Singapore", "short_name": "SG", "types": ["country", "political"]}, {"long_name": "520704", "short_name": "520704", "types": ["postal_code"]}], "formatted_address": "704 Tampines Street 71, Block 704, Singapore 520704", "geometry": {"bounds": {"northeast": {"lat": 1.3567867, "lng": 103.9374149}, "southwest": {"lat": 1.3564985, "lng": 103.9369169}}, "location": {"lat": 1.3566373, "lng": 103.9371942}, "location_type": "ROOFTOP", "viewport": {"northeast": {"lat": 1.357991580291502, "lng": 103.9385148802915}, "southwest": {"lat": 1.355293619708498, "lng": 103.9358169197085}}}, "place_id": "ChIJrZENKXM92jERGi2MbVl5wkw", "types": ["premise"]}