{"address_components": [{"long_name": "Block 152", "short_name": "Block 152", "types": ["premise"]}, {"long_name": "152", "short_name": "152", "types": ["street_number"]}, {"long_name": "Jalan Teck Whye", "short_name": "Jln Teck Whye", "types": ["route"]}, {"long_name": "Choa Chu Kang", "short_name": "Choa Chu Kang", "types": ["neighborhood", "political"]}, {"long_name": "Singapore", "short_name": "Singapore", "types": ["locality", "political"]}, {"long_name": "Singapore", "short_name": "SG", "types": ["country", "political"]}, {"long_name": "680152", "short_name": "680152", "types": ["postal_code"]}], "formatted_address": "152 Jln Teck Whye, Block 152, Singapore 680152", "geometry": {"bounds": {"northeast": {"lat": 1.3792719, "lng": 103.7583469}, "southwest": {"lat": 1.3787092, "lng": 103.757802}}, "location": {"lat": 1.3788441, "lng": 103.7581304}, "location_type": "ROOFTOP", "viewport": {"northeast": {"lat": 1.380339530291502, "lng": 103.7594234302915}, "southwest": {"lat": 1.377641569708498, "lng": 103.7567254697085}}}, "place_id": "ChIJ1YK1A7wR2jERhl0dhPt7q3M", "types": ["premise"]}