{"address_components": [{"long_name": "Block 122", "short_name": "Block 122", "types": ["premise"]}, {"long_name": "122", "short_name": "122", "types": ["street_number"]}, {"long_name": "Bishan Street 12", "short_name": "Bishan Street 12", "types": ["route"]}, {"long_name": "Bishan", "short_name": "Bishan", "types": ["neighborhood", "political"]}, {"long_name": "Singapore", "short_name": "Singapore", "types": ["locality", "political"]}, {"long_name": "Singapore", "short_name": "SG", "types": ["country", "political"]}, {"long_name": "570122", "short_name": "570122", "types": ["postal_code"]}], "formatted_address": "122 Bishan Street 12, Block 122, Singapore 570122", "geometry": {"bounds": {"northeast": {"lat": 1.3469822, "lng": 103.8510855}, "southwest": {"lat": 1.3466862, "lng": 103.8501994}}, "location": {"lat": 1.3468208, "lng": 103.850664}, "location_type": "ROOFTOP", "viewport": {"northeast": {"lat": 1.348183180291502, "lng": 103.8519914302915}, "southwest": {"lat": 1.345485219708498, "lng": 103.8492934697085}}}, "place_id": "ChIJ1U2FnRQX2jERVW28mB3w95M", "types": ["premise"]}