{"address_components": [{"long_name": "Block 669", "short_name": "Block 669", "types": ["premise"]}, {"long_name": "669", "short_name": "669", "types": ["street_number"]}, {"long_name": "Choa Chu Kang Crescent", "short_name": "Choa Chu Kang Cres", "types": ["route"]}, {"long_name": "Choa Chu Kang", "short_name": "Choa Chu Kang", "types": ["neighborhood", "political"]}, {"long_name": "Singapore", "short_name": "Singapore", "types": ["locality", "political"]}, {"long_name": "Singapore", "short_name": "SG", "types": ["country", "political"]}, {"long_name": "680669", "short_name": "680669", "types": ["postal_code"]}], "formatted_address": "669 Choa Chu Kang Cres, Block 669, Singapore 680669", "geometry": {"bounds": {"northeast": {"lat": 1.4030521, "lng": 103.748552}, "southwest": {"lat": 1.402672, "lng": 103.7480671}}, "location": {"lat": 1.4028997, "lng": 103.748241}, "location_type": "ROOFTOP", "viewport": {"northeast": {"lat": 1.404211030291502, "lng": 103.7496585302915}, "southwest": {"lat": 1.401513069708498, "lng": 103.7469605697085}}}, "place_id": "ChIJAav4Oh4S2jERx3_0Swc9vb0", "types": ["premise"]}