{"address_components": [{"long_name": "Block 701", "short_name": "Block 701", "types": ["premise"]}, {"long_name": "701", "short_name": "701", "types": ["street_number"]}, {"long_name": "Tampines Street 71", "short_name": "Tampines Street 71", "types": ["route"]}, {"long_name": "Tampines", "short_name": "Tampines", "types": ["neighborhood", "political"]}, {"long_name": "Singapore", "short_name": "Singapore", "types": ["locality", "political"]}, {"long_name": "Singapore", "short_name": "SG", "types": ["country", "political"]}, {"long_name": "520701", "short_name": "520701", "types": ["postal_code"]}], "formatted_address": "701 Tampines Street 71, Block 701, Singapore 520701", "geometry": {"bounds": {"northeast": {"lat": 1.3564325, "lng": 103.9370729}, "southwest": {"lat": 1.3561247, "lng": 103.9365327}}, "location": {"lat": 1.3561825, "lng": 103.9367183}, "location_type": "ROOFTOP", "viewport": {"northeast": {"lat": 1.357627580291502, "lng": 103.9381517802915}, "southwest": {"lat": 1.354929619708498, "lng": 103.9354538197085}}}, "place_id": "ChIJ7Smv2XI92jERR6PSuGbrSN0", "types": ["premise"]}