{"address_components": [{"long_name": "Block 720", "short_name": "Block 720", "types": ["premise"]}, {"long_name": "720", "short_name": "720", "types": ["street_number"]}, {"long_name": "Yishun Street 71", "short_name": "Yishun Street 71", "types": ["route"]}, {"long_name": "Yishun", "short_name": "Yishun", "types": ["neighborhood", "political"]}, {"long_name": "Singapore", "short_name": "Singapore", "types": ["locality", "political"]}, {"long_name": "Singapore", "short_name": "SG", "types": ["country", "political"]}, {"long_name": "760720", "short_name": "760720", "types": ["postal_code"]}], "formatted_address": "720 Yishun Street 71, Block 720, Singapore 760720", "geometry": {"bounds": {"northeast": {"lat": 1.4265437, "lng": 103.8294315}, "southwest": {"lat": 1.4263728, "lng": 103.8285445}}, "location": {"lat": 1.4264004, "lng": 103.8288281}, "location_type": "ROOFTOP", "viewport": {"northeast": {"lat": 1.427807230291502, "lng": 103.8303369802915}, "southwest": {"lat": 1.425109269708498, "lng": 103.8276390197085}}}, "place_id": "ChIJE3aaP3EU2jERoORGjleLbDc", "types": ["premise"]}