{"address_components": [{"long_name": "Block 245", "short_name": "Block 245", "types": ["premise"]}, {"long_name": "245", "short_name": "245", "types": ["street_number"]}, {"long_name": "Serangoon Avenue 2", "short_name": "Serangoon Ave 2", "types": ["route"]}, {"long_name": "Serangoon", "short_name": "Serangoon", "types": ["neighborhood", "political"]}, {"long_name": "Singapore", "short_name": "Singapore", "types": ["locality", "political"]}, {"long_name": "Singapore", "short_name": "SG", "types": ["country", "political"]}, {"long_name": "550245", "short_name": "550245", "types": ["postal_code"]}], "formatted_address": "245 Serangoon Ave 2, Block 245, Singapore 550245", "geometry": {"bounds": {"northeast": {"lat": 1.3526744, "lng": 103.8692903}, "southwest": {"lat": 1.3521585, "lng": 103.8688624}}, "location": {"lat": 1.3524077, "lng": 103.8691607}, "location_type": "ROOFTOP", "viewport": {"northeast": {"lat": 1.353765430291502, "lng": 103.8704253302915}, "southwest": {"lat": 1.351067469708498, "lng": 103.8677273697085}}}, "place_id": "ChIJyY4KnKcX2jERwU1AQzE7ED8", "types": ["premise"]}