{"address_components": [{"long_name": "Block 138", "short_name": "Block 138", "types": ["premise"]}, {"long_name": "138", "short_name": "138", "types": ["street_number"]}, {"long_name": "Lorong Ah Soo", "short_name": "Lor Ah Soo", "types": ["route"]}, {"long_name": "Hougang", "short_name": "Hougang", "types": ["neighborhood", "political"]}, {"long_name": "Singapore", "short_name": "Singapore", "types": ["locality", "political"]}, {"long_name": "Singapore", "short_name": "SG", "types": ["country", "political"]}, {"long_name": "530138", "short_name": "530138", "types": ["postal_code"]}], "formatted_address": "138 Lor Ah Soo, Block 138, Singapore 530138", "geometry": {"bounds": {"northeast": {"lat": 1.3518859, "lng": 103.8846071}, "southwest": {"lat": 1.351516, "lng": 103.88385}}, "location": {"lat": 1.3516023, "lng": 103.8842681}, "location_type": "ROOFTOP", "viewport": {"northeast": {"lat": 1.353049930291502, "lng": 103.8855775302915}, "southwest": {"lat": 1.350351969708498, "lng": 103.8828795697085}}}, "place_id": "ChIJA0g-ybsX2jERKKPzXk5EMr4", "types": ["premise"]}