{"address_components": [{"long_name": "Block 144", "short_name": "Block 144", "types": ["premise"]}, {"long_name": "144", "short_name": "144", "types": ["street_number"]}, {"long_name": "Bishan Street 12", "short_name": "Bishan Street 12", "types": ["route"]}, {"long_name": "Bishan", "short_name": "Bishan", "types": ["neighborhood", "political"]}, {"long_name": "Singapore", "short_name": "Singapore", "types": ["locality", "political"]}, {"long_name": "Singapore", "short_name": "SG", "types": ["country", "political"]}, {"long_name": "570144", "short_name": "570144", "types": ["postal_code"]}], "formatted_address": "144 Bishan Street 12, Block 144, Singapore 570144", "geometry": {"bounds": {"northeast": {"lat": 1.3461119, "lng": 103.8538553}, "southwest": {"lat": 1.3456208, "lng": 103.8527983}}, "location": {"lat": 1.3459243, "lng": 103.8533738}, "location_type": "ROOFTOP", "viewport": {"northeast": {"lat": 1.347215330291502, "lng": 103.8546757802915}, "southwest": {"lat": 1.344517369708498, "lng": 103.8519778197085}}}, "place_id": "ChIJuXUsJhMX2jERkhAdNS0Cz0w", "types": ["premise"]}