{"address_components": [{"long_name": "Block 369", "short_name": "Block 369", "types": ["premise"]}, {"long_name": "369", "short_name": "369", "types": ["street_number"]}, {"long_name": "Bukit Batok Street 31", "short_name": "Bukit Batok Street 31", "types": ["route"]}, {"long_name": "Bukit Batok", "short_name": "Bukit Batok", "types": ["neighborhood", "political"]}, {"long_name": "Singapore", "short_name": "Singapore", "types": ["locality", "political"]}, {"long_name": "Singapore", "short_name": "SG", "types": ["country", "political"]}, {"long_name": "650369", "short_name": "650369", "types": ["postal_code"]}], "formatted_address": "369 Bukit Batok Street 31, Block 369, Singapore 650369", "geometry": {"bounds": {"northeast": {"lat": 1.3606181, "lng": 103.751307}, "southwest": {"lat": 1.359922, "lng": 103.750335}}, "location": {"lat": 1.3599955, "lng": 103.7509565}, "location_type": "ROOFTOP", "viewport": {"northeast": {"lat": 1.361619030291502, "lng": 103.7521699802915}, "southwest": {"lat": 1.358921069708498, "lng": 103.7494720197085}}}, "place_id": "ChIJCf7h5jUQ2jER9AaIqWJHnfg", "types": ["premise"]}