{"address_components": [{"long_name": "Block 719", "short_name": "Block 719", "types": ["premise"]}, {"long_name": "719", "short_name": "719", "types": ["street_number"]}, {"long_name": "Yishun Street 71", "short_name": "Yishun Street 71", "types": ["route"]}, {"long_name": "Yishun", "short_name": "Yishun", "types": ["neighborhood", "political"]}, {"long_name": "Singapore", "short_name": "Singapore", "types": ["locality", "political"]}, {"long_name": "Singapore", "short_name": "SG", "types": ["country", "political"]}, {"long_name": "760719", "short_name": "760719", "types": ["postal_code"]}], "formatted_address": "719 Yishun Street 71, Block 719, Singapore 760719", "geometry": {"bounds": {"northeast": {"lat": 1.4269212, "lng": 103.8294372}, "southwest": {"lat": 1.426693, "lng": 103.8286095}}, "location": {"lat": 1.4268389, "lng": 103.8290981}, "location_type": "ROOFTOP", "viewport": {"northeast": {"lat": 1.428156080291502, "lng": 103.8303723302915}, "southwest": {"lat": 1.425458119708498, "lng": 103.8276743697085}}}, "place_id": "ChIJ0boLFnEU2jERqPNZu7A9eKE", "types": ["premise"]}