{"address_components": [{"long_name": "Block 263", "short_name": "Block 263", "types": ["premise"]}, {"long_name": "263", "short_name": "263", "types": ["street_number"]}, {"long_name": "Boon Lay Drive", "short_name": "Boon Lay Dr", "types": ["route"]}, {"long_name": "Jurong West", "short_name": "Jurong West", "types": ["neighborhood", "political"]}, {"long_name": "Singapore", "short_name": "Singapore", "types": ["locality", "political"]}, {"long_name": "Singapore", "short_name": "SG", "types": ["country", "political"]}, {"long_name": "640263", "short_name": "640263", "types": ["postal_code"]}], "formatted_address": "263 Boon Lay Dr, Block 263, Singapore 640263", "geometry": {"bounds": {"northeast": {"lat": 1.3457149, "lng": 103.7070642}, "southwest": {"lat": 1.344858, "lng": 103.7066153}}, "location": {"lat": 1.3452923, "lng": 103.7067696}, "location_type": "ROOFTOP", "viewport": {"northeast": {"lat": 1.346635430291502, "lng": 103.7081887302915}, "southwest": {"lat": 1.343937469708498, "lng": 103.7054907697085}}}, "place_id": "ChIJyY11vOoP2jERy8l98S8m8Mc", "types": ["premise"]}