{"address_components": [{"long_name": "Block 907", "short_name": "Block 907", "types": ["premise"]}, {"long_name": "907", "short_name": "907", "types": ["street_number"]}, {"long_name": "Tampines Avenue 4", "short_name": "Tampines Ave 4", "types": ["route"]}, {"long_name": "Tampines", "short_name": "Tampines", "types": ["neighborhood", "political"]}, {"long_name": "Singapore", "short_name": "Singapore", "types": ["locality", "political"]}, {"long_name": "Singapore", "short_name": "SG", "types": ["country", "political"]}, {"long_name": "520907", "short_name": "520907", "types": ["postal_code"]}], "formatted_address": "907 Tampines Ave 4, Block 907, Singapore 520907", "geometry": {"bounds": {"northeast": {"lat": 1.3507732, "lng": 103.9397269}, "southwest": {"lat": 1.3505509, "lng": 103.9389752}}, "location": {"lat": 1.3506585, "lng": 103.9393244}, "location_type": "ROOFTOP", "viewport": {"northeast": {"lat": 1.352011030291502, "lng": 103.9407000302915}, "southwest": {"lat": 1.349313069708498, "lng": 103.9380020697085}}}, "place_id": "ChIJOy3IFBM92jERrFT0_lj9AVQ", "types": ["premise"]}