{"address_components": [{"long_name": "Block 542", "short_name": "Block 542", "types": ["premise"]}, {"long_name": "542", "short_name": "542", "types": ["street_number"]}, {"long_name": "Jurong West Avenue 1", "short_name": "Jurong West Ave 1", "types": ["route"]}, {"long_name": "Jurong West", "short_name": "Jurong West", "types": ["neighborhood", "political"]}, {"long_name": "Singapore", "short_name": "Singapore", "types": ["locality", "political"]}, {"long_name": "Singapore", "short_name": "SG", "types": ["country", "political"]}, {"long_name": "640542", "short_name": "640542", "types": ["postal_code"]}], "formatted_address": "542 Jurong West Ave 1, Block 542, Singapore 640542", "geometry": {"bounds": {"northeast": {"lat": 1.3517669, "lng": 103.7158892}, "southwest": {"lat": 1.351021, "lng": 103.7153402}}, "location": {"lat": 1.3513402, "lng": 103.7154808}, "location_type": "ROOFTOP", "viewport": {"northeast": {"lat": 1.352742930291502, "lng": 103.7169636802915}, "southwest": {"lat": 1.350044969708498, "lng": 103.7142657197085}}}, "place_id": "ChIJIdZml8QP2jERe_-EBv8XJyg", "types": ["premise"]}