{"address_components": [{"long_name": "Block 660", "short_name": "Block 660", "types": ["premise"]}, {"long_name": "660", "short_name": "660", "types": ["street_number"]}, {"long_name": "Choa Chu Kang Crescent", "short_name": "Choa Chu Kang Cres", "types": ["route"]}, {"long_name": "Choa Chu Kang", "short_name": "Choa Chu Kang", "types": ["neighborhood", "political"]}, {"long_name": "Singapore", "short_name": "Singapore", "types": ["locality", "political"]}, {"long_name": "Singapore", "short_name": "SG", "types": ["country", "political"]}, {"long_name": "680660", "short_name": "680660", "types": ["postal_code"]}], "formatted_address": "660 Choa Chu Kang Cres, Block 660, Singapore 680660", "geometry": {"bounds": {"northeast": {"lat": 1.4013339, "lng": 103.7500131}, "southwest": {"lat": 1.400789, "lng": 103.7496391}}, "location": {"lat": 1.4010562, "lng": 103.7498703}, "location_type": "ROOFTOP", "viewport": {"northeast": {"lat": 1.402410430291502, "lng": 103.7511750802915}, "southwest": {"lat": 1.399712469708498, "lng": 103.7484771197085}}}, "place_id": "ChIJ7edQcvUR2jERDvaAC4DE50c", "types": ["premise"]}