{"address_components": [{"long_name": "840", "short_name": "840", "types": ["street_number"]}, {"long_name": "Jurong West Street 81", "short_name": "Jurong West Street 81", "types": ["route"]}, {"long_name": "Jurong West", "short_name": "Jurong West", "types": ["neighborhood", "political"]}, {"long_name": "Singapore", "short_name": "Singapore", "types": ["locality", "political"]}, {"long_name": "Singapore", "short_name": "SG", "types": ["country", "political"]}, {"long_name": "640840", "short_name": "640840", "types": ["postal_code"]}], "formatted_address": "840 Jurong West Street 81, Singapore 640840", "geometry": {"bounds": {"northeast": {"lat": 1.3447091, "lng": 103.6925511}, "southwest": {"lat": 1.3437922, "lng": 103.6919374}}, "location": {"lat": 1.3442221, "lng": 103.6921335}, "location_type": "ROOFTOP", "viewport": {"northeast": {"lat": 1.345599630291502, "lng": 103.6935932302915}, "southwest": {"lat": 1.342901669708498, "lng": 103.6908952697085}}}, "place_id": "ChIJN2ZXTpgP2jERTkkydKLt4oQ", "types": ["premise"]}