{"address_components": [{"long_name": "Block 255", "short_name": "Block 255", "types": ["premise"]}, {"long_name": "255", "short_name": "255", "types": ["street_number"]}, {"long_name": "Bishan Street 22", "short_name": "Bishan Street 22", "types": ["route"]}, {"long_name": "Bishan", "short_name": "Bishan", "types": ["neighborhood", "political"]}, {"long_name": "Singapore", "short_name": "Singapore", "types": ["locality", "political"]}, {"long_name": "Singapore", "short_name": "SG", "types": ["country", "political"]}, {"long_name": "570255", "short_name": "570255", "types": ["postal_code"]}], "formatted_address": "255 Bishan Street 22, Block 255, Singapore 570255", "geometry": {"bounds": {"northeast": {"lat": 1.3618219, "lng": 103.842982}, "southwest": {"lat": 1.3614279, "lng": 103.8424292}}, "location": {"lat": 1.3616581, "lng": 103.8427753}, "location_type": "ROOFTOP", "viewport": {"northeast": {"lat": 1.362973880291502, "lng": 103.8440545802915}, "southwest": {"lat": 1.360275919708498, "lng": 103.8413566197085}}}, "place_id": "ChIJV4-8siEX2jERHvZxu0N4My8", "types": ["premise"]}