{"address_components": [{"long_name": "Block 763", "short_name": "Block 763", "types": ["premise"]}, {"long_name": "763", "short_name": "763", "types": ["street_number"]}, {"long_name": "Bedok Reservoir View", "short_name": "Bedok Reservoir View", "types": ["route"]}, {"long_name": "Bedok", "short_name": "Bedok", "types": ["neighborhood", "political"]}, {"long_name": "Singapore", "short_name": "Singapore", "types": ["locality", "political"]}, {"long_name": "Singapore", "short_name": "SG", "types": ["country", "political"]}, {"long_name": "470763", "short_name": "470763", "types": ["postal_code"]}], "formatted_address": "763 Bedok Reservoir View, Block 763, Singapore 470763", "geometry": {"bounds": {"northeast": {"lat": 1.3364333, "lng": 103.9351924}, "southwest": {"lat": 1.3359992, "lng": 103.9347204}}, "location": {"lat": 1.3362289, "lng": 103.9350188}, "location_type": "ROOFTOP", "viewport": {"northeast": {"lat": 1.337565230291502, "lng": 103.9363053802915}, "southwest": {"lat": 1.334867269708498, "lng": 103.9336074197085}}}, "place_id": "ChIJ9dGozEc92jER00a_gGtkrqU", "types": ["premise"]}