{"address_components": [{"long_name": "Block 688A", "short_name": "Block 688A", "types": ["premise"]}, {"long_name": "688A", "short_name": "688A", "types": ["street_number"]}, {"long_name": "Choa Chu Kang Drive", "short_name": "Choa Chu Kang Dr", "types": ["route"]}, {"long_name": "Choa Chu Kang", "short_name": "Choa Chu Kang", "types": ["neighborhood", "political"]}, {"long_name": "Singapore", "short_name": "Singapore", "types": ["locality", "political"]}, {"long_name": "Singapore", "short_name": "SG", "types": ["country", "political"]}, {"long_name": "681688", "short_name": "681688", "types": ["postal_code"]}], "formatted_address": "688A Choa Chu Kang Dr, Block 688A, Singapore 681688", "geometry": {"bounds": {"northeast": {"lat": 1.4040505, "lng": 103.7508185}, "southwest": {"lat": 1.4037289, "lng": 103.7502303}}, "location": {"lat": 1.4038586, "lng": 103.7506084}, "location_type": "ROOFTOP", "viewport": {"northeast": {"lat": 1.405238680291502, "lng": 103.7518733802915}, "southwest": {"lat": 1.402540719708498, "lng": 103.7491754197085}}}, "place_id": "ChIJeUh3ox8S2jER8sosInZjD2Y", "types": ["premise"]}