{"address_components": [{"long_name": "Block 677A", "short_name": "Block 677A", "types": ["premise"]}, {"long_name": "677A", "short_name": "677A", "types": ["street_number"]}, {"long_name": "Jurong West Street 64", "short_name": "Jurong West Street 64", "types": ["route"]}, {"long_name": "Jurong West", "short_name": "Jurong West", "types": ["neighborhood", "political"]}, {"long_name": "Singapore", "short_name": "Singapore", "types": ["locality", "political"]}, {"long_name": "Singapore", "short_name": "SG", "types": ["country", "political"]}, {"long_name": "641677", "short_name": "641677", "types": ["postal_code"]}], "formatted_address": "677A Jurong West Street 64, Block 677A, Singapore 641677", "geometry": {"bounds": {"northeast": {"lat": 1.3459341, "lng": 103.7051346}, "southwest": {"lat": 1.345539, "lng": 103.7047335}}, "location": {"lat": 1.3456877, "lng": 103.7048921}, "location_type": "ROOFTOP", "viewport": {"northeast": {"lat": 1.347085530291502, "lng": 103.7062830302915}, "southwest": {"lat": 1.344387569708498, "lng": 103.7035850697085}}}, "place_id": "ChIJcTs-WpUP2jERWysykBzLZUM", "types": ["premise"]}