{"address_components": [{"long_name": "Block 897B", "short_name": "Block 897B", "types": ["premise"]}, {"long_name": "897B", "short_name": "897B", "types": ["street_number"]}, {"long_name": "Woodlands Drive 50", "short_name": "Woodlands Drive 50", "types": ["route"]}, {"long_name": "Woodlands", "short_name": "Woodlands", "types": ["neighborhood", "political"]}, {"long_name": "Singapore", "short_name": "Singapore", "types": ["locality", "political"]}, {"long_name": "Singapore", "short_name": "SG", "types": ["country", "political"]}, {"long_name": "731897", "short_name": "731897", "types": ["postal_code"]}], "formatted_address": "897B Woodlands Drive 50, Block 897B, Singapore 731897", "geometry": {"bounds": {"northeast": {"lat": 1.436229, "lng": 103.7943953}, "southwest": {"lat": 1.4359691, "lng": 103.7936997}}, "location": {"lat": 1.4361204, "lng": 103.793825}, "location_type": "ROOFTOP", "viewport": {"northeast": {"lat": 1.437448030291502, "lng": 103.7953964802915}, "southwest": {"lat": 1.434750069708498, "lng": 103.7926985197085}}}, "place_id": "ChIJja1HPqET2jER_Nk_BNYljsY", "types": ["premise"]}