{"address_components": [{"long_name": "Block 355", "short_name": "Block 355", "types": ["premise"]}, {"long_name": "355", "short_name": "355", "types": ["street_number"]}, {"long_name": "Choa Chu Kang Central", "short_name": "Choa Chu Kang Central", "types": ["route"]}, {"long_name": "Choa Chu Kang", "short_name": "Choa Chu Kang", "types": ["neighborhood", "political"]}, {"long_name": "Singapore", "short_name": "Singapore", "types": ["locality", "political"]}, {"long_name": "Singapore", "short_name": "SG", "types": ["country", "political"]}, {"long_name": "680355", "short_name": "680355", "types": ["postal_code"]}], "formatted_address": "355 Choa Chu Kang Central, Block 355, Singapore 680355", "geometry": {"bounds": {"northeast": {"lat": 1.383364, "lng": 103.7440569}, "southwest": {"lat": 1.3828, "lng": 103.743685}}, "location": {"lat": 1.3830339, "lng": 103.7438283}, "location_type": "ROOFTOP", "viewport": {"northeast": {"lat": 1.384430980291502, "lng": 103.7452199302915}, "southwest": {"lat": 1.381733019708498, "lng": 103.7425219697085}}}, "place_id": "ChIJFTDfe8IR2jERYp1LeHgc91Q", "types": ["premise"]}