{"address_components": [{"long_name": "Block 160A", "short_name": "Block 160A", "types": ["premise"]}, {"long_name": "160A", "short_name": "160A", "types": ["street_number"]}, {"long_name": "Punggol Central", "short_name": "Punggol Central", "types": ["route"]}, {"long_name": "Punggol", "short_name": "Punggol", "types": ["neighborhood", "political"]}, {"long_name": "Singapore", "short_name": "Singapore", "types": ["locality", "political"]}, {"long_name": "Singapore", "short_name": "SG", "types": ["country", "political"]}, {"long_name": "821160", "short_name": "821160", "types": ["postal_code"]}], "formatted_address": "160A Punggol Central, Block 160A, Singapore 821160", "geometry": {"bounds": {"northeast": {"lat": 1.3957714, "lng": 103.9158034}, "southwest": {"lat": 1.3951234, "lng": 103.9154775}}, "location": {"lat": 1.3956609, "lng": 103.9157132}, "location_type": "ROOFTOP", "viewport": {"northeast": {"lat": 1.396796380291502, "lng": 103.9169894302915}, "southwest": {"lat": 1.394098419708498, "lng": 103.9142914697085}}}, "place_id": "ChIJgwi9v_g92jERDbQCdOovnME", "types": ["premise"]}