{"address_components": [{"long_name": "Block 514", "short_name": "Block 514", "types": ["premise"]}, {"long_name": "514", "short_name": "514", "types": ["street_number"]}, {"long_name": "Woodlands Drive 14", "short_name": "Woodlands Drive 14", "types": ["route"]}, {"long_name": "Woodlands", "short_name": "Woodlands", "types": ["neighborhood", "political"]}, {"long_name": "Singapore", "short_name": "Singapore", "types": ["locality", "political"]}, {"long_name": "Singapore", "short_name": "SG", "types": ["country", "political"]}, {"long_name": "730514", "short_name": "730514", "types": ["postal_code"]}], "formatted_address": "514 Woodlands Drive 14, Block 514, Singapore 730514", "geometry": {"bounds": {"northeast": {"lat": 1.434902, "lng": 103.7899951}, "southwest": {"lat": 1.4342989, "lng": 103.789317}}, "location": {"lat": 1.4346749, "lng": 103.7898406}, "location_type": "ROOFTOP", "viewport": {"northeast": {"lat": 1.435949430291502, "lng": 103.7910050302915}, "southwest": {"lat": 1.433251469708498, "lng": 103.7883070697085}}}, "place_id": "ChIJhxrg1KUT2jERjS_z1L49jKg", "types": ["premise"]}