{"address_components": [{"long_name": "Block 660", "short_name": "Block 660", "types": ["premise"]}, {"long_name": "660", "short_name": "660", "types": ["street_number"]}, {"long_name": "Yishun Avenue 4", "short_name": "Yishun Ave 4", "types": ["route"]}, {"long_name": "Yishun", "short_name": "Yishun", "types": ["neighborhood", "political"]}, {"long_name": "Singapore", "short_name": "Singapore", "types": ["locality", "political"]}, {"long_name": "Singapore", "short_name": "SG", "types": ["country", "political"]}, {"long_name": "760660", "short_name": "760660", "types": ["postal_code"]}], "formatted_address": "660 Yishun Ave 4, Block 660, Singapore 760660", "geometry": {"bounds": {"northeast": {"lat": 1.4220191, "lng": 103.8404539}, "southwest": {"lat": 1.4214891, "lng": 103.839397}}, "location": {"lat": 1.4219282, "lng": 103.8403296}, "location_type": "ROOFTOP", "viewport": {"northeast": {"lat": 1.423103080291502, "lng": 103.8412744302915}, "southwest": {"lat": 1.420405119708498, "lng": 103.8385764697085}}}, "place_id": "ChIJm28gaWsU2jERDScwqrT70DY", "types": ["premise"]}