{"address_components": [{"long_name": "Block 874", "short_name": "Block 874", "types": ["premise"]}, {"long_name": "874", "short_name": "874", "types": ["street_number"]}, {"long_name": "Yishun Street 81", "short_name": "Yishun Street 81", "types": ["route"]}, {"long_name": "Yishun", "short_name": "Yishun", "types": ["neighborhood", "political"]}, {"long_name": "Singapore", "short_name": "Singapore", "types": ["locality", "political"]}, {"long_name": "Singapore", "short_name": "SG", "types": ["country", "political"]}, {"long_name": "760874", "short_name": "760874", "types": ["postal_code"]}], "formatted_address": "874 Yishun Street 81, Block 874, Singapore 760874", "geometry": {"bounds": {"northeast": {"lat": 1.4155725, "lng": 103.8364406}, "southwest": {"lat": 1.4150688, "lng": 103.8357831}}, "location": {"lat": 1.4152774, "lng": 103.8363441}, "location_type": "ROOFTOP", "viewport": {"northeast": {"lat": 1.416669630291502, "lng": 103.8374608302915}, "southwest": {"lat": 1.413971669708498, "lng": 103.8347628697085}}}, "place_id": "ChIJyVEzghEU2jERwMtWbfupnyI", "types": ["premise"]}