{"address_components": [{"long_name": "Block 329", "short_name": "Block 329", "types": ["premise"]}, {"long_name": "329", "short_name": "329", "types": ["street_number"]}, {"long_name": "Bukit Batok Street 33", "short_name": "Bukit Batok Street 33", "types": ["route"]}, {"long_name": "Bukit Batok", "short_name": "Bukit Batok", "types": ["neighborhood", "political"]}, {"long_name": "Singapore", "short_name": "Singapore", "types": ["locality", "political"]}, {"long_name": "Singapore", "short_name": "SG", "types": ["country", "political"]}, {"long_name": "650329", "short_name": "650329", "types": ["postal_code"]}], "formatted_address": "329 Bukit Batok Street 33, Block 329, Singapore 650329", "geometry": {"bounds": {"northeast": {"lat": 1.363357, "lng": 103.747969}, "southwest": {"lat": 1.3627729, "lng": 103.747239}}, "location": {"lat": 1.363312, "lng": 103.7476978}, "location_type": "ROOFTOP", "viewport": {"northeast": {"lat": 1.364413930291502, "lng": 103.7489529802915}, "southwest": {"lat": 1.361715969708498, "lng": 103.7462550197085}}}, "place_id": "ChIJMYhykzQQ2jER88nAEbGDPWE", "types": ["premise"]}