{"address_components": [{"long_name": "Block 160B", "short_name": "Block 160B", "types": ["premise"]}, {"long_name": "160B", "short_name": "160B", "types": ["street_number"]}, {"long_name": "Punggol Central", "short_name": "Punggol Central", "types": ["route"]}, {"long_name": "Punggol", "short_name": "Punggol", "types": ["neighborhood", "political"]}, {"long_name": "Singapore", "short_name": "Singapore", "types": ["locality", "political"]}, {"long_name": "Singapore", "short_name": "SG", "types": ["country", "political"]}, {"long_name": "822160", "short_name": "822160", "types": ["postal_code"]}], "formatted_address": "160B Punggol Central, Block 160B, Singapore 822160", "geometry": {"bounds": {"northeast": {"lat": 1.3955466, "lng": 103.9162027}, "southwest": {"lat": 1.3951245, "lng": 103.9158536}}, "location": {"lat": 1.3953655, "lng": 103.9160757}, "location_type": "ROOFTOP", "viewport": {"northeast": {"lat": 1.396684530291502, "lng": 103.9173771302915}, "southwest": {"lat": 1.393986569708498, "lng": 103.9146791697085}}}, "place_id": "ChIJdbo0wPg92jERkA4cJkXmA5c", "types": ["premise"]}