{"address_components": [{"long_name": "Block 91", "short_name": "Block 91", "types": ["premise"]}, {"long_name": "91", "short_name": "91", "types": ["street_number"]}, {"long_name": "Bedok North Street 4", "short_name": "Bedok North Street 4", "types": ["route"]}, {"long_name": "Bedok", "short_name": "Bedok", "types": ["neighborhood", "political"]}, {"long_name": "Singapore", "short_name": "Singapore", "types": ["locality", "political"]}, {"long_name": "Singapore", "short_name": "SG", "types": ["country", "political"]}, {"long_name": "460091", "short_name": "460091", "types": ["postal_code"]}], "formatted_address": "91 Bedok North Street 4, Block 91, Singapore 460091", "geometry": {"bounds": {"northeast": {"lat": 1.3327463, "lng": 103.9407987}, "southwest": {"lat": 1.3323726, "lng": 103.939843}}, "location": {"lat": 1.3325399, "lng": 103.9402762}, "location_type": "ROOFTOP", "viewport": {"northeast": {"lat": 1.333908430291502, "lng": 103.9416698302915}, "southwest": {"lat": 1.331210469708498, "lng": 103.9389718697085}}}, "place_id": "ChIJAcr-VjY92jER3pjMGGFJ1mo", "types": ["premise"]}