{"address_components": [{"long_name": "Block 402", "short_name": "Block 402", "types": ["premise"]}, {"long_name": "402", "short_name": "402", "types": ["street_number"]}, {"long_name": "Serangoon Avenue 1", "short_name": "Serangoon Ave 1", "types": ["route"]}, {"long_name": "Serangoon", "short_name": "Serangoon", "types": ["neighborhood", "political"]}, {"long_name": "Singapore", "short_name": "Singapore", "types": ["locality", "political"]}, {"long_name": "Singapore", "short_name": "SG", "types": ["country", "political"]}, {"long_name": "550402", "short_name": "550402", "types": ["postal_code"]}], "formatted_address": "402 Serangoon Ave 1, Block 402, Singapore 550402", "geometry": {"bounds": {"northeast": {"lat": 1.346965, "lng": 103.873138}, "southwest": {"lat": 1.346548, "lng": 103.8725311}}, "location": {"lat": 1.3466157, "lng": 103.873033}, "location_type": "ROOFTOP", "viewport": {"northeast": {"lat": 1.348105480291502, "lng": 103.8741835302915}, "southwest": {"lat": 1.345407519708498, "lng": 103.8714855697085}}}, "place_id": "ChIJ58flkKEX2jERNHCWOT7zJVo", "types": ["premise"]}