{"address_components": [{"long_name": "Block 405", "short_name": "Block 405", "types": ["premise"]}, {"long_name": "405", "short_name": "405", "types": ["street_number"]}, {"long_name": "Ang Mo Kio Avenue 10", "short_name": "Ang Mo Kio Ave 10", "types": ["route"]}, {"long_name": "Ang Mo Kio", "short_name": "Ang Mo Kio", "types": ["neighborhood", "political"]}, {"long_name": "Singapore", "short_name": "Singapore", "types": ["locality", "political"]}, {"long_name": "Singapore", "short_name": "SG", "types": ["country", "political"]}, {"long_name": "560405", "short_name": "560405", "types": ["postal_code"]}], "formatted_address": "405 Ang Mo Kio Ave 10, Block 405, Singapore 560405", "geometry": {"bounds": {"northeast": {"lat": 1.3619348, "lng": 103.8541552}, "southwest": {"lat": 1.3614052, "lng": 103.8532484}}, "location": {"lat": 1.3617045, "lng": 103.8536003}, "location_type": "ROOFTOP", "viewport": {"northeast": {"lat": 1.363018980291502, "lng": 103.8550507802915}, "southwest": {"lat": 1.360321019708498, "lng": 103.8523528197085}}}, "place_id": "ChIJxwHV_xwX2jERk-6-AB_0l-Y", "types": ["premise"]}