{"address_components": [{"long_name": "Block 624", "short_name": "Block 624", "types": ["premise"]}, {"long_name": "624", "short_name": "624", "types": ["street_number"]}, {"long_name": "Jurong West Street 61", "short_name": "Jurong West Street 61", "types": ["route"]}, {"long_name": "Jurong West", "short_name": "Jurong West", "types": ["neighborhood", "political"]}, {"long_name": "Singapore", "short_name": "Singapore", "types": ["locality", "political"]}, {"long_name": "Singapore", "short_name": "SG", "types": ["country", "political"]}, {"long_name": "640624", "short_name": "640624", "types": ["postal_code"]}], "formatted_address": "624 Jurong West Street 61, Block 624, Singapore 640624", "geometry": {"bounds": {"northeast": {"lat": 1.3412776, "lng": 103.6981547}, "southwest": {"lat": 1.3406965, "lng": 103.6975851}}, "location": {"lat": 1.3410511, "lng": 103.6977639}, "location_type": "ROOFTOP", "viewport": {"northeast": {"lat": 1.342336030291502, "lng": 103.6992188802915}, "southwest": {"lat": 1.339638069708498, "lng": 103.6965209197085}}}, "place_id": "ChIJn5o3MJEP2jER1aXkPPWEczQ", "types": ["premise"]}