{"address_components": [{"long_name": "Block 76", "short_name": "Block 76", "types": ["premise"]}, {"long_name": "76A", "short_name": "76A", "types": ["street_number"]}, {"long_name": "Redhill Road", "short_name": "Redhill Rd", "types": ["route"]}, {"long_name": "Bukit Merah", "short_name": "Bukit Merah", "types": ["neighborhood", "political"]}, {"long_name": "Singapore", "short_name": "Singapore", "types": ["locality", "political"]}, {"long_name": "Singapore", "short_name": "SG", "types": ["country", "political"]}, {"long_name": "151076", "short_name": "151076", "types": ["postal_code"]}], "formatted_address": "76A Redhill Rd, Block 76, Singapore 151076", "geometry": {"bounds": {"northeast": {"lat": 1.289016, "lng": 103.8169489}, "southwest": {"lat": 1.2885769, "lng": 103.8165129}}, "location": {"lat": 1.288727, "lng": 103.8168261}, "location_type": "ROOFTOP", "viewport": {"northeast": {"lat": 1.290145430291502, "lng": 103.8180798802915}, "southwest": {"lat": 1.287447469708498, "lng": 103.8153819197085}}}, "partial_match": true, "place_id": "ChIJl0FVsNQb2jERJLJ1RTxvb8Y", "types": ["premise"]}