{"address_components": [{"long_name": "Block 988A", "short_name": "Block 988A", "types": ["premise"]}, {"long_name": "988A", "short_name": "988A", "types": ["street_number"]}, {"long_name": "Jurong West Street 93", "short_name": "Jurong West Street 93", "types": ["route"]}, {"long_name": "Jurong West", "short_name": "Jurong West", "types": ["neighborhood", "political"]}, {"long_name": "Singapore", "short_name": "Singapore", "types": ["locality", "political"]}, {"long_name": "Singapore", "short_name": "SG", "types": ["country", "political"]}, {"long_name": "641988", "short_name": "641988", "types": ["postal_code"]}], "formatted_address": "988A Jurong West Street 93, Block 988A, Singapore 641988", "geometry": {"bounds": {"northeast": {"lat": 1.3367155, "lng": 103.6960439}, "southwest": {"lat": 1.3356354, "lng": 103.6955982}}, "location": {"lat": 1.3361976, "lng": 103.6957732}, "location_type": "ROOFTOP", "viewport": {"northeast": {"lat": 1.337524430291502, "lng": 103.6971700302915}, "southwest": {"lat": 1.334826469708498, "lng": 103.6944720697085}}}, "place_id": "ChIJwZ0U3o8P2jERBn_UqghAJFg", "types": ["premise"]}