{"address_components": [{"long_name": "Block 184", "short_name": "Block 184", "types": ["premise"]}, {"long_name": "184", "short_name": "184", "types": ["street_number"]}, {"long_name": "Bukit Batok West Avenue 8", "short_name": "Bukit Batok West Ave 8", "types": ["route"]}, {"long_name": "Bukit Batok", "short_name": "Bukit Batok", "types": ["neighborhood", "political"]}, {"long_name": "Singapore", "short_name": "Singapore", "types": ["locality", "political"]}, {"long_name": "Singapore", "short_name": "SG", "types": ["country", "political"]}, {"long_name": "650184", "short_name": "650184", "types": ["postal_code"]}], "formatted_address": "184 Bukit Batok West Ave 8, Block 184, Singapore 650184", "geometry": {"bounds": {"northeast": {"lat": 1.3465246, "lng": 103.7440274}, "southwest": {"lat": 1.3459992, "lng": 103.7436669}}, "location": {"lat": 1.3463435, "lng": 103.7438082}, "location_type": "ROOFTOP", "viewport": {"northeast": {"lat": 1.347610880291502, "lng": 103.7451961302915}, "southwest": {"lat": 1.344912919708498, "lng": 103.7424981697085}}}, "place_id": "ChIJf-YThD0Q2jERDZWQiiLuZCI", "types": ["premise"]}