{"address_components": [{"long_name": "Block 211", "short_name": "Block 211", "types": ["premise"]}, {"long_name": "211", "short_name": "211", "types": ["street_number"]}, {"long_name": "Jurong East Street 21", "short_name": "Jurong East Street 21", "types": ["route"]}, {"long_name": "Jurong East", "short_name": "Jurong East", "types": ["neighborhood", "political"]}, {"long_name": "Singapore", "short_name": "Singapore", "types": ["locality", "political"]}, {"long_name": "Singapore", "short_name": "SG", "types": ["country", "political"]}, {"long_name": "600211", "short_name": "600211", "types": ["postal_code"]}], "formatted_address": "211 Jurong East Street 21, Block 211, Singapore 600211", "geometry": {"bounds": {"northeast": {"lat": 1.338749, "lng": 103.740517}, "southwest": {"lat": 1.338231, "lng": 103.739487}}, "location": {"lat": 1.3386675, "lng": 103.740004}, "location_type": "ROOFTOP", "viewport": {"northeast": {"lat": 1.339838980291502, "lng": 103.7413509802915}, "southwest": {"lat": 1.337141019708498, "lng": 103.7386530197085}}}, "place_id": "ChIJM4w3hBoQ2jERGebtxxRW9QM", "types": ["premise"]}