{"address_components": [{"long_name": "Block 526", "short_name": "Block 526", "types": ["premise"]}, {"long_name": "526", "short_name": "526", "types": ["street_number"]}, {"long_name": "Hougang Avenue 6", "short_name": "Hougang Ave 6", "types": ["route"]}, {"long_name": "Hougang", "short_name": "Hougang", "types": ["neighborhood", "political"]}, {"long_name": "Singapore", "short_name": "Singapore", "types": ["locality", "political"]}, {"long_name": "Singapore", "short_name": "SG", "types": ["country", "political"]}, {"long_name": "530526", "short_name": "530526", "types": ["postal_code"]}], "formatted_address": "526 Hougang Ave 6, Block 526, Singapore 530526", "geometry": {"bounds": {"northeast": {"lat": 1.3745701, "lng": 103.8911433}, "southwest": {"lat": 1.3742741, "lng": 103.8898691}}, "location": {"lat": 1.3743822, "lng": 103.8900219}, "location_type": "ROOFTOP", "viewport": {"northeast": {"lat": 1.375771080291502, "lng": 103.8918551802915}, "southwest": {"lat": 1.373073119708498, "lng": 103.8891572197085}}}, "place_id": "ChIJZWSfkkcW2jERqAwIGyK2JMo", "types": ["premise"]}