{"address_components": [{"long_name": "Block 611", "short_name": "Block 611", "types": ["premise"]}, {"long_name": "611", "short_name": "611", "types": ["street_number"]}, {"long_name": "Hougang Avenue 8", "short_name": "Hougang Ave 8", "types": ["route"]}, {"long_name": "Hougang", "short_name": "Hougang", "types": ["neighborhood", "political"]}, {"long_name": "Singapore", "short_name": "Singapore", "types": ["locality", "political"]}, {"long_name": "Singapore", "short_name": "SG", "types": ["country", "political"]}, {"long_name": "530611", "short_name": "530611", "types": ["postal_code"]}], "formatted_address": "611 Hougang Ave 8, Block 611, Singapore 530611", "geometry": {"bounds": {"northeast": {"lat": 1.3701684, "lng": 103.8851907}, "southwest": {"lat": 1.3698771, "lng": 103.884297}}, "location": {"lat": 1.3700555, "lng": 103.8846305}, "location_type": "ROOFTOP", "viewport": {"northeast": {"lat": 1.371371730291502, "lng": 103.8860928302915}, "southwest": {"lat": 1.368673769708498, "lng": 103.8833948697085}}}, "place_id": "ChIJJRZPz04W2jERN_NO_tU4B0c", "types": ["premise"]}