{"address_components": [{"long_name": "Block 838", "short_name": "Block 838", "types": ["premise"]}, {"long_name": "838", "short_name": "838", "types": ["street_number"]}, {"long_name": "Tampines Street 82", "short_name": "Tampines Street 82", "types": ["route"]}, {"long_name": "Tampines", "short_name": "Tampines", "types": ["neighborhood", "political"]}, {"long_name": "Singapore", "short_name": "Singapore", "types": ["locality", "political"]}, {"long_name": "Singapore", "short_name": "SG", "types": ["country", "political"]}, {"long_name": "520838", "short_name": "520838", "types": ["postal_code"]}], "formatted_address": "838 Tampines Street 82, Block 838, Singapore 520838", "geometry": {"bounds": {"northeast": {"lat": 1.351024, "lng": 103.9356939}, "southwest": {"lat": 1.3506062, "lng": 103.934993}}, "location": {"lat": 1.3507914, "lng": 103.9353813}, "location_type": "ROOFTOP", "viewport": {"northeast": {"lat": 1.352164080291502, "lng": 103.9366924302915}, "southwest": {"lat": 1.349466119708498, "lng": 103.9339944697085}}}, "place_id": "ChIJD1088mw92jERxKxxFwmL6ME", "types": ["premise"]}