{"address_components": [{"long_name": "Block 86", "short_name": "Block 86", "types": ["premise"]}, {"long_name": "86", "short_name": "86", "types": ["street_number"]}, {"long_name": "Lorong 2 Toa Payoh", "short_name": "Lor 2 Toa Payoh", "types": ["route"]}, {"long_name": "Toa Payoh", "short_name": "Toa Payoh", "types": ["neighborhood", "political"]}, {"long_name": "Singapore", "short_name": "Singapore", "types": ["locality", "political"]}, {"long_name": "Singapore", "short_name": "SG", "types": ["country", "political"]}, {"long_name": "310086", "short_name": "310086", "types": ["postal_code"]}], "formatted_address": "86 Lor 2 Toa Payoh, Block 86, Singapore 310086", "geometry": {"bounds": {"northeast": {"lat": 1.3360932, "lng": 103.8478074}, "southwest": {"lat": 1.3354481, "lng": 103.8475703}}, "location": {"lat": 1.3354853, "lng": 103.8476701}, "location_type": "ROOFTOP", "viewport": {"northeast": {"lat": 1.337119630291502, "lng": 103.8490378302915}, "southwest": {"lat": 1.334421669708498, "lng": 103.8463398697085}}}, "place_id": "ChIJy2Uu1WcX2jERcRkASVKlrwk", "types": ["premise"]}