{"address_components": [{"long_name": "Block 320", "short_name": "Block 320", "types": ["premise"]}, {"long_name": "320", "short_name": "320", "types": ["street_number"]}, {"long_name": "Jurong East Street 31", "short_name": "Jurong East Street 31", "types": ["route"]}, {"long_name": "Jurong East", "short_name": "Jurong East", "types": ["neighborhood", "political"]}, {"long_name": "Singapore", "short_name": "Singapore", "types": ["locality", "political"]}, {"long_name": "Singapore", "short_name": "SG", "types": ["country", "political"]}, {"long_name": "600320", "short_name": "600320", "types": ["postal_code"]}], "formatted_address": "320 Jurong East Street 31, Block 320, Singapore 600320", "geometry": {"bounds": {"northeast": {"lat": 1.3488526, "lng": 103.731096}, "southwest": {"lat": 1.3480737, "lng": 103.730371}}, "location": {"lat": 1.348248, "lng": 103.7310467}, "location_type": "ROOFTOP", "viewport": {"northeast": {"lat": 1.349812130291502, "lng": 103.7320824802915}, "southwest": {"lat": 1.347114169708498, "lng": 103.7293845197085}}}, "place_id": "ChIJr5GC9iAQ2jERikMA-XVBBFA", "types": ["premise"]}