{"address_components": [{"long_name": "Block 408", "short_name": "Block 408", "types": ["premise"]}, {"long_name": "408", "short_name": "408", "types": ["street_number"]}, {"long_name": "Pandan Gardens", "short_name": "Pandan Gardens", "types": ["route"]}, {"long_name": "Jurong East", "short_name": "Jurong East", "types": ["neighborhood", "political"]}, {"long_name": "Singapore", "short_name": "Singapore", "types": ["locality", "political"]}, {"long_name": "Singapore", "short_name": "SG", "types": ["country", "political"]}, {"long_name": "600408", "short_name": "600408", "types": ["postal_code"]}], "formatted_address": "408 Pandan Gardens, Block 408, Singapore 600408", "geometry": {"bounds": {"northeast": {"lat": 1.3184019, "lng": 103.749227}, "southwest": {"lat": 1.318111, "lng": 103.748363}}, "location": {"lat": 1.3182625, "lng": 103.7487841}, "location_type": "ROOFTOP", "viewport": {"northeast": {"lat": 1.319605430291502, "lng": 103.7501439802915}, "southwest": {"lat": 1.316907469708498, "lng": 103.7474460197085}}}, "place_id": "ChIJG7VrL6Ma2jER7bi2tGP1Aus", "types": ["premise"]}