{"address_components": [{"long_name": "Block 554", "short_name": "Block 554", "types": ["premise"]}, {"long_name": "554", "short_name": "554", "types": ["street_number"]}, {"long_name": "Jurong West Street 42", "short_name": "Jurong West Street 42", "types": ["route"]}, {"long_name": "Jurong West", "short_name": "Jurong West", "types": ["neighborhood", "political"]}, {"long_name": "Singapore", "short_name": "Singapore", "types": ["locality", "political"]}, {"long_name": "Singapore", "short_name": "SG", "types": ["country", "political"]}, {"long_name": "640554", "short_name": "640554", "types": ["postal_code"]}], "formatted_address": "554 Jurong West Street 42, Block 554, Singapore 640554", "geometry": {"bounds": {"northeast": {"lat": 1.3534897, "lng": 103.7182899}, "southwest": {"lat": 1.3530712, "lng": 103.7173713}}, "location": {"lat": 1.3532631, "lng": 103.717785}, "location_type": "ROOFTOP", "viewport": {"northeast": {"lat": 1.354629430291502, "lng": 103.7191795802915}, "southwest": {"lat": 1.351931469708498, "lng": 103.7164816197085}}}, "place_id": "ChIJeTT41toP2jERMxdEyFWsd4A", "types": ["premise"]}