{"address_components": [{"long_name": "Block 249", "short_name": "Block 249", "types": ["premise"]}, {"long_name": "249", "short_name": "249", "types": ["street_number"]}, {"long_name": "Tampines Street 21", "short_name": "Tampines Street 21", "types": ["route"]}, {"long_name": "Tampines", "short_name": "Tampines", "types": ["neighborhood", "political"]}, {"long_name": "Singapore", "short_name": "Singapore", "types": ["locality", "political"]}, {"long_name": "Singapore", "short_name": "SG", "types": ["country", "political"]}, {"long_name": "520249", "short_name": "520249", "types": ["postal_code"]}], "formatted_address": "249 Tampines Street 21, Block 249, Singapore 520249", "geometry": {"bounds": {"northeast": {"lat": 1.3521751, "lng": 103.9489474}, "southwest": {"lat": 1.3518022, "lng": 103.9479844}}, "location": {"lat": 1.3518862, "lng": 103.9484346}, "location_type": "ROOFTOP", "viewport": {"northeast": {"lat": 1.353337630291502, "lng": 103.9498148802915}, "southwest": {"lat": 1.350639669708498, "lng": 103.9471169197085}}}, "place_id": "ChIJMeChZBA92jERmoN1vxBX6Ao", "types": ["premise"]}