{"address_components": [{"long_name": "Block 351", "short_name": "Block 351", "types": ["premise"]}, {"long_name": "351", "short_name": "351", "types": ["street_number"]}, {"long_name": "Woodlands Avenue 1", "short_name": "Woodlands Ave 1", "types": ["route"]}, {"long_name": "Woodlands", "short_name": "Woodlands", "types": ["neighborhood", "political"]}, {"long_name": "Singapore", "short_name": "Singapore", "types": ["locality", "political"]}, {"long_name": "Singapore", "short_name": "SG", "types": ["country", "political"]}, {"long_name": "730351", "short_name": "730351", "types": ["postal_code"]}], "formatted_address": "351 Woodlands Ave 1, Block 351, Singapore 730351", "geometry": {"bounds": {"northeast": {"lat": 1.432795, "lng": 103.7845111}, "southwest": {"lat": 1.4319351, "lng": 103.783996}}, "location": {"lat": 1.4321764, "lng": 103.7843626}, "location_type": "ROOFTOP", "viewport": {"northeast": {"lat": 1.433714030291502, "lng": 103.7856025302915}, "southwest": {"lat": 1.431016069708498, "lng": 103.7829045697085}}}, "place_id": "ChIJ81xmqq8T2jERmdGnfBOboVs", "types": ["premise"]}