{"address_components": [{"long_name": "Block 409", "short_name": "Block 409", "types": ["premise"]}, {"long_name": "409", "short_name": "409", "types": ["street_number"]}, {"long_name": "Bukit Batok West Avenue 4", "short_name": "Bukit Batok West Ave 4", "types": ["route"]}, {"long_name": "Bukit Batok", "short_name": "Bukit Batok", "types": ["neighborhood", "political"]}, {"long_name": "Singapore", "short_name": "Singapore", "types": ["locality", "political"]}, {"long_name": "Singapore", "short_name": "SG", "types": ["country", "political"]}, {"long_name": "650409", "short_name": "650409", "types": ["postal_code"]}], "formatted_address": "409 Bukit Batok West Ave 4, Block 409, Singapore 650409", "geometry": {"bounds": {"northeast": {"lat": 1.3645591, "lng": 103.746165}, "southwest": {"lat": 1.3643929, "lng": 103.7454361}}, "location": {"lat": 1.3644956, "lng": 103.745797}, "location_type": "ROOFTOP", "viewport": {"northeast": {"lat": 1.365824980291502, "lng": 103.7471495302915}, "southwest": {"lat": 1.363127019708498, "lng": 103.7444515697085}}}, "place_id": "ChIJg7EIUzMQ2jER6xPrn0_E9qA", "types": ["premise"]}