{"address_components": [{"long_name": "Block 157", "short_name": "Block 157", "types": ["premise"]}, {"long_name": "157", "short_name": "157", "types": ["street_number"]}, {"long_name": "Bishan Street 13", "short_name": "Bishan Street 13", "types": ["route"]}, {"long_name": "Bishan", "short_name": "Bishan", "types": ["neighborhood", "political"]}, {"long_name": "Singapore", "short_name": "Singapore", "types": ["locality", "political"]}, {"long_name": "Singapore", "short_name": "SG", "types": ["country", "political"]}, {"long_name": "570157", "short_name": "570157", "types": ["postal_code"]}], "formatted_address": "157 Bishan Street 13, Block 157, Singapore 570157", "geometry": {"bounds": {"northeast": {"lat": 1.346192, "lng": 103.8569971}, "southwest": {"lat": 1.3456116, "lng": 103.8563801}}, "location": {"lat": 1.3459049, "lng": 103.8567256}, "location_type": "ROOFTOP", "viewport": {"northeast": {"lat": 1.347250780291502, "lng": 103.8580375802915}, "southwest": {"lat": 1.344552819708498, "lng": 103.8553396197085}}}, "place_id": "ChIJRWp1WQ0X2jERNDCVPTZveYo", "types": ["premise"]}