{"address_components": [{"long_name": "282A", "short_name": "282A", "types": ["street_number"]}, {"long_name": "Sengkang East Avenue", "short_name": "Sengkang E Ave", "types": ["route"]}, {"long_name": "Sengkang", "short_name": "Sengkang", "types": ["neighborhood", "political"]}, {"long_name": "Singapore", "short_name": "Singapore", "types": ["locality", "political"]}, {"long_name": "Singapore", "short_name": "SG", "types": ["country", "political"]}, {"long_name": "541282", "short_name": "541282", "types": ["postal_code"]}], "formatted_address": "282A Sengkang E Ave, Singapore 541282", "geometry": {"bounds": {"northeast": {"lat": 1.3854061, "lng": 103.8923151}, "southwest": {"lat": 1.3851734, "lng": 103.8918109}}, "location": {"lat": 1.385323, "lng": 103.8921513}, "location_type": "ROOFTOP", "viewport": {"northeast": {"lat": 1.386638730291502, "lng": 103.8934119802915}, "southwest": {"lat": 1.383940769708498, "lng": 103.8907140197085}}}, "place_id": "ChIJrXSL2hQW2jERTsSrw9tJcnQ", "types": ["establishment", "premise"]}