{"address_components": [{"long_name": "Block 224", "short_name": "Block 224", "types": ["premise"]}, {"long_name": "224", "short_name": "224", "types": ["street_number"]}, {"long_name": "Serangoon Avenue 4", "short_name": "Serangoon Ave 4", "types": ["route"]}, {"long_name": "Serangoon", "short_name": "Serangoon", "types": ["neighborhood", "political"]}, {"long_name": "Singapore", "short_name": "Singapore", "types": ["locality", "political"]}, {"long_name": "Singapore", "short_name": "SG", "types": ["country", "political"]}, {"long_name": "550224", "short_name": "550224", "types": ["postal_code"]}], "formatted_address": "224 Serangoon Ave 4, Block 224, Singapore 550224", "geometry": {"bounds": {"northeast": {"lat": 1.3573013, "lng": 103.8712034}, "southwest": {"lat": 1.3571284, "lng": 103.8703634}}, "location": {"lat": 1.3572417, "lng": 103.8707693}, "location_type": "ROOFTOP", "viewport": {"northeast": {"lat": 1.358563830291502, "lng": 103.8721323802915}, "southwest": {"lat": 1.355865869708498, "lng": 103.8694344197085}}}, "place_id": "ChIJe1K8qakX2jERy0igxy9IOvo", "types": ["premise"]}