{"address_components": [{"long_name": "Block 707", "short_name": "Block 707", "types": ["premise"]}, {"long_name": "707", "short_name": "707", "types": ["street_number"]}, {"long_name": "Bedok North Road", "short_name": "Bedok North Rd", "types": ["route"]}, {"long_name": "Bedok", "short_name": "Bedok", "types": ["neighborhood", "political"]}, {"long_name": "Singapore", "short_name": "Singapore", "types": ["locality", "political"]}, {"long_name": "Singapore", "short_name": "SG", "types": ["country", "political"]}, {"long_name": "470707", "short_name": "470707", "types": ["postal_code"]}], "formatted_address": "707 Bedok North Rd, Block 707, Singapore 470707", "geometry": {"bounds": {"northeast": {"lat": 1.335514, "lng": 103.9196189}, "southwest": {"lat": 1.335343, "lng": 103.9187861}}, "location": {"lat": 1.3354419, "lng": 103.9192478}, "location_type": "ROOFTOP", "viewport": {"northeast": {"lat": 1.336777480291502, "lng": 103.9205514802915}, "southwest": {"lat": 1.334079519708498, "lng": 103.9178535197085}}}, "place_id": "ChIJASCWWFc92jERo9T3BTOae64", "types": ["premise"]}