{"address_components": [{"long_name": "Block 276", "short_name": "Block 276", "types": ["premise"]}, {"long_name": "276", "short_name": "276", "types": ["street_number"]}, {"long_name": "Tampines Street 22", "short_name": "Tampines Street 22", "types": ["route"]}, {"long_name": "Tampines", "short_name": "Tampines", "types": ["neighborhood", "political"]}, {"long_name": "Singapore", "short_name": "Singapore", "types": ["locality", "political"]}, {"long_name": "Singapore", "short_name": "SG", "types": ["country", "political"]}, {"long_name": "520276", "short_name": "520276", "types": ["postal_code"]}], "formatted_address": "276 Tampines Street 22, Block 276, Singapore 520276", "geometry": {"bounds": {"northeast": {"lat": 1.3477509, "lng": 103.95098}, "southwest": {"lat": 1.347386, "lng": 103.950116}}, "location": {"lat": 1.3474818, "lng": 103.9506103}, "location_type": "ROOFTOP", "viewport": {"northeast": {"lat": 1.348917430291502, "lng": 103.9518969802915}, "southwest": {"lat": 1.346219469708498, "lng": 103.9491990197085}}}, "place_id": "ChIJgb9zyBk92jERQOHGpTCh_UA", "types": ["premise"]}