{"address_components": [{"long_name": "Block 170", "short_name": "Block 170", "types": ["premise"]}, {"long_name": "170", "short_name": "170", "types": ["street_number"]}, {"long_name": "Hougang Avenue 1", "short_name": "Hougang Ave 1", "types": ["route"]}, {"long_name": "Hougang", "short_name": "Hougang", "types": ["neighborhood", "political"]}, {"long_name": "Singapore", "short_name": "Singapore", "types": ["locality", "political"]}, {"long_name": "Singapore", "short_name": "SG", "types": ["country", "political"]}, {"long_name": "530170", "short_name": "530170", "types": ["postal_code"]}], "formatted_address": "170 Hougang Ave 1, Block 170, Singapore 530170", "geometry": {"bounds": {"northeast": {"lat": 1.3517217, "lng": 103.8895663}, "southwest": {"lat": 1.3512396, "lng": 103.8892313}}, "location": {"lat": 1.3514811, "lng": 103.889365}, "location_type": "ROOFTOP", "viewport": {"northeast": {"lat": 1.352829630291502, "lng": 103.8907477802915}, "southwest": {"lat": 1.350131669708498, "lng": 103.8880498197085}}}, "place_id": "ChIJsUbu8bgX2jERzAPVulyQFZc", "types": ["premise"]}