{"address_components": [{"long_name": "Block 127", "short_name": "Block 127", "types": ["premise"]}, {"long_name": "127", "short_name": "127", "types": ["street_number"]}, {"long_name": "Ang Mo Kio Avenue 3", "short_name": "Ang Mo Kio Ave 3", "types": ["route"]}, {"long_name": "Ang Mo Kio", "short_name": "Ang Mo Kio", "types": ["neighborhood", "political"]}, {"long_name": "Singapore", "short_name": "Singapore", "types": ["locality", "political"]}, {"long_name": "Singapore", "short_name": "SG", "types": ["country", "political"]}, {"long_name": "560127", "short_name": "560127", "types": ["postal_code"]}], "formatted_address": "127 Ang Mo Kio Ave 3, Block 127, Singapore 560127", "geometry": {"bounds": {"northeast": {"lat": 1.371337, "lng": 103.8440948}, "southwest": {"lat": 1.371085, "lng": 103.8430928}}, "location": {"lat": 1.3711757, "lng": 103.8437717}, "location_type": "ROOFTOP", "viewport": {"northeast": {"lat": 1.372559980291502, "lng": 103.8449427802915}, "southwest": {"lat": 1.369862019708498, "lng": 103.8422448197085}}}, "place_id": "ChIJc44Bdd0W2jEROuRxSd_RMvI", "types": ["premise"]}