{"address_components": [{"long_name": "Block 654", "short_name": "Block 654", "types": ["premise"]}, {"long_name": "654", "short_name": "654", "types": ["street_number"]}, {"long_name": "Jalan Tenaga", "short_name": "Jln Tenaga", "types": ["route"]}, {"long_name": "Bedok", "short_name": "Bedok", "types": ["neighborhood", "political"]}, {"long_name": "Singapore", "short_name": "Singapore", "types": ["locality", "political"]}, {"long_name": "Singapore", "short_name": "SG", "types": ["country", "political"]}, {"long_name": "410654", "short_name": "410654", "types": ["postal_code"]}], "formatted_address": "654 Jln Tenaga, Block 654, Singapore 410654", "geometry": {"bounds": {"northeast": {"lat": 1.3331912, "lng": 103.9072577}, "southwest": {"lat": 1.3327893, "lng": 103.9065316}}, "location": {"lat": 1.3328801, "lng": 103.9066505}, "location_type": "ROOFTOP", "viewport": {"northeast": {"lat": 1.334339230291502, "lng": 103.9082436302915}, "southwest": {"lat": 1.331641269708498, "lng": 103.9055456697085}}}, "place_id": "ChIJYcERofsX2jER0glTj-Je5Ww", "types": ["premise"]}