{"address_components": [{"long_name": "Block 434", "short_name": "Block 434", "types": ["premise"]}, {"long_name": "434", "short_name": "434", "types": ["street_number"]}, {"long_name": "Choa Chu Kang Avenue 4", "short_name": "Choa Chu Kang Ave 4", "types": ["route"]}, {"long_name": "Choa Chu Kang", "short_name": "Choa Chu Kang", "types": ["neighborhood", "political"]}, {"long_name": "Singapore", "short_name": "Singapore", "types": ["locality", "political"]}, {"long_name": "Singapore", "short_name": "SG", "types": ["country", "political"]}, {"long_name": "680434", "short_name": "680434", "types": ["postal_code"]}], "formatted_address": "434 Choa Chu Kang Ave 4, Block 434, Singapore 680434", "geometry": {"bounds": {"northeast": {"lat": 1.3848166, "lng": 103.7413639}, "southwest": {"lat": 1.3843787, "lng": 103.740751}}, "location": {"lat": 1.3845337, "lng": 103.7412712}, "location_type": "ROOFTOP", "viewport": {"northeast": {"lat": 1.385946630291502, "lng": 103.7424064302915}, "southwest": {"lat": 1.383248669708498, "lng": 103.7397084697085}}}, "place_id": "ChIJ6-jUcugR2jER8yUmRVV8gJk", "types": ["premise"]}