{"address_components": [{"long_name": "Block 506", "short_name": "Block 506", "types": ["premise"]}, {"long_name": "506", "short_name": "506", "types": ["street_number"]}, {"long_name": "Jelapang Road", "short_name": "Jelapang Rd", "types": ["route"]}, {"long_name": "Bukit Panjang", "short_name": "Bukit Panjang", "types": ["neighborhood", "political"]}, {"long_name": "Singapore", "short_name": "Singapore", "types": ["locality", "political"]}, {"long_name": "Singapore", "short_name": "SG", "types": ["country", "political"]}, {"long_name": "670506", "short_name": "670506", "types": ["postal_code"]}], "formatted_address": "506 Jelapang Rd, Block 506, Singapore 670506", "geometry": {"bounds": {"northeast": {"lat": 1.3872309, "lng": 103.7684563}, "southwest": {"lat": 1.3868669, "lng": 103.7678289}}, "location": {"lat": 1.3870152, "lng": 103.7679754}, "location_type": "ROOFTOP", "viewport": {"northeast": {"lat": 1.388397880291502, "lng": 103.7694915802915}, "southwest": {"lat": 1.385699919708498, "lng": 103.7667936197085}}}, "place_id": "ChIJc7rzQZkR2jERXibTVpvuy4g", "types": ["premise"]}