{"address_components": [{"long_name": "Block 899C", "short_name": "Block 899C", "types": ["premise"]}, {"long_name": "899C", "short_name": "899C", "types": ["street_number"]}, {"long_name": "Woodlands Drive 50", "short_name": "Woodlands Drive 50", "types": ["route"]}, {"long_name": "Woodlands", "short_name": "Woodlands", "types": ["neighborhood", "political"]}, {"long_name": "Singapore", "short_name": "Singapore", "types": ["locality", "political"]}, {"long_name": "Singapore", "short_name": "SG", "types": ["country", "political"]}, {"long_name": "732899", "short_name": "732899", "types": ["postal_code"]}], "formatted_address": "899C Woodlands Drive 50, Block 899C, Singapore 732899", "geometry": {"bounds": {"northeast": {"lat": 1.436625, "lng": 103.7955981}, "southwest": {"lat": 1.4363699, "lng": 103.7949321}}, "location": {"lat": 1.4365117, "lng": 103.7954998}, "location_type": "ROOFTOP", "viewport": {"northeast": {"lat": 1.437846430291502, "lng": 103.7966140802915}, "southwest": {"lat": 1.435148469708498, "lng": 103.7939161197085}}}, "place_id": "ChIJLcUYBqET2jERBoLs9gdJFh0", "types": ["premise"]}