{"address_components": [{"long_name": "Block 255", "short_name": "Block 255", "types": ["premise"]}, {"long_name": "255", "short_name": "255", "types": ["street_number"]}, {"long_name": "Serangoon Central Drive", "short_name": "Serangoon Central Dr", "types": ["route"]}, {"long_name": "Serangoon", "short_name": "Serangoon", "types": ["neighborhood", "political"]}, {"long_name": "Singapore", "short_name": "Singapore", "types": ["locality", "political"]}, {"long_name": "Singapore", "short_name": "SG", "types": ["country", "political"]}, {"long_name": "550255", "short_name": "550255", "types": ["postal_code"]}], "formatted_address": "255 Serangoon Central Dr, Block 255, Singapore 550255", "geometry": {"bounds": {"northeast": {"lat": 1.355305, "lng": 103.871063}, "southwest": {"lat": 1.354875, "lng": 103.870604}}, "location": {"lat": 1.3551231, "lng": 103.8706774}, "location_type": "ROOFTOP", "viewport": {"northeast": {"lat": 1.356438980291502, "lng": 103.8721824802915}, "southwest": {"lat": 1.353741019708498, "lng": 103.8694845197085}}}, "place_id": "ChIJl6K0YqgX2jER6dGL7WQ1KaQ", "types": ["premise"]}