{"address_components": [{"long_name": "Block 916", "short_name": "Block 916", "types": ["premise"]}, {"long_name": "916", "short_name": "916", "types": ["street_number"]}, {"long_name": "Hougang Avenue 9", "short_name": "Hougang Ave 9", "types": ["route"]}, {"long_name": "Hougang", "short_name": "Hougang", "types": ["neighborhood", "political"]}, {"long_name": "Singapore", "short_name": "Singapore", "types": ["locality", "political"]}, {"long_name": "Singapore", "short_name": "SG", "types": ["country", "political"]}, {"long_name": "530916", "short_name": "530916", "types": ["postal_code"]}], "formatted_address": "916 Hougang Ave 9, Block 916, Singapore 530916", "geometry": {"bounds": {"northeast": {"lat": 1.375106, "lng": 103.8845871}, "southwest": {"lat": 1.3747661, "lng": 103.883968}}, "location": {"lat": 1.3749471, "lng": 103.8843361}, "location_type": "ROOFTOP", "viewport": {"northeast": {"lat": 1.376285030291502, "lng": 103.8856265302915}, "southwest": {"lat": 1.373587069708498, "lng": 103.8829285697085}}}, "place_id": "ChIJ2VGoyEUW2jERqjGHnEcUzzw", "types": ["premise"]}