{"address_components": [{"long_name": "Block 169", "short_name": "Block 169", "types": ["premise"]}, {"long_name": "169", "short_name": "169", "types": ["street_number"]}, {"long_name": "Bukit Batok West Avenue 8", "short_name": "Bukit Batok West Ave 8", "types": ["route"]}, {"long_name": "Bukit Batok", "short_name": "Bukit Batok", "types": ["neighborhood", "political"]}, {"long_name": "Singapore", "short_name": "Singapore", "types": ["locality", "political"]}, {"long_name": "Singapore", "short_name": "SG", "types": ["country", "political"]}, {"long_name": "650169", "short_name": "650169", "types": ["postal_code"]}], "formatted_address": "169 Bukit Batok West Ave 8, Block 169, Singapore 650169", "geometry": {"bounds": {"northeast": {"lat": 1.3467788, "lng": 103.7413486}, "southwest": {"lat": 1.3464109, "lng": 103.7405417}}, "location": {"lat": 1.3465794, "lng": 103.7410023}, "location_type": "ROOFTOP", "viewport": {"northeast": {"lat": 1.347943830291502, "lng": 103.7422941302915}, "southwest": {"lat": 1.345245869708498, "lng": 103.7395961697085}}}, "place_id": "ChIJ4dhmTj0Q2jERh5v8oxgm1KQ", "types": ["premise"]}