{"address_components": [{"long_name": "Block 257", "short_name": "Block 257", "types": ["premise"]}, {"long_name": "257", "short_name": "257", "types": ["street_number"]}, {"long_name": "Tampines Street 21", "short_name": "Tampines Street 21", "types": ["route"]}, {"long_name": "Tampines", "short_name": "Tampines", "types": ["neighborhood", "political"]}, {"long_name": "Singapore", "short_name": "Singapore", "types": ["locality", "political"]}, {"long_name": "Singapore", "short_name": "SG", "types": ["country", "political"]}, {"long_name": "520257", "short_name": "520257", "types": ["postal_code"]}], "formatted_address": "257 Tampines Street 21, Block 257, Singapore 520257", "geometry": {"bounds": {"northeast": {"lat": 1.3542872, "lng": 103.9503642}, "southwest": {"lat": 1.3537102, "lng": 103.9495692}}, "location": {"lat": 1.3537809, "lng": 103.949885}, "location_type": "ROOFTOP", "viewport": {"northeast": {"lat": 1.355347680291502, "lng": 103.9513156802915}, "southwest": {"lat": 1.352649719708498, "lng": 103.9486177197085}}}, "place_id": "ChIJETNFrRo92jER35n1SmedgJM", "types": ["premise"]}