{"address_components": [{"long_name": "Block 445", "short_name": "Block 445", "types": ["premise"]}, {"long_name": "445", "short_name": "445", "types": ["street_number"]}, {"long_name": "Choa Chu Kang Avenue 4", "short_name": "Choa Chu Kang Ave 4", "types": ["route"]}, {"long_name": "Choa Chu Kang", "short_name": "Choa Chu Kang", "types": ["neighborhood", "political"]}, {"long_name": "Singapore", "short_name": "Singapore", "types": ["locality", "political"]}, {"long_name": "Singapore", "short_name": "SG", "types": ["country", "political"]}, {"long_name": "680445", "short_name": "680445", "types": ["postal_code"]}], "formatted_address": "445 Choa Chu Kang Ave 4, Block 445, Singapore 680445", "geometry": {"bounds": {"northeast": {"lat": 1.382156, "lng": 103.7372011}, "southwest": {"lat": 1.381441, "lng": 103.73639}}, "location": {"lat": 1.3818294, "lng": 103.736723}, "location_type": "ROOFTOP", "viewport": {"northeast": {"lat": 1.383147480291502, "lng": 103.7381445302915}, "southwest": {"lat": 1.380449519708498, "lng": 103.7354465697085}}}, "place_id": "ChIJDTneut0R2jERaVVmv-GbeeU", "types": ["premise"]}