{"address_components": [{"long_name": "Block 787E", "short_name": "Block 787E", "types": ["premise"]}, {"long_name": "787E", "short_name": "787E", "types": ["street_number"]}, {"long_name": "Woodlands Crescent", "short_name": "Woodlands Cres", "types": ["route"]}, {"long_name": "Woodlands", "short_name": "Woodlands", "types": ["neighborhood", "political"]}, {"long_name": "Singapore", "short_name": "Singapore", "types": ["locality", "political"]}, {"long_name": "Singapore", "short_name": "SG", "types": ["country", "political"]}, {"long_name": "735787", "short_name": "735787", "types": ["postal_code"]}], "formatted_address": "787E Woodlands Cres, Block 787E, Singapore 735787", "geometry": {"bounds": {"northeast": {"lat": 1.445452, "lng": 103.802384}, "southwest": {"lat": 1.444656, "lng": 103.80195}}, "location": {"lat": 1.4448377, "lng": 103.8022913}, "location_type": "ROOFTOP", "viewport": {"northeast": {"lat": 1.446402980291502, "lng": 103.8035159802915}, "southwest": {"lat": 1.443705019708498, "lng": 103.8008180197085}}}, "place_id": "ChIJ5V8Sl3MT2jER1HcpptiMQVs", "types": ["premise"]}