{"address_components": [{"long_name": "Block 768", "short_name": "Block 768", "types": ["premise"]}, {"long_name": "768", "short_name": "768", "types": ["street_number"]}, {"long_name": "Bedok Reservoir View", "short_name": "Bedok Reservoir View", "types": ["route"]}, {"long_name": "Bedok", "short_name": "Bedok", "types": ["neighborhood", "political"]}, {"long_name": "Singapore", "short_name": "Singapore", "types": ["locality", "political"]}, {"long_name": "Singapore", "short_name": "SG", "types": ["country", "political"]}, {"long_name": "470768", "short_name": "470768", "types": ["postal_code"]}], "formatted_address": "768 Bedok Reservoir View, Block 768, Singapore 470768", "geometry": {"bounds": {"northeast": {"lat": 1.3357885, "lng": 103.9375512}, "southwest": {"lat": 1.3356594, "lng": 103.9371672}}, "location": {"lat": 1.3357025, "lng": 103.9374662}, "location_type": "ROOFTOP", "viewport": {"northeast": {"lat": 1.337072930291502, "lng": 103.9387081802915}, "southwest": {"lat": 1.334374969708498, "lng": 103.9360102197085}}}, "place_id": "ChIJS6u7-0c92jERfy6jqEhT2QI", "types": ["premise"]}