{"address_components": [{"long_name": "Block 690E", "short_name": "Block 690E", "types": ["premise"]}, {"long_name": "690E", "short_name": "690E", "types": ["street_number"]}, {"long_name": "Woodlands Drive 75", "short_name": "Woodlands Drive 75", "types": ["route"]}, {"long_name": "Woodlands", "short_name": "Woodlands", "types": ["neighborhood", "political"]}, {"long_name": "Singapore", "short_name": "Singapore", "types": ["locality", "political"]}, {"long_name": "Singapore", "short_name": "SG", "types": ["country", "political"]}, {"long_name": "735690", "short_name": "735690", "types": ["postal_code"]}], "formatted_address": "690E Woodlands Drive 75, Block 690E, Singapore 735690", "geometry": {"bounds": {"northeast": {"lat": 1.442449, "lng": 103.8080859}, "southwest": {"lat": 1.442059, "lng": 103.807778}}, "location": {"lat": 1.4422337, "lng": 103.8079058}, "location_type": "ROOFTOP", "viewport": {"northeast": {"lat": 1.443602980291502, "lng": 103.8092809302915}, "southwest": {"lat": 1.440905019708498, "lng": 103.8065829697085}}}, "place_id": "ChIJdU_hD3cT2jERrP_GzaEPQF8", "types": ["premise"]}