{"address_components": [{"long_name": "Block 551", "short_name": "Block 551", "types": ["premise"]}, {"long_name": "551", "short_name": "551", "types": ["street_number"]}, {"long_name": "Woodlands Drive 44", "short_name": "Woodlands Drive 44", "types": ["route"]}, {"long_name": "Woodlands", "short_name": "Woodlands", "types": ["neighborhood", "political"]}, {"long_name": "Singapore", "short_name": "Singapore", "types": ["locality", "political"]}, {"long_name": "Singapore", "short_name": "SG", "types": ["country", "political"]}, {"long_name": "730551", "short_name": "730551", "types": ["postal_code"]}], "formatted_address": "551 Woodlands Drive 44, Block 551, Singapore 730551", "geometry": {"bounds": {"northeast": {"lat": 1.4334155, "lng": 103.7955993}, "southwest": {"lat": 1.4328225, "lng": 103.7949414}}, "location": {"lat": 1.4331361, "lng": 103.7954093}, "location_type": "ROOFTOP", "viewport": {"northeast": {"lat": 1.434467980291502, "lng": 103.7966193302915}, "southwest": {"lat": 1.431770019708498, "lng": 103.7939213697085}}}, "place_id": "ChIJo9QqsqMT2jERfS1r_i-ibsU", "types": ["premise"]}