{"address_components": [{"long_name": "Block 928", "short_name": "Block 928", "types": ["premise"]}, {"long_name": "928", "short_name": "928", "types": ["street_number"]}, {"long_name": "Hougang Street 91", "short_name": "Hougang Street 91", "types": ["route"]}, {"long_name": "Hougang", "short_name": "Hougang", "types": ["neighborhood", "political"]}, {"long_name": "Singapore", "short_name": "Singapore", "types": ["locality", "political"]}, {"long_name": "Singapore", "short_name": "SG", "types": ["country", "political"]}, {"long_name": "530928", "short_name": "530928", "types": ["postal_code"]}], "formatted_address": "928 Hougang Street 91, Block 928, Singapore 530928", "geometry": {"bounds": {"northeast": {"lat": 1.3769056, "lng": 103.8818603}, "southwest": {"lat": 1.3765516, "lng": 103.8812563}}, "location": {"lat": 1.3767215, "lng": 103.8816178}, "location_type": "ROOFTOP", "viewport": {"northeast": {"lat": 1.378077580291502, "lng": 103.8829072802915}, "southwest": {"lat": 1.375379619708498, "lng": 103.8802093197085}}}, "place_id": "ChIJH81V60QW2jERJyXNdfgfTW4", "types": ["premise"]}