{"address_components": [{"long_name": "Block 122", "short_name": "Block 122", "types": ["premise"]}, {"long_name": "122", "short_name": "122", "types": ["street_number"]}, {"long_name": "Pending Road", "short_name": "Pending Rd", "types": ["route"]}, {"long_name": "Bukit Panjang", "short_name": "Bukit Panjang", "types": ["neighborhood", "political"]}, {"long_name": "Singapore", "short_name": "Singapore", "types": ["locality", "political"]}, {"long_name": "Singapore", "short_name": "SG", "types": ["country", "political"]}, {"long_name": "670122", "short_name": "670122", "types": ["postal_code"]}], "formatted_address": "122 Pending Rd, Block 122, Singapore 670122", "geometry": {"bounds": {"northeast": {"lat": 1.377987, "lng": 103.770254}, "southwest": {"lat": 1.377502, "lng": 103.769836}}, "location": {"lat": 1.3777477, "lng": 103.770035}, "location_type": "ROOFTOP", "viewport": {"northeast": {"lat": 1.379093480291502, "lng": 103.7713939802915}, "southwest": {"lat": 1.376395519708498, "lng": 103.7686960197085}}}, "place_id": "ChIJH8zzpKYR2jERNk-j5sVXheo", "types": ["premise"]}