{"address_components": [{"long_name": "Block 306", "short_name": "Block 306", "types": ["premise"]}, {"long_name": "306", "short_name": "306", "types": ["street_number"]}, {"long_name": "Yishun Central", "short_name": "Yishun Central", "types": ["route"]}, {"long_name": "Yishun", "short_name": "Yishun", "types": ["neighborhood", "political"]}, {"long_name": "Singapore", "short_name": "Singapore", "types": ["locality", "political"]}, {"long_name": "Singapore", "short_name": "SG", "types": ["country", "political"]}, {"long_name": "760306", "short_name": "760306", "types": ["postal_code"]}], "formatted_address": "306 Yishun Central, Block 306, Singapore 760306", "geometry": {"bounds": {"northeast": {"lat": 1.4313029, "lng": 103.8406372}, "southwest": {"lat": 1.430778, "lng": 103.8399262}}, "location": {"lat": 1.4312467, "lng": 103.8401485}, "location_type": "ROOFTOP", "viewport": {"northeast": {"lat": 1.432389430291502, "lng": 103.8416306802915}, "southwest": {"lat": 1.429691469708498, "lng": 103.8389327197085}}}, "place_id": "ChIJM7ZCa2YU2jERhtmoIq2DrAc", "types": ["premise"]}