{"address_components": [{"long_name": "Block 237", "short_name": "Block 237", "types": ["premise"]}, {"long_name": "237", "short_name": "237", "types": ["street_number"]}, {"long_name": "Yishun Ring Road", "short_name": "Yishun Ring Rd", "types": ["route"]}, {"long_name": "Yishun", "short_name": "Yishun", "types": ["neighborhood", "political"]}, {"long_name": "Singapore", "short_name": "Singapore", "types": ["locality", "political"]}, {"long_name": "Singapore", "short_name": "SG", "types": ["country", "political"]}, {"long_name": "760237", "short_name": "760237", "types": ["postal_code"]}], "formatted_address": "237 Yishun Ring Rd, Block 237, Singapore 760237", "geometry": {"bounds": {"northeast": {"lat": 1.4337588, "lng": 103.8389489}, "southwest": {"lat": 1.4331277, "lng": 103.8387562}}, "location": {"lat": 1.4333825, "lng": 103.8388803}, "location_type": "ROOFTOP", "viewport": {"northeast": {"lat": 1.434792230291502, "lng": 103.8402015302915}, "southwest": {"lat": 1.432094269708498, "lng": 103.8375035697085}}}, "place_id": "ChIJBxHrHmQU2jER1U_VwQWwNYo", "types": ["premise"]}