{"address_components": [{"long_name": "Block 383", "short_name": "Block 383", "types": ["premise"]}, {"long_name": "383", "short_name": "383", "types": ["street_number"]}, {"long_name": "Bukit Batok West Avenue 5", "short_name": "Bukit Batok West Ave 5", "types": ["route"]}, {"long_name": "Bukit Batok", "short_name": "Bukit Batok", "types": ["neighborhood", "political"]}, {"long_name": "Singapore", "short_name": "Singapore", "types": ["locality", "political"]}, {"long_name": "Singapore", "short_name": "SG", "types": ["country", "political"]}, {"long_name": "650383", "short_name": "650383", "types": ["postal_code"]}], "formatted_address": "383 Bukit Batok West Ave 5, Block 383, Singapore 650383", "geometry": {"bounds": {"northeast": {"lat": 1.3624735, "lng": 103.7524905}, "southwest": {"lat": 1.3621935, "lng": 103.7519723}}, "location": {"lat": 1.3622966, "lng": 103.7521786}, "location_type": "ROOFTOP", "viewport": {"northeast": {"lat": 1.363682480291502, "lng": 103.7535803802915}, "southwest": {"lat": 1.360984519708498, "lng": 103.7508824197085}}}, "place_id": "ChIJu6svgEoQ2jER4XOmDvJM5Pg", "types": ["premise"]}