{"address_components": [{"long_name": "Block 846", "short_name": "Block 846", "types": ["premise"]}, {"long_name": "846", "short_name": "846", "types": ["street_number"]}, {"long_name": "Woodlands Avenue 4", "short_name": "Woodlands Ave 4", "types": ["route"]}, {"long_name": "Woodlands", "short_name": "Woodlands", "types": ["neighborhood", "political"]}, {"long_name": "Singapore", "short_name": "Singapore", "types": ["locality", "political"]}, {"long_name": "Singapore", "short_name": "SG", "types": ["country", "political"]}, {"long_name": "730846", "short_name": "730846", "types": ["postal_code"]}], "formatted_address": "846 Woodlands Ave 4, Block 846, Singapore 730846", "geometry": {"bounds": {"northeast": {"lat": 1.443594, "lng": 103.793699}, "southwest": {"lat": 1.443244, "lng": 103.793154}}, "location": {"lat": 1.4435158, "lng": 103.7934851}, "location_type": "ROOFTOP", "viewport": {"northeast": {"lat": 1.444767980291502, "lng": 103.7947754802915}, "southwest": {"lat": 1.442070019708498, "lng": 103.7920775197085}}}, "place_id": "ChIJsfOa7wsT2jERy7D431fvOwc", "types": ["premise"]}