{"address_components": [{"long_name": "Block 213", "short_name": "Block 213", "types": ["premise"]}, {"long_name": "215", "short_name": "215", "types": ["street_number"]}, {"long_name": "Pasir Ris Street 21", "short_name": "Pasir Ris Street 21", "types": ["route"]}, {"long_name": "Pasir Ris", "short_name": "Pasir Ris", "types": ["neighborhood", "political"]}, {"long_name": "Singapore", "short_name": "Singapore", "types": ["locality", "political"]}, {"long_name": "Singapore", "short_name": "SG", "types": ["country", "political"]}, {"long_name": "510215", "short_name": "510215", "types": ["postal_code"]}], "formatted_address": "215 Pasir Ris Street 21, Block 213, Singapore 510215", "geometry": {"bounds": {"northeast": {"lat": 1.3688791, "lng": 103.9608621}, "southwest": {"lat": 1.3681742, "lng": 103.9602491}}, "location": {"lat": 1.3684892, "lng": 103.9605145}, "location_type": "ROOFTOP", "viewport": {"northeast": {"lat": 1.369875630291502, "lng": 103.9619045802915}, "southwest": {"lat": 1.367177669708498, "lng": 103.9592066197085}}}, "place_id": "ChIJS7TwrKw92jERuiCuOB84YlE", "types": ["premise"]}