{"address_components": [{"long_name": "Block 426", "short_name": "Block 426", "types": ["premise"]}, {"long_name": "426", "short_name": "426", "types": ["street_number"]}, {"long_name": "Ang Mo Kio Avenue 3", "short_name": "Ang Mo Kio Ave 3", "types": ["route"]}, {"long_name": "Ang Mo Kio", "short_name": "Ang Mo Kio", "types": ["neighborhood", "political"]}, {"long_name": "Singapore", "short_name": "Singapore", "types": ["locality", "political"]}, {"long_name": "Singapore", "short_name": "SG", "types": ["country", "political"]}, {"long_name": "560426", "short_name": "560426", "types": ["postal_code"]}], "formatted_address": "426 Ang Mo Kio Ave 3, Block 426, Singapore 560426", "geometry": {"bounds": {"northeast": {"lat": 1.3696124, "lng": 103.8537325}, "southwest": {"lat": 1.3693661, "lng": 103.8526991}}, "location": {"lat": 1.3695084, "lng": 103.8531926}, "location_type": "ROOFTOP", "viewport": {"northeast": {"lat": 1.370838230291502, "lng": 103.8545647802915}, "southwest": {"lat": 1.368140269708498, "lng": 103.8518668197085}}}, "place_id": "ChIJd9DoY-QW2jERFlKCRZaAchk", "types": ["premise"]}