{"address_components": [{"long_name": "Block 122", "short_name": "Block 122", "types": ["premise"]}, {"long_name": "122", "short_name": "122", "types": ["street_number"]}, {"long_name": "Ang Mo Kio Avenue 3", "short_name": "Ang Mo Kio Ave 3", "types": ["route"]}, {"long_name": "Ang Mo Kio", "short_name": "Ang Mo Kio", "types": ["neighborhood", "political"]}, {"long_name": "Singapore", "short_name": "Singapore", "types": ["locality", "political"]}, {"long_name": "Singapore", "short_name": "SG", "types": ["country", "political"]}, {"long_name": "560122", "short_name": "560122", "types": ["postal_code"]}], "formatted_address": "122 Ang Mo Kio Ave 3, Block 122, Singapore 560122", "geometry": {"bounds": {"northeast": {"lat": 1.3703028, "lng": 103.8438146}, "southwest": {"lat": 1.370077, "lng": 103.8429686}}, "location": {"lat": 1.3702265, "lng": 103.8432282}, "location_type": "ROOFTOP", "viewport": {"northeast": {"lat": 1.371538880291502, "lng": 103.8447405802915}, "southwest": {"lat": 1.368840919708498, "lng": 103.8420426197085}}}, "place_id": "ChIJmSIBvt0W2jEREPMMBhGljIQ", "types": ["premise"]}