{"address_components": [{"long_name": "Block 484C", "short_name": "Block 484C", "types": ["premise"]}, {"long_name": "484C", "short_name": "484C", "types": ["street_number"]}, {"long_name": "Choa Chu Kang Avenue 5", "short_name": "Choa Chu Kang Ave 5", "types": ["route"]}, {"long_name": "Choa Chu Kang", "short_name": "Choa Chu Kang", "types": ["neighborhood", "political"]}, {"long_name": "Singapore", "short_name": "Singapore", "types": ["locality", "political"]}, {"long_name": "Singapore", "short_name": "SG", "types": ["country", "political"]}, {"long_name": "683484", "short_name": "683484", "types": ["postal_code"]}], "formatted_address": "484C Choa Chu Kang Ave 5, Block 484C, Singapore 683484", "geometry": {"bounds": {"northeast": {"lat": 1.375902, "lng": 103.737124}, "southwest": {"lat": 1.3753679, "lng": 103.73655}}, "location": {"lat": 1.3756701, "lng": 103.736904}, "location_type": "ROOFTOP", "viewport": {"northeast": {"lat": 1.376983930291502, "lng": 103.7381859802915}, "southwest": {"lat": 1.374285969708498, "lng": 103.7354880197085}}}, "place_id": "ChIJg1bXRNoR2jERHyLoj_yTwQU", "types": ["premise"]}