{"address_components": [{"long_name": "Block 979C", "short_name": "Block 979C", "types": ["premise"]}, {"long_name": "979C", "short_name": "979C", "types": ["street_number"]}, {"long_name": "Buangkok Crescent", "short_name": "Buangkok Cres", "types": ["route"]}, {"long_name": "Hougang", "short_name": "Hougang", "types": ["neighborhood", "political"]}, {"long_name": "Singapore", "short_name": "Singapore", "types": ["locality", "political"]}, {"long_name": "Singapore", "short_name": "SG", "types": ["country", "political"]}, {"long_name": "533979", "short_name": "533979", "types": ["postal_code"]}], "formatted_address": "979C Buangkok Cres, Block 979C, Singapore 533979", "geometry": {"bounds": {"northeast": {"lat": 1.3797036, "lng": 103.8802138}, "southwest": {"lat": 1.3794598, "lng": 103.8796045}}, "location": {"lat": 1.3795663, "lng": 103.879871}, "location_type": "ROOFTOP", "viewport": {"northeast": {"lat": 1.380930680291502, "lng": 103.8812581302915}, "southwest": {"lat": 1.378232719708498, "lng": 103.8785601697085}}}, "place_id": "ChIJz6IZMkMW2jERWVsb8QNtCNI", "types": ["premise"]}