{"address_components": [{"long_name": "Block 190", "short_name": "Block 190", "types": ["premise"]}, {"long_name": "190", "short_name": "190", "types": ["street_number"]}, {"long_name": "Pasir Ris Street 12", "short_name": "Pasir Ris Street 12", "types": ["route"]}, {"long_name": "Pasir Ris", "short_name": "Pasir Ris", "types": ["neighborhood", "political"]}, {"long_name": "Singapore", "short_name": "Singapore", "types": ["locality", "political"]}, {"long_name": "Singapore", "short_name": "SG", "types": ["country", "political"]}, {"long_name": "510190", "short_name": "510190", "types": ["postal_code"]}], "formatted_address": "190 Pasir Ris Street 12, Block 190, Singapore 510190", "geometry": {"bounds": {"northeast": {"lat": 1.3657305, "lng": 103.9587851}, "southwest": {"lat": 1.3651645, "lng": 103.9583021}}, "location": {"lat": 1.3652971, "lng": 103.958588}, "location_type": "ROOFTOP", "viewport": {"northeast": {"lat": 1.366796480291502, "lng": 103.9598925802915}, "southwest": {"lat": 1.364098519708498, "lng": 103.9571946197085}}}, "place_id": "ChIJkwz5_Ko92jERDmUGhxJnej0", "types": ["premise"]}