{"address_components": [{"long_name": "Block 36", "short_name": "Block 36", "types": ["premise"]}, {"long_name": "36", "short_name": "36", "types": ["street_number"]}, {"long_name": "Bedok South Avenue 2", "short_name": "Bedok South Ave 2", "types": ["route"]}, {"long_name": "Bedok", "short_name": "Bedok", "types": ["neighborhood", "political"]}, {"long_name": "Singapore", "short_name": "Singapore", "types": ["locality", "political"]}, {"long_name": "Singapore", "short_name": "SG", "types": ["country", "political"]}, {"long_name": "460036", "short_name": "460036", "types": ["postal_code"]}], "formatted_address": "36 Bedok South Ave 2, Block 36, Singapore 460036", "geometry": {"bounds": {"northeast": {"lat": 1.321772, "lng": 103.939038}, "southwest": {"lat": 1.321418, "lng": 103.9378858}}, "location": {"lat": 1.3215806, "lng": 103.9382803}, "location_type": "ROOFTOP", "viewport": {"northeast": {"lat": 1.322943980291502, "lng": 103.9398108802915}, "southwest": {"lat": 1.320246019708498, "lng": 103.9371129197085}}}, "place_id": "ChIJW53-BMoi2jERhtAqEPyQmso", "types": ["premise"]}