{"address_components": [{"long_name": "Block 622", "short_name": "Block 622", "types": ["premise"]}, {"long_name": "622", "short_name": "622", "types": ["street_number"]}, {"long_name": "Woodlands Drive 52", "short_name": "Woodlands Drive 52", "types": ["route"]}, {"long_name": "Woodlands", "short_name": "Woodlands", "types": ["neighborhood", "political"]}, {"long_name": "Singapore", "short_name": "Singapore", "types": ["locality", "political"]}, {"long_name": "Singapore", "short_name": "SG", "types": ["country", "political"]}, {"long_name": "730622", "short_name": "730622", "types": ["postal_code"]}], "formatted_address": "622 Woodlands Drive 52, Block 622, Singapore 730622", "geometry": {"bounds": {"northeast": {"lat": 1.4349763, "lng": 103.7993227}, "southwest": {"lat": 1.4340298, "lng": 103.7985316}}, "location": {"lat": 1.43418, "lng": 103.7987144}, "location_type": "ROOFTOP", "viewport": {"northeast": {"lat": 1.435852030291502, "lng": 103.8002761302915}, "southwest": {"lat": 1.433154069708498, "lng": 103.7975781697085}}}, "place_id": "ChIJJftsqZgT2jERhWTbTmwHn2E", "types": ["premise"]}