{"address_components": [{"long_name": "Block 508", "short_name": "Block 508", "types": ["premise"]}, {"long_name": "508", "short_name": "508", "types": ["street_number"]}, {"long_name": "Woodlands Drive 14", "short_name": "Woodlands Drive 14", "types": ["route"]}, {"long_name": "Woodlands", "short_name": "Woodlands", "types": ["neighborhood", "political"]}, {"long_name": "Singapore", "short_name": "Singapore", "types": ["locality", "political"]}, {"long_name": "Singapore", "short_name": "SG", "types": ["country", "political"]}, {"long_name": "730508", "short_name": "730508", "types": ["postal_code"]}], "formatted_address": "508 Woodlands Drive 14, Block 508, Singapore 730508", "geometry": {"bounds": {"northeast": {"lat": 1.432542, "lng": 103.7907569}, "southwest": {"lat": 1.431949, "lng": 103.7903921}}, "location": {"lat": 1.4321386, "lng": 103.7905197}, "location_type": "ROOFTOP", "viewport": {"northeast": {"lat": 1.433594480291502, "lng": 103.7919234802915}, "southwest": {"lat": 1.430896519708498, "lng": 103.7892255197085}}}, "place_id": "ChIJoXML96QT2jER2Zbnyr_B3_w", "types": ["premise"]}