{"address_components": [{"long_name": "Block 310", "short_name": "Block 310", "types": ["premise"]}, {"long_name": "310", "short_name": "310", "types": ["street_number"]}, {"long_name": "Bukit Batok Street 32", "short_name": "Bukit Batok Street 32", "types": ["route"]}, {"long_name": "Bukit Batok", "short_name": "Bukit Batok", "types": ["neighborhood", "political"]}, {"long_name": "Singapore", "short_name": "Singapore", "types": ["locality", "political"]}, {"long_name": "Singapore", "short_name": "SG", "types": ["country", "political"]}, {"long_name": "650310", "short_name": "650310", "types": ["postal_code"]}], "formatted_address": "310 Bukit Batok Street 32, Block 310, Singapore 650310", "geometry": {"bounds": {"northeast": {"lat": 1.3598339, "lng": 103.749099}, "southwest": {"lat": 1.359304, "lng": 103.748677}}, "location": {"lat": 1.3595859, "lng": 103.7489425}, "location_type": "ROOFTOP", "viewport": {"northeast": {"lat": 1.360917930291502, "lng": 103.7502369802915}, "southwest": {"lat": 1.358219969708498, "lng": 103.7475390197085}}}, "place_id": "ChIJgYOwhjYQ2jER1hl2r9Ypvsk", "types": ["premise"]}