{"address_components": [{"long_name": "Block 127", "short_name": "Block 127", "types": ["premise"]}, {"long_name": "127", "short_name": "127", "types": ["street_number"]}, {"long_name": "Serangoon North Avenue 1", "short_name": "Serangoon North Ave 1", "types": ["route"]}, {"long_name": "Serangoon", "short_name": "Serangoon", "types": ["neighborhood", "political"]}, {"long_name": "Singapore", "short_name": "Singapore", "types": ["locality", "political"]}, {"long_name": "Singapore", "short_name": "SG", "types": ["country", "political"]}, {"long_name": "550127", "short_name": "550127", "types": ["postal_code"]}], "formatted_address": "127 Serangoon North Ave 1, Block 127, Singapore 550127", "geometry": {"bounds": {"northeast": {"lat": 1.3658034, "lng": 103.8720616}, "southwest": {"lat": 1.3654935, "lng": 103.8713915}}, "location": {"lat": 1.3656584, "lng": 103.8717681}, "location_type": "ROOFTOP", "viewport": {"northeast": {"lat": 1.366997430291502, "lng": 103.8730755302915}, "southwest": {"lat": 1.364299469708498, "lng": 103.8703775697085}}}, "place_id": "ChIJd2Qi8FQW2jERlow4CrF2boc", "types": ["premise"]}