{"address_components": [{"long_name": "Block 4B", "short_name": "Block 4B", "types": ["premise"]}, {"long_name": "4B", "short_name": "4B", "types": ["street_number"]}, {"long_name": "Saint George's Lane", "short_name": "St George's Ln", "types": ["route"]}, {"long_name": "Kallang", "short_name": "Kallang", "types": ["neighborhood", "political"]}, {"long_name": "Singapore", "short_name": "Singapore", "types": ["locality", "political"]}, {"long_name": "Singapore", "short_name": "SG", "types": ["country", "political"]}, {"long_name": "321004", "short_name": "321004", "types": ["postal_code"]}], "formatted_address": "4B St George's Ln, Block 4B, Singapore 321004", "geometry": {"bounds": {"northeast": {"lat": 1.3227187, "lng": 103.8606746}, "southwest": {"lat": 1.3220468, "lng": 103.8597427}}, "location": {"lat": 1.3222424, "lng": 103.8602587}, "location_type": "ROOFTOP", "viewport": {"northeast": {"lat": 1.323731730291502, "lng": 103.8615576302915}, "southwest": {"lat": 1.321033769708498, "lng": 103.8588596697085}}}, "place_id": "ChIJNUdHxdYZ2jER0q7cjBwUkRE", "types": ["premise"]}