{"address_components": [{"long_name": "Block 29", "short_name": "Block 29", "types": ["premise"]}, {"long_name": "29", "short_name": "29", "types": ["street_number"]}, {"long_name": "Jalan Bahagia", "short_name": "Jln Bahagia", "types": ["route"]}, {"long_name": "Novena", "short_name": "Novena", "types": ["neighborhood", "political"]}, {"long_name": "Singapore", "short_name": "Singapore", "types": ["locality", "political"]}, {"long_name": "Singapore", "short_name": "SG", "types": ["country", "political"]}, {"long_name": "320029", "short_name": "320029", "types": ["postal_code"]}], "formatted_address": "29 Jln Bahagia, Block 29, Singapore 320029", "geometry": {"bounds": {"northeast": {"lat": 1.3258801, "lng": 103.8595089}, "southwest": {"lat": 1.3251532, "lng": 103.8584839}}, "location": {"lat": 1.3254684, "lng": 103.8591716}, "location_type": "ROOFTOP", "viewport": {"northeast": {"lat": 1.326865630291502, "lng": 103.8603453802915}, "southwest": {"lat": 1.324167669708498, "lng": 103.8576474197085}}}, "place_id": "ChIJVRidydcZ2jERVNCHFW2TZS4", "types": ["premise"]}