{"address_components": [{"long_name": "Block 107", "short_name": "Block 107", "types": ["premise"]}, {"long_name": "107", "short_name": "107", "types": ["street_number"]}, {"long_name": "Bedok Reservoir Road", "short_name": "Bedok Reservoir Rd", "types": ["route"]}, {"long_name": "Bedok", "short_name": "Bedok", "types": ["neighborhood", "political"]}, {"long_name": "Singapore", "short_name": "Singapore", "types": ["locality", "political"]}, {"long_name": "Singapore", "short_name": "SG", "types": ["country", "political"]}, {"long_name": "470107", "short_name": "470107", "types": ["postal_code"]}], "formatted_address": "107 Bedok Reservoir Rd, Block 107, Singapore 470107", "geometry": {"bounds": {"northeast": {"lat": 1.329977, "lng": 103.909544}, "southwest": {"lat": 1.3297869, "lng": 103.908802}}, "location": {"lat": 1.3298653, "lng": 103.909188}, "location_type": "ROOFTOP", "viewport": {"northeast": {"lat": 1.331230930291502, "lng": 103.9105219802915}, "southwest": {"lat": 1.328532969708498, "lng": 103.9078240197085}}}, "place_id": "ChIJq9sbt_4X2jERfyBBR_p4sXY", "types": ["premise"]}