{"address_components": [{"long_name": "Block 134", "short_name": "Block 134", "types": ["premise"]}, {"long_name": "134", "short_name": "134", "types": ["street_number"]}, {"long_name": "Lorong Ah Soo", "short_name": "Lor Ah Soo", "types": ["route"]}, {"long_name": "Hougang", "short_name": "Hougang", "types": ["neighborhood", "political"]}, {"long_name": "Singapore", "short_name": "Singapore", "types": ["locality", "political"]}, {"long_name": "Singapore", "short_name": "SG", "types": ["country", "political"]}, {"long_name": "530134", "short_name": "530134", "types": ["postal_code"]}], "formatted_address": "134 Lor Ah Soo, Block 134, Singapore 530134", "geometry": {"bounds": {"northeast": {"lat": 1.3505978, "lng": 103.8868884}, "southwest": {"lat": 1.3503355, "lng": 103.8861225}}, "location": {"lat": 1.3504908, "lng": 103.8865333}, "location_type": "ROOFTOP", "viewport": {"northeast": {"lat": 1.351815630291502, "lng": 103.8878544302915}, "southwest": {"lat": 1.349117669708498, "lng": 103.8851564697085}}}, "place_id": "ChIJY4l-RrkX2jER5cOSuNxvQAM", "types": ["premise"]}