{"address_components": [{"long_name": "Block 349", "short_name": "Block 349", "types": ["premise"]}, {"long_name": "349", "short_name": "349", "types": ["street_number"]}, {"long_name": "Tampines Street 33", "short_name": "Tampines Street 33", "types": ["route"]}, {"long_name": "Tampines", "short_name": "Tampines", "types": ["neighborhood", "political"]}, {"long_name": "Singapore", "short_name": "Singapore", "types": ["locality", "political"]}, {"long_name": "Singapore", "short_name": "SG", "types": ["country", "political"]}, {"long_name": "520349", "short_name": "520349", "types": ["postal_code"]}], "formatted_address": "349 Tampines Street 33, Block 349, Singapore 520349", "geometry": {"bounds": {"northeast": {"lat": 1.3536779, "lng": 103.9634309}, "southwest": {"lat": 1.3532009, "lng": 103.962904}}, "location": {"lat": 1.3533186, "lng": 103.963189}, "location_type": "ROOFTOP", "viewport": {"northeast": {"lat": 1.354788380291502, "lng": 103.9645164302915}, "southwest": {"lat": 1.352090419708498, "lng": 103.9618184697085}}}, "place_id": "ChIJabzS0eI82jER8glHcJPoMh4", "types": ["premise"]}