{"address_components": [{"long_name": "277C", "short_name": "277C", "types": ["street_number"]}, {"long_name": "Compassvale Link", "short_name": "Compassvale Link", "types": ["route"]}, {"long_name": "Sengkang", "short_name": "Sengkang", "types": ["neighborhood", "political"]}, {"long_name": "Singapore", "short_name": "Singapore", "types": ["locality", "political"]}, {"long_name": "Singapore", "short_name": "SG", "types": ["country", "political"]}, {"long_name": "543277", "short_name": "543277", "types": ["postal_code"]}], "formatted_address": "277C Compassvale Link, Singapore 543277", "geometry": {"bounds": {"northeast": {"lat": 1.3824124, "lng": 103.894231}, "southwest": {"lat": 1.3821556, "lng": 103.8937117}}, "location": {"lat": 1.3823625, "lng": 103.8940316}, "location_type": "ROOFTOP", "viewport": {"northeast": {"lat": 1.383632980291502, "lng": 103.8953203302915}, "southwest": {"lat": 1.380935019708498, "lng": 103.8926223697085}}}, "place_id": "ChIJSZ5X1D8W2jERzuUyu39N5LA", "types": ["premise"]}