{"address_components": [{"long_name": "Block 17", "short_name": "Block 17", "types": ["premise"]}, {"long_name": "17", "short_name": "17", "types": ["street_number"]}, {"long_name": "Saint George's Road", "short_name": "St George's Rd", "types": ["route"]}, {"long_name": "Kallang", "short_name": "Kallang", "types": ["neighborhood", "political"]}, {"long_name": "Singapore", "short_name": "Singapore", "types": ["locality", "political"]}, {"long_name": "Singapore", "short_name": "SG", "types": ["country", "political"]}, {"long_name": "320017", "short_name": "320017", "types": ["postal_code"]}], "formatted_address": "17 St George's Rd, Block 17, Singapore 320017", "geometry": {"bounds": {"northeast": {"lat": 1.3240583, "lng": 103.8624624}, "southwest": {"lat": 1.3237378, "lng": 103.8623014}}, "location": {"lat": 1.3238816, "lng": 103.8623649}, "location_type": "ROOFTOP", "viewport": {"northeast": {"lat": 1.325247030291502, "lng": 103.8637308802915}, "southwest": {"lat": 1.322549069708498, "lng": 103.8610329197085}}}, "place_id": "ChIJkfzzKtQZ2jERDzZkqWQDkPU", "types": ["premise"]}