{"address_components": [{"long_name": "Block 153A", "short_name": "Block 153A", "types": ["premise"]}, {"long_name": "153A", "short_name": "153A", "types": ["street_number"]}, {"long_name": "Lorong 1 Toa Payoh", "short_name": "Lor 1 Toa Payoh", "types": ["route"]}, {"long_name": "Toa Payoh", "short_name": "Toa Payoh", "types": ["neighborhood", "political"]}, {"long_name": "Singapore", "short_name": "Singapore", "types": ["locality", "political"]}, {"long_name": "Singapore", "short_name": "SG", "types": ["country", "political"]}, {"long_name": "311153", "short_name": "311153", "types": ["postal_code"]}], "formatted_address": "153A Lor 1 Toa Payoh, Block 153A, Singapore 311153", "geometry": {"bounds": {"northeast": {"lat": 1.3338666, "lng": 103.845401}, "southwest": {"lat": 1.3336695, "lng": 103.845043}}, "location": {"lat": 1.3337818, "lng": 103.8452663}, "location_type": "ROOFTOP", "viewport": {"northeast": {"lat": 1.335117030291502, "lng": 103.8465709802915}, "southwest": {"lat": 1.332419069708498, "lng": 103.8438730197085}}}, "place_id": "ChIJV5R8gWcX2jERBvwoNGarrIw", "types": ["premise"]}