{"address_components": [{"long_name": "Block 620", "short_name": "Block 620", "types": ["premise"]}, {"long_name": "620", "short_name": "620", "types": ["street_number"]}, {"long_name": "Woodlands Drive 52", "short_name": "Woodlands Drive 52", "types": ["route"]}, {"long_name": "Woodlands", "short_name": "Woodlands", "types": ["neighborhood", "political"]}, {"long_name": "Singapore", "short_name": "Singapore", "types": ["locality", "political"]}, {"long_name": "Singapore", "short_name": "SG", "types": ["country", "political"]}, {"long_name": "730620", "short_name": "730620", "types": ["postal_code"]}], "formatted_address": "620 Woodlands Drive 52, Block 620, Singapore 730620", "geometry": {"bounds": {"northeast": {"lat": 1.4339426, "lng": 103.7992279}, "southwest": {"lat": 1.4333515, "lng": 103.7985728}}, "location": {"lat": 1.4336298, "lng": 103.7986691}, "location_type": "ROOFTOP", "viewport": {"northeast": {"lat": 1.434996030291502, "lng": 103.8002493302915}, "southwest": {"lat": 1.432298069708498, "lng": 103.7975513697085}}}, "place_id": "ChIJ1y0uopgT2jEREDetBCwKxs8", "types": ["premise"]}