{"address_components": [{"long_name": "Block 26", "short_name": "Block 26", "types": ["premise"]}, {"long_name": "26", "short_name": "26", "types": ["street_number"]}, {"long_name": "Chai Chee Road", "short_name": "Chai Chee Rd", "types": ["route"]}, {"long_name": "Bedok", "short_name": "Bedok", "types": ["neighborhood", "political"]}, {"long_name": "Singapore", "short_name": "Singapore", "types": ["locality", "political"]}, {"long_name": "Singapore", "short_name": "SG", "types": ["country", "political"]}, {"long_name": "460026", "short_name": "460026", "types": ["postal_code"]}], "formatted_address": "26 Chai Chee Rd, Block 26, Singapore 460026", "geometry": {"bounds": {"northeast": {"lat": 1.3235972, "lng": 103.9238777}, "southwest": {"lat": 1.3231135, "lng": 103.9233213}}, "location": {"lat": 1.3233495, "lng": 103.9235924}, "location_type": "ROOFTOP", "viewport": {"northeast": {"lat": 1.324704330291502, "lng": 103.9249484802915}, "southwest": {"lat": 1.322006369708498, "lng": 103.9222505197085}}}, "place_id": "ChIJu8vprq0i2jERAO-Vcu7aH2o", "types": ["premise"]}