{"address_components": [{"long_name": "Block 389", "short_name": "Block 389", "types": ["premise"]}, {"long_name": "389", "short_name": "389", "types": ["street_number"]}, {"long_name": "Yishun Avenue 6", "short_name": "Yishun Ave 6", "types": ["route"]}, {"long_name": "Yishun", "short_name": "Yishun", "types": ["neighborhood", "political"]}, {"long_name": "Singapore", "short_name": "Singapore", "types": ["locality", "political"]}, {"long_name": "Singapore", "short_name": "SG", "types": ["country", "political"]}, {"long_name": "760389", "short_name": "760389", "types": ["postal_code"]}], "formatted_address": "389 Yishun Ave 6, Block 389, Singapore 760389", "geometry": {"bounds": {"northeast": {"lat": 1.4297142, "lng": 103.8488801}, "southwest": {"lat": 1.4295343, "lng": 103.8477801}}, "location": {"lat": 1.4296553, "lng": 103.8483915}, "location_type": "ROOFTOP", "viewport": {"northeast": {"lat": 1.430973230291502, "lng": 103.8496790802915}, "southwest": {"lat": 1.428275269708498, "lng": 103.8469811197085}}}, "place_id": "ChIJER8uLUMU2jER2UnVyitd1lI", "types": ["premise"]}