{"address_components": [{"long_name": "Block 950", "short_name": "Block 950", "types": ["premise"]}, {"long_name": "950", "short_name": "950", "types": ["street_number"]}, {"long_name": "Jurong West Street 91", "short_name": "Jurong West Street 91", "types": ["route"]}, {"long_name": "Jurong West", "short_name": "Jurong West", "types": ["neighborhood", "political"]}, {"long_name": "Singapore", "short_name": "Singapore", "types": ["locality", "political"]}, {"long_name": "Singapore", "short_name": "SG", "types": ["country", "political"]}, {"long_name": "640950", "short_name": "640950", "types": ["postal_code"]}], "formatted_address": "950 Jurong West Street 91, Block 950, Singapore 640950", "geometry": {"bounds": {"northeast": {"lat": 1.34373, "lng": 103.6913371}, "southwest": {"lat": 1.3429399, "lng": 103.6905419}}, "location": {"lat": 1.3433432, "lng": 103.6908646}, "location_type": "ROOFTOP", "viewport": {"northeast": {"lat": 1.344683930291502, "lng": 103.6922884802915}, "southwest": {"lat": 1.341985969708498, "lng": 103.6895905197085}}}, "place_id": "ChIJo-ZwBpkP2jERGjfAMGolRLw", "types": ["premise"]}