{"address_components": [{"long_name": "Block 332", "short_name": "Block 332", "types": ["premise"]}, {"long_name": "332", "short_name": "332", "types": ["street_number"]}, {"long_name": "Serangoon Avenue 3", "short_name": "Serangoon Ave 3", "types": ["route"]}, {"long_name": "Serangoon", "short_name": "Serangoon", "types": ["neighborhood", "political"]}, {"long_name": "Singapore", "short_name": "Singapore", "types": ["locality", "political"]}, {"long_name": "Singapore", "short_name": "SG", "types": ["country", "political"]}, {"long_name": "550332", "short_name": "550332", "types": ["postal_code"]}], "formatted_address": "332 Serangoon Ave 3, Block 332, Singapore 550332", "geometry": {"bounds": {"northeast": {"lat": 1.3511619, "lng": 103.870649}, "southwest": {"lat": 1.3505709, "lng": 103.8696879}}, "location": {"lat": 1.3510256, "lng": 103.8701338}, "location_type": "ROOFTOP", "viewport": {"northeast": {"lat": 1.352215380291502, "lng": 103.8715174302915}, "southwest": {"lat": 1.349517419708498, "lng": 103.8688194697085}}}, "place_id": "ChIJ_ektPacX2jERWBOb3UWvxC0", "types": ["premise"]}