{"address_components": [{"long_name": "Block 742", "short_name": "Block 742", "types": ["premise"]}, {"long_name": "742", "short_name": "742", "types": ["street_number"]}, {"long_name": "Woodlands Circle", "short_name": "Woodlands Cir", "types": ["route"]}, {"long_name": "Woodlands", "short_name": "Woodlands", "types": ["neighborhood", "political"]}, {"long_name": "Singapore", "short_name": "Singapore", "types": ["locality", "political"]}, {"long_name": "Singapore", "short_name": "SG", "types": ["country", "political"]}, {"long_name": "730742", "short_name": "730742", "types": ["postal_code"]}], "formatted_address": "742 Woodlands Cir, Block 742, Singapore 730742", "geometry": {"bounds": {"northeast": {"lat": 1.444248, "lng": 103.7962869}, "southwest": {"lat": 1.4437549, "lng": 103.7956899}}, "location": {"lat": 1.4439226, "lng": 103.7959526}, "location_type": "ROOFTOP", "viewport": {"northeast": {"lat": 1.445350430291502, "lng": 103.7973373802915}, "southwest": {"lat": 1.442652469708498, "lng": 103.7946394197085}}}, "place_id": "ChIJz7bHfQsT2jEROmJmju2dyA0", "types": ["premise"]}