{"address_components": [{"long_name": "Block 908", "short_name": "Block 908", "types": ["premise"]}, {"long_name": "908", "short_name": "908", "types": ["street_number"]}, {"long_name": "Tampines Avenue 4", "short_name": "Tampines Ave 4", "types": ["route"]}, {"long_name": "Tampines", "short_name": "Tampines", "types": ["neighborhood", "political"]}, {"long_name": "Singapore", "short_name": "Singapore", "types": ["locality", "political"]}, {"long_name": "Singapore", "short_name": "SG", "types": ["country", "political"]}, {"long_name": "520908", "short_name": "520908", "types": ["postal_code"]}], "formatted_address": "908 Tampines Ave 4, Block 908, Singapore 520908", "geometry": {"bounds": {"northeast": {"lat": 1.3507791, "lng": 103.938845}, "southwest": {"lat": 1.350127, "lng": 103.938653}}, "location": {"lat": 1.3504608, "lng": 103.9387125}, "location_type": "ROOFTOP", "viewport": {"northeast": {"lat": 1.351802030291502, "lng": 103.9400979802915}, "southwest": {"lat": 1.349104069708498, "lng": 103.9374000197085}}}, "place_id": "ChIJwwTZQBM92jERbM1MSlBZVaY", "types": ["premise"]}