{"address_components": [{"long_name": "Block 689A", "short_name": "Block 689A", "types": ["premise"]}, {"long_name": "689A", "short_name": "689A", "types": ["street_number"]}, {"long_name": "Woodlands Drive 75", "short_name": "Woodlands Drive 75", "types": ["route"]}, {"long_name": "Woodlands", "short_name": "Woodlands", "types": ["neighborhood", "political"]}, {"long_name": "Singapore", "short_name": "Singapore", "types": ["locality", "political"]}, {"long_name": "Singapore", "short_name": "SG", "types": ["country", "political"]}, {"long_name": "731689", "short_name": "731689", "types": ["postal_code"]}], "formatted_address": "689A Woodlands Drive 75, Block 689A, Singapore 731689", "geometry": {"bounds": {"northeast": {"lat": 1.4447477, "lng": 103.8081967}, "southwest": {"lat": 1.444334, "lng": 103.8078487}}, "location": {"lat": 1.4445088, "lng": 103.8079963}, "location_type": "ROOFTOP", "viewport": {"northeast": {"lat": 1.445889830291502, "lng": 103.8093716802915}, "southwest": {"lat": 1.443191869708498, "lng": 103.8066737197085}}}, "place_id": "ChIJgTmfz3AT2jER5YUBR1WFTWA", "types": ["premise"]}