{"address_components": [{"long_name": "Block 352C", "short_name": "Block 352C", "types": ["premise"]}, {"long_name": "352C", "short_name": "352C", "types": ["street_number"]}, {"long_name": "Canberra Road", "short_name": "Canberra Rd", "types": ["route"]}, {"long_name": "Sembawang", "short_name": "Sembawang", "types": ["neighborhood", "political"]}, {"long_name": "Singapore", "short_name": "Singapore", "types": ["locality", "political"]}, {"long_name": "Singapore", "short_name": "SG", "types": ["country", "political"]}, {"long_name": "753352", "short_name": "753352", "types": ["postal_code"]}], "formatted_address": "352C Canberra Rd, Block 352C, Singapore 753352", "geometry": {"bounds": {"northeast": {"lat": 1.4500295, "lng": 103.8200759}, "southwest": {"lat": 1.4496674, "lng": 103.8196949}}, "location": {"lat": 1.4497756, "lng": 103.8198827}, "location_type": "ROOFTOP", "viewport": {"northeast": {"lat": 1.451197430291502, "lng": 103.8212343802915}, "southwest": {"lat": 1.448499469708498, "lng": 103.8185364197085}}}, "place_id": "ChIJWTHw6WIT2jEREnUSRyxjP1c", "types": ["premise"]}