{"address_components": [{"long_name": "Block 337", "short_name": "Block 337", "types": ["premise"]}, {"long_name": "337", "short_name": "337", "types": ["street_number"]}, {"long_name": "Hougang Avenue 7", "short_name": "Hougang Ave 7", "types": ["route"]}, {"long_name": "Hougang", "short_name": "Hougang", "types": ["neighborhood", "political"]}, {"long_name": "Singapore", "short_name": "Singapore", "types": ["locality", "political"]}, {"long_name": "Singapore", "short_name": "SG", "types": ["country", "political"]}, {"long_name": "530337", "short_name": "530337", "types": ["postal_code"]}], "formatted_address": "337 Hougang Ave 7, Block 337, Singapore 530337", "geometry": {"bounds": {"northeast": {"lat": 1.3698366, "lng": 103.8987735}, "southwest": {"lat": 1.3696402, "lng": 103.8978033}}, "location": {"lat": 1.3697549, "lng": 103.8983133}, "location_type": "ROOFTOP", "viewport": {"northeast": {"lat": 1.371087380291502, "lng": 103.8996373802915}, "southwest": {"lat": 1.368389419708498, "lng": 103.8969394197085}}}, "place_id": "ChIJvzEKPzEW2jERrJJyV51gOa8", "types": ["premise"]}