{"address_components": [{"long_name": "Block 833", "short_name": "Block 833", "types": ["premise"]}, {"long_name": "833", "short_name": "833", "types": ["street_number"]}, {"long_name": "Jurong West Street 81", "short_name": "Jurong West Street 81", "types": ["route"]}, {"long_name": "Jurong West", "short_name": "Jurong West", "types": ["neighborhood", "political"]}, {"long_name": "Singapore", "short_name": "Singapore", "types": ["locality", "political"]}, {"long_name": "Singapore", "short_name": "SG", "types": ["country", "political"]}, {"long_name": "640833", "short_name": "640833", "types": ["postal_code"]}], "formatted_address": "833 Jurong West Street 81, Block 833, Singapore 640833", "geometry": {"bounds": {"northeast": {"lat": 1.34401, "lng": 103.6946506}, "southwest": {"lat": 1.3434869, "lng": 103.6941247}}, "location": {"lat": 1.3439167, "lng": 103.6943048}, "location_type": "ROOFTOP", "viewport": {"northeast": {"lat": 1.345097430291502, "lng": 103.6957366302915}, "southwest": {"lat": 1.342399469708498, "lng": 103.6930386697085}}}, "place_id": "ChIJD8epf5cP2jERw_ChNcbqppY", "types": ["premise"]}