{"address_components": [{"long_name": "327C", "short_name": "327C", "types": ["street_number"]}, {"long_name": "Anchorvale Road", "short_name": "Anchorvale Rd", "types": ["route"]}, {"long_name": "Sengkang", "short_name": "Sengkang", "types": ["neighborhood", "political"]}, {"long_name": "Singapore", "short_name": "Singapore", "types": ["locality", "political"]}, {"long_name": "Singapore", "short_name": "SG", "types": ["country", "political"]}, {"long_name": "543327", "short_name": "543327", "types": ["postal_code"]}], "formatted_address": "327C Anchorvale Rd, Singapore 543327", "geometry": {"bounds": {"northeast": {"lat": 1.3962801, "lng": 103.8888444}, "southwest": {"lat": 1.3959865, "lng": 103.8883924}}, "location": {"lat": 1.3961174, "lng": 103.8886174}, "location_type": "ROOFTOP", "viewport": {"northeast": {"lat": 1.397482280291502, "lng": 103.8899673802915}, "southwest": {"lat": 1.394784319708498, "lng": 103.8872694197085}}}, "place_id": "ChIJwec8enMW2jERSEZe_SZm59c", "types": ["establishment", "premise"]}