{"address_components": [{"long_name": "Block 530", "short_name": "Block 530", "types": ["premise"]}, {"long_name": "530", "short_name": "530", "types": ["street_number"]}, {"long_name": "Jurong West Street 52", "short_name": "Jurong West Street 52", "types": ["route"]}, {"long_name": "Jurong West", "short_name": "Jurong West", "types": ["neighborhood", "political"]}, {"long_name": "Singapore", "short_name": "Singapore", "types": ["locality", "political"]}, {"long_name": "Singapore", "short_name": "SG", "types": ["country", "political"]}, {"long_name": "640530", "short_name": "640530", "types": ["postal_code"]}], "formatted_address": "530 Jurong West Street 52, Block 530, Singapore 640530", "geometry": {"bounds": {"northeast": {"lat": 1.3486302, "lng": 103.7158816}, "southwest": {"lat": 1.3484929, "lng": 103.7150951}}, "location": {"lat": 1.3485572, "lng": 103.7154804}, "location_type": "ROOFTOP", "viewport": {"northeast": {"lat": 1.349910530291502, "lng": 103.7168373302915}, "southwest": {"lat": 1.347212569708498, "lng": 103.7141393697085}}}, "place_id": "ChIJTT5KHMMP2jERSR4PnK43NdI", "types": ["premise"]}