{"address_components": [{"long_name": "Block 339", "short_name": "Block 339", "types": ["premise"]}, {"long_name": "339", "short_name": "339", "types": ["street_number"]}, {"long_name": "Clementi Avenue 5", "short_name": "Clementi Ave 5", "types": ["route"]}, {"long_name": "Clementi", "short_name": "Clementi", "types": ["neighborhood", "political"]}, {"long_name": "Singapore", "short_name": "Singapore", "types": ["locality", "political"]}, {"long_name": "Singapore", "short_name": "SG", "types": ["country", "political"]}, {"long_name": "120339", "short_name": "120339", "types": ["postal_code"]}], "formatted_address": "339 Clementi Ave 5, Block 339, Singapore 120339", "geometry": {"bounds": {"northeast": {"lat": 1.3198938, "lng": 103.7696077}, "southwest": {"lat": 1.3191328, "lng": 103.7686349}}, "location": {"lat": 1.3195385, "lng": 103.7691523}, "location_type": "ROOFTOP", "viewport": {"northeast": {"lat": 1.320862280291502, "lng": 103.7704702802915}, "southwest": {"lat": 1.318164319708498, "lng": 103.7677723197085}}}, "place_id": "ChIJa-fP1oUa2jEREeKDcGkqSW4", "types": ["premise"]}