{"address_components": [{"long_name": "Block 286", "short_name": "Block 286", "types": ["premise"]}, {"long_name": "286", "short_name": "286", "types": ["street_number"]}, {"long_name": "Tampines Street 22", "short_name": "Tampines Street 22", "types": ["route"]}, {"long_name": "Tampines", "short_name": "Tampines", "types": ["neighborhood", "political"]}, {"long_name": "Singapore", "short_name": "Singapore", "types": ["locality", "political"]}, {"long_name": "Singapore", "short_name": "SG", "types": ["country", "political"]}, {"long_name": "520286", "short_name": "520286", "types": ["postal_code"]}], "formatted_address": "286 Tampines Street 22, Block 286, Singapore 520286", "geometry": {"bounds": {"northeast": {"lat": 1.34966, "lng": 103.9534206}, "southwest": {"lat": 1.3494296, "lng": 103.9524955}}, "location": {"lat": 1.3495174, "lng": 103.9529673}, "location_type": "ROOFTOP", "viewport": {"northeast": {"lat": 1.350893780291502, "lng": 103.9543070302915}, "southwest": {"lat": 1.348195819708498, "lng": 103.9516090697085}}}, "place_id": "ChIJ9djB2Rs92jERuiirZr1O6C4", "types": ["premise"]}