{"address_components": [{"long_name": "88", "short_name": "88", "types": ["street_number"]}, {"long_name": "Bedok North Street 4", "short_name": "Bedok North Street 4", "types": ["route"]}, {"long_name": "Bedok", "short_name": "Bedok", "types": ["neighborhood", "political"]}, {"long_name": "Singapore", "short_name": "Singapore", "types": ["locality", "political"]}, {"long_name": "Singapore", "short_name": "SG", "types": ["country", "political"]}, {"long_name": "460088", "short_name": "460088", "types": ["postal_code"]}], "formatted_address": "88 Bedok North Street 4, Singapore 460088", "geometry": {"bounds": {"northeast": {"lat": 1.333243, "lng": 103.9395817}, "southwest": {"lat": 1.3325516, "lng": 103.9386907}}, "location": {"lat": 1.3327641, "lng": 103.9394604}, "location_type": "ROOFTOP", "viewport": {"northeast": {"lat": 1.334246280291502, "lng": 103.9404851802915}, "southwest": {"lat": 1.331548319708498, "lng": 103.9377872197085}}}, "place_id": "ChIJ6_IXJDY92jERzPquOauOuIg", "types": ["premise"]}