{"address_components": [{"long_name": "Block 354B", "short_name": "Block 354B", "types": ["premise"]}, {"long_name": "354B", "short_name": "354B", "types": ["street_number"]}, {"long_name": "Admiralty Drive", "short_name": "Admiralty Dr", "types": ["route"]}, {"long_name": "Sembawang", "short_name": "Sembawang", "types": ["neighborhood", "political"]}, {"long_name": "Singapore", "short_name": "Singapore", "types": ["locality", "political"]}, {"long_name": "Singapore", "short_name": "SG", "types": ["country", "political"]}, {"long_name": "752354", "short_name": "752354", "types": ["postal_code"]}], "formatted_address": "354B Admiralty Dr, Block 354B, Singapore 752354", "geometry": {"bounds": {"northeast": {"lat": 1.4505885, "lng": 103.8189117}, "southwest": {"lat": 1.4502055, "lng": 103.8185487}}, "location": {"lat": 1.4503705, "lng": 103.81866}, "location_type": "ROOFTOP", "viewport": {"northeast": {"lat": 1.451745980291502, "lng": 103.8200791802915}, "southwest": {"lat": 1.449048019708498, "lng": 103.8173812197085}}}, "place_id": "ChIJC25IHWMT2jERaDCaYO0etDw", "types": ["premise"]}