{"address_components": [{"long_name": "632C", "short_name": "632C", "types": ["street_number"]}, {"long_name": "Punggol Drive", "short_name": "Punggol Dr", "types": ["route"]}, {"long_name": "Punggol", "short_name": "Punggol", "types": ["neighborhood", "political"]}, {"long_name": "Singapore", "short_name": "Singapore", "types": ["locality", "political"]}, {"long_name": "Singapore", "short_name": "SG", "types": ["country", "political"]}, {"long_name": "823632", "short_name": "823632", "types": ["postal_code"]}], "formatted_address": "632C Punggol Dr, Singapore 823632", "geometry": {"bounds": {"northeast": {"lat": 1.4011136, "lng": 103.9134718}, "southwest": {"lat": 1.4005819, "lng": 103.9128188}}, "location": {"lat": 1.4008985, "lng": 103.9131529}, "location_type": "ROOFTOP", "viewport": {"northeast": {"lat": 1.402196730291502, "lng": 103.9144942802915}, "southwest": {"lat": 1.399498769708498, "lng": 103.9117963197085}}}, "place_id": "ChIJO92_dAAW2jERDFDa0E6YrpM", "types": ["premise"]}