{"address_components": [{"long_name": "Block 954", "short_name": "Block 954", "types": ["premise"]}, {"long_name": "954", "short_name": "954", "types": ["street_number"]}, {"long_name": "Hougang Avenue 9", "short_name": "Hougang Ave 9", "types": ["route"]}, {"long_name": "Hougang", "short_name": "Hougang", "types": ["neighborhood", "political"]}, {"long_name": "Singapore", "short_name": "Singapore", "types": ["locality", "political"]}, {"long_name": "Singapore", "short_name": "SG", "types": ["country", "political"]}, {"long_name": "530954", "short_name": "530954", "types": ["postal_code"]}], "formatted_address": "954 Hougang Ave 9, Block 954, Singapore 530954", "geometry": {"bounds": {"northeast": {"lat": 1.37683, "lng": 103.878462}, "southwest": {"lat": 1.376521, "lng": 103.877791}}, "location": {"lat": 1.3766858, "lng": 103.8783786}, "location_type": "ROOFTOP", "viewport": {"northeast": {"lat": 1.378024480291502, "lng": 103.8794754802915}, "southwest": {"lat": 1.375326519708498, "lng": 103.8767775197085}}}, "place_id": "ChIJN8VbFVsW2jERQIgELVsyKLQ", "types": ["premise"]}