{"address_components": [{"long_name": "Block 108", "short_name": "Block 108", "types": ["premise"]}, {"long_name": "108", "short_name": "108", "types": ["street_number"]}, {"long_name": "Simei Street 1", "short_name": "Simei Street 1", "types": ["route"]}, {"long_name": "Tampines", "short_name": "Tampines", "types": ["neighborhood", "political"]}, {"long_name": "Singapore", "short_name": "Singapore", "types": ["locality", "political"]}, {"long_name": "Singapore", "short_name": "SG", "types": ["country", "political"]}, {"long_name": "520108", "short_name": "520108", "types": ["postal_code"]}], "formatted_address": "108 Simei Street 1, Block 108, Singapore 520108", "geometry": {"bounds": {"northeast": {"lat": 1.3433665, "lng": 103.951406}, "southwest": {"lat": 1.3425995, "lng": 103.950633}}, "location": {"lat": 1.3429963, "lng": 103.9510862}, "location_type": "ROOFTOP", "viewport": {"northeast": {"lat": 1.344331980291502, "lng": 103.9523684802915}, "southwest": {"lat": 1.341634019708498, "lng": 103.9496705197085}}}, "place_id": "ChIJbcw76SI92jERsfCyZmVqR5k", "types": ["premise"]}