{"address_components": [{"long_name": "Block 434", "short_name": "Block 434", "types": ["premise"]}, {"long_name": "434", "short_name": "434", "types": ["street_number"]}, {"long_name": "Clementi Avenue 3", "short_name": "Clementi Ave 3", "types": ["route"]}, {"long_name": "Clementi", "short_name": "Clementi", "types": ["neighborhood", "political"]}, {"long_name": "Singapore", "short_name": "Singapore", "types": ["locality", "political"]}, {"long_name": "Singapore", "short_name": "SG", "types": ["country", "political"]}, {"long_name": "120434", "short_name": "120434", "types": ["postal_code"]}], "formatted_address": "434 Clementi Ave 3, Block 434, Singapore 120434", "geometry": {"bounds": {"northeast": {"lat": 1.3146631, "lng": 103.761928}, "southwest": {"lat": 1.3145221, "lng": 103.761129}}, "location": {"lat": 1.3146042, "lng": 103.7615478}, "location_type": "ROOFTOP", "viewport": {"northeast": {"lat": 1.315941580291502, "lng": 103.7628774802915}, "southwest": {"lat": 1.313243619708498, "lng": 103.7601795197085}}}, "place_id": "ChIJuW_RupEa2jERPgWvMGv2aSQ", "types": ["premise"]}