{"address_components": [{"long_name": "Block 408", "short_name": "Block 408", "types": ["premise"]}, {"long_name": "408", "short_name": "408", "types": ["street_number"]}, {"long_name": "Woodlands Street 41", "short_name": "Woodlands Street 41", "types": ["route"]}, {"long_name": "Woodlands", "short_name": "Woodlands", "types": ["neighborhood", "political"]}, {"long_name": "Singapore", "short_name": "Singapore", "types": ["locality", "political"]}, {"long_name": "Singapore", "short_name": "SG", "types": ["country", "political"]}, {"long_name": "730408", "short_name": "730408", "types": ["postal_code"]}], "formatted_address": "408 Woodlands Street 41, Block 408, Singapore 730408", "geometry": {"bounds": {"northeast": {"lat": 1.4288609, "lng": 103.772935}, "southwest": {"lat": 1.42861, "lng": 103.7721701}}, "location": {"lat": 1.4287996, "lng": 103.7725021}, "location_type": "ROOFTOP", "viewport": {"northeast": {"lat": 1.430084430291502, "lng": 103.7739015302915}, "southwest": {"lat": 1.427386469708498, "lng": 103.7712035697085}}}, "place_id": "ChIJsd_MC00S2jERbv_EbUP9ZdQ", "types": ["premise"]}