{"address_components": [{"long_name": "Block 309", "short_name": "Block 309", "types": ["premise"]}, {"long_name": "309", "short_name": "309", "types": ["street_number"]}, {"long_name": "Clementi Avenue 4", "short_name": "Clementi Ave 4", "types": ["route"]}, {"long_name": "Clementi", "short_name": "Clementi", "types": ["neighborhood", "political"]}, {"long_name": "Singapore", "short_name": "Singapore", "types": ["locality", "political"]}, {"long_name": "Singapore", "short_name": "SG", "types": ["country", "political"]}, {"long_name": "120309", "short_name": "120309", "types": ["postal_code"]}], "formatted_address": "309 Clementi Ave 4, Block 309, Singapore 120309", "geometry": {"bounds": {"northeast": {"lat": 1.3211623, "lng": 103.7668651}, "southwest": {"lat": 1.3205501, "lng": 103.7658516}}, "location": {"lat": 1.3209451, "lng": 103.7663458}, "location_type": "ROOFTOP", "viewport": {"northeast": {"lat": 1.322205180291502, "lng": 103.7677073302915}, "southwest": {"lat": 1.319507219708498, "lng": 103.7650093697085}}}, "place_id": "ChIJ5QEz9IQa2jER6vWUkoF6R40", "types": ["premise"]}