{"address_components": [{"long_name": "Block 406", "short_name": "Block 406", "types": ["premise"]}, {"long_name": "406", "short_name": "406", "types": ["street_number"]}, {"long_name": "Hougang Avenue 10", "short_name": "Hougang Ave 10", "types": ["route"]}, {"long_name": "Hougang", "short_name": "Hougang", "types": ["neighborhood", "political"]}, {"long_name": "Singapore", "short_name": "Singapore", "types": ["locality", "political"]}, {"long_name": "Singapore", "short_name": "SG", "types": ["country", "political"]}, {"long_name": "530406", "short_name": "530406", "types": ["postal_code"]}], "formatted_address": "406 Hougang Ave 10, Block 406, Singapore 530406", "geometry": {"bounds": {"northeast": {"lat": 1.3738251, "lng": 103.8964578}, "southwest": {"lat": 1.3736621, "lng": 103.8957959}}, "location": {"lat": 1.3737244, "lng": 103.8959572}, "location_type": "ROOFTOP", "viewport": {"northeast": {"lat": 1.375092580291502, "lng": 103.8974758302915}, "southwest": {"lat": 1.372394619708498, "lng": 103.8947778697085}}}, "place_id": "ChIJT9WC5TkW2jERKliptmVOGSs", "types": ["premise"]}