{"address_components": [{"long_name": "Block 122", "short_name": "Block 122", "types": ["premise"]}, {"long_name": "122", "short_name": "122", "types": ["street_number"]}, {"long_name": "Geylang East Central", "short_name": "Geylang East Central", "types": ["route"]}, {"long_name": "Geylang", "short_name": "Geylang", "types": ["neighborhood", "political"]}, {"long_name": "Singapore", "short_name": "Singapore", "types": ["locality", "political"]}, {"long_name": "Singapore", "short_name": "SG", "types": ["country", "political"]}, {"long_name": "380122", "short_name": "380122", "types": ["postal_code"]}], "formatted_address": "122 Geylang East Central, Block 122, Singapore 380122", "geometry": {"bounds": {"northeast": {"lat": 1.3177955, "lng": 103.8854058}, "southwest": {"lat": 1.3175598, "lng": 103.8845756}}, "location": {"lat": 1.3176904, "lng": 103.8850203}, "location_type": "ROOFTOP", "viewport": {"northeast": {"lat": 1.319026630291502, "lng": 103.8863396802915}, "southwest": {"lat": 1.316328669708498, "lng": 103.8836417197085}}}, "place_id": "ChIJ0X40pCQY2jER1W9TVGQipSY", "types": ["premise"]}