{"address_components": [{"long_name": "Block 354", "short_name": "Block 354", "types": ["premise"]}, {"long_name": "354", "short_name": "354", "types": ["street_number"]}, {"long_name": "Kang Ching Road", "short_name": "Kang Ching Rd", "types": ["route"]}, {"long_name": "Jurong West", "short_name": "Jurong West", "types": ["neighborhood", "political"]}, {"long_name": "Singapore", "short_name": "Singapore", "types": ["locality", "political"]}, {"long_name": "Singapore", "short_name": "SG", "types": ["country", "political"]}, {"long_name": "610354", "short_name": "610354", "types": ["postal_code"]}], "formatted_address": "354 Kang Ching Rd, Block 354, Singapore 610354", "geometry": {"bounds": {"northeast": {"lat": 1.3398342, "lng": 103.7204613}, "southwest": {"lat": 1.3390383, "lng": 103.7199045}}, "location": {"lat": 1.3395126, "lng": 103.7202737}, "location_type": "ROOFTOP", "viewport": {"northeast": {"lat": 1.340785230291502, "lng": 103.7215318802915}, "southwest": {"lat": 1.338087269708498, "lng": 103.7188339197085}}}, "place_id": "ChIJsXZrWOQP2jERpe66ApLxers", "types": ["premise"]}