{"address_components": [{"long_name": "Block 567", "short_name": "Block 567", "types": ["premise"]}, {"long_name": "567", "short_name": "567", "types": ["street_number"]}, {"long_name": "Hougang Street 51", "short_name": "Hougang Street 51", "types": ["route"]}, {"long_name": "Hougang", "short_name": "Hougang", "types": ["neighborhood", "political"]}, {"long_name": "Singapore", "short_name": "Singapore", "types": ["locality", "political"]}, {"long_name": "Singapore", "short_name": "SG", "types": ["country", "political"]}, {"long_name": "530567", "short_name": "530567", "types": ["postal_code"]}], "formatted_address": "567 Hougang Street 51, Block 567, Singapore 530567", "geometry": {"bounds": {"northeast": {"lat": 1.378997, "lng": 103.889258}, "southwest": {"lat": 1.378399, "lng": 103.888855}}, "location": {"lat": 1.3786004, "lng": 103.8890705}, "location_type": "ROOFTOP", "viewport": {"northeast": {"lat": 1.380046980291502, "lng": 103.8904054802915}, "southwest": {"lat": 1.377349019708498, "lng": 103.8877075197085}}}, "place_id": "ChIJERqpxEAW2jERLTGQGnAlDPg", "types": ["premise"]}