{"address_components": [{"long_name": "Block 127", "short_name": "Block 127", "types": ["premise"]}, {"long_name": "127", "short_name": "127", "types": ["street_number"]}, {"long_name": "Geylang East Avenue 1", "short_name": "Geylang East Ave 1", "types": ["route"]}, {"long_name": "Geylang", "short_name": "Geylang", "types": ["neighborhood", "political"]}, {"long_name": "Singapore", "short_name": "Singapore", "types": ["locality", "political"]}, {"long_name": "Singapore", "short_name": "SG", "types": ["country", "political"]}, {"long_name": "380127", "short_name": "380127", "types": ["postal_code"]}], "formatted_address": "127 Geylang East Ave 1, Block 127, Singapore 380127", "geometry": {"bounds": {"northeast": {"lat": 1.3182031, "lng": 103.8879277}, "southwest": {"lat": 1.3175692, "lng": 103.8873666}}, "location": {"lat": 1.3180641, "lng": 103.8877159}, "location_type": "ROOFTOP", "viewport": {"northeast": {"lat": 1.319235130291502, "lng": 103.8889961302915}, "southwest": {"lat": 1.316537169708498, "lng": 103.8862981697085}}}, "place_id": "ChIJm7U4IyMY2jER9RKAP9BmG-I", "types": ["premise"]}