{"address_components": [{"long_name": "Block 842B", "short_name": "Block 842B", "types": ["premise"]}, {"long_name": "842B", "short_name": "842B", "types": ["street_number"]}, {"long_name": "Tampines Street 82", "short_name": "Tampines Street 82", "types": ["route"]}, {"long_name": "Tampines", "short_name": "Tampines", "types": ["neighborhood", "political"]}, {"long_name": "Singapore", "short_name": "Singapore", "types": ["locality", "political"]}, {"long_name": "Singapore", "short_name": "SG", "types": ["country", "political"]}, {"long_name": "522842", "short_name": "522842", "types": ["postal_code"]}], "formatted_address": "842B Tampines Street 82, Block 842B, Singapore 522842", "geometry": {"bounds": {"northeast": {"lat": 1.351448, "lng": 103.937476}, "southwest": {"lat": 1.3508701, "lng": 103.9366559}}, "location": {"lat": 1.3513691, "lng": 103.936741}, "location_type": "ROOFTOP", "viewport": {"northeast": {"lat": 1.352508030291502, "lng": 103.9384149302915}, "southwest": {"lat": 1.349810069708498, "lng": 103.9357169697085}}}, "place_id": "ChIJf-8szmw92jERwFZIYwMI_KI", "types": ["premise"]}