{"address_components": [{"long_name": "Block 603", "short_name": "Block 603", "types": ["premise"]}, {"long_name": "603", "short_name": "603", "types": ["street_number"]}, {"long_name": "Clementi West Street 1", "short_name": "Clementi West Street 1", "types": ["route"]}, {"long_name": "Clementi", "short_name": "Clementi", "types": ["neighborhood", "political"]}, {"long_name": "Singapore", "short_name": "Singapore", "types": ["locality", "political"]}, {"long_name": "Singapore", "short_name": "SG", "types": ["country", "political"]}, {"long_name": "120603", "short_name": "120603", "types": ["postal_code"]}], "formatted_address": "603 Clementi West Street 1, Block 603, Singapore 120603", "geometry": {"bounds": {"northeast": {"lat": 1.305252, "lng": 103.767441}, "southwest": {"lat": 1.304577, "lng": 103.766927}}, "location": {"lat": 1.3049124, "lng": 103.7672512}, "location_type": "ROOFTOP", "viewport": {"northeast": {"lat": 1.306263480291502, "lng": 103.7685329802915}, "southwest": {"lat": 1.303565519708498, "lng": 103.7658350197085}}}, "place_id": "ChIJAQMSt_Ma2jERmKTOG6w5vGM", "types": ["premise"]}