{"address_components": [{"long_name": "Block 95", "short_name": "Block 95", "types": ["premise"]}, {"long_name": "95", "short_name": "95", "types": ["street_number"]}, {"long_name": "Bedok North Avenue 4", "short_name": "Bedok North Ave 4", "types": ["route"]}, {"long_name": "Bedok", "short_name": "Bedok", "types": ["neighborhood", "political"]}, {"long_name": "Singapore", "short_name": "Singapore", "types": ["locality", "political"]}, {"long_name": "Singapore", "short_name": "SG", "types": ["country", "political"]}, {"long_name": "460095", "short_name": "460095", "types": ["postal_code"]}], "formatted_address": "95 Bedok North Ave 4, Block 95, Singapore 460095", "geometry": {"bounds": {"northeast": {"lat": 1.3340393, "lng": 103.9424716}, "southwest": {"lat": 1.3336699, "lng": 103.9416177}}, "location": {"lat": 1.3338112, "lng": 103.9418625}, "location_type": "ROOFTOP", "viewport": {"northeast": {"lat": 1.335203580291502, "lng": 103.9433936302915}, "southwest": {"lat": 1.332505619708498, "lng": 103.9406956697085}}}, "place_id": "ChIJI0EGPjc92jER-xyjQqHrQGs", "types": ["premise"]}