{"address_components": [{"long_name": "Block 348", "short_name": "Block 348", "types": ["premise"]}, {"long_name": "348", "short_name": "348", "types": ["street_number"]}, {"long_name": "Ubi Avenue 1", "short_name": "Ubi Ave 1", "types": ["route"]}, {"long_name": "Geylang", "short_name": "Geylang", "types": ["neighborhood", "political"]}, {"long_name": "Singapore", "short_name": "Singapore", "types": ["locality", "political"]}, {"long_name": "Singapore", "short_name": "SG", "types": ["country", "political"]}, {"long_name": "400348", "short_name": "400348", "types": ["postal_code"]}], "formatted_address": "348 Ubi Ave 1, Block 348, Singapore 400348", "geometry": {"bounds": {"northeast": {"lat": 1.3264053, "lng": 103.9009996}, "southwest": {"lat": 1.3259914, "lng": 103.9000105}}, "location": {"lat": 1.3261477, "lng": 103.9003522}, "location_type": "ROOFTOP", "viewport": {"northeast": {"lat": 1.327547330291502, "lng": 103.9018540302915}, "southwest": {"lat": 1.324849369708498, "lng": 103.8991560697085}}}, "place_id": "ChIJ05WefR0Y2jERiu-SBRp1M-Q", "types": ["premise"]}