{"address_components": [{"long_name": "BLK90", "short_name": "BLK90", "types": ["premise"]}, {"long_name": "90", "short_name": "90", "types": ["street_number"]}, {"long_name": "Tanglin Halt Road", "short_name": "Tanglin Halt Rd", "types": ["route"]}, {"long_name": "Queenstown", "short_name": "Queenstown", "types": ["neighborhood", "political"]}, {"long_name": "Singapore", "short_name": "Singapore", "types": ["locality", "political"]}, {"long_name": "Singapore", "short_name": "SG", "types": ["country", "political"]}, {"long_name": "141090", "short_name": "141090", "types": ["postal_code"]}], "formatted_address": "90 Tanglin Halt Rd, BLK90, Singapore 141090", "geometry": {"bounds": {"northeast": {"lat": 1.3006622, "lng": 103.7992463}, "southwest": {"lat": 1.3003432, "lng": 103.7987762}}, "location": {"lat": 1.3006381, "lng": 103.7990313}, "location_type": "ROOFTOP", "viewport": {"northeast": {"lat": 1.301851680291502, "lng": 103.8003602302915}, "southwest": {"lat": 1.299153719708498, "lng": 103.7976622697085}}}, "place_id": "ChIJZXIjezga2jERn5Dswfz6K-c", "types": ["premise"]}