{"address_components": [{"long_name": "Block 480", "short_name": "Block 480", "types": ["premise"]}, {"long_name": "480", "short_name": "480", "types": ["street_number"]}, {"long_name": "Sembawang Drive", "short_name": "Sembawang Dr", "types": ["route"]}, {"long_name": "Sembawang", "short_name": "Sembawang", "types": ["neighborhood", "political"]}, {"long_name": "Singapore", "short_name": "Singapore", "types": ["locality", "political"]}, {"long_name": "Singapore", "short_name": "SG", "types": ["country", "political"]}, {"long_name": "750480", "short_name": "750480", "types": ["postal_code"]}], "formatted_address": "480 Sembawang Dr, Block 480, Singapore 750480", "geometry": {"bounds": {"northeast": {"lat": 1.4525214, "lng": 103.8153405}, "southwest": {"lat": 1.4519513, "lng": 103.8149726}}, "location": {"lat": 1.4523929, "lng": 103.8151507}, "location_type": "ROOFTOP", "viewport": {"northeast": {"lat": 1.453585330291502, "lng": 103.8165055302915}, "southwest": {"lat": 1.450887369708498, "lng": 103.8138075697085}}}, "place_id": "ChIJXdGwEmQT2jERNysJC8UghGk", "types": ["premise"]}