{"address_components": [{"long_name": "Block 421", "short_name": "Block 421", "types": ["premise"]}, {"long_name": "421", "short_name": "421", "types": ["street_number"]}, {"long_name": "Hougang Avenue 10", "short_name": "Hougang Ave 10", "types": ["route"]}, {"long_name": "Hougang", "short_name": "Hougang", "types": ["neighborhood", "political"]}, {"long_name": "Singapore", "short_name": "Singapore", "types": ["locality", "political"]}, {"long_name": "Singapore", "short_name": "SG", "types": ["country", "political"]}, {"long_name": "530421", "short_name": "530421", "types": ["postal_code"]}], "formatted_address": "421 Hougang Ave 10, Block 421, Singapore 530421", "geometry": {"bounds": {"northeast": {"lat": 1.3756191, "lng": 103.8949872}, "southwest": {"lat": 1.3753499, "lng": 103.8942687}}, "location": {"lat": 1.3754906, "lng": 103.894598}, "location_type": "ROOFTOP", "viewport": {"northeast": {"lat": 1.376833480291502, "lng": 103.8959769302915}, "southwest": {"lat": 1.374135519708498, "lng": 103.8932789697085}}}, "place_id": "ChIJQXMlqDkW2jERZfRjC4zf1aE", "types": ["premise"]}