{"address_components": [{"long_name": "Block 251", "short_name": "Block 251", "types": ["premise"]}, {"long_name": "251", "short_name": "251", "types": ["street_number"]}, {"long_name": "Choa Chu Kang Avenue 2", "short_name": "Choa Chu Kang Ave 2", "types": ["route"]}, {"long_name": "Choa Chu Kang", "short_name": "Choa Chu Kang", "types": ["neighborhood", "political"]}, {"long_name": "Singapore", "short_name": "Singapore", "types": ["locality", "political"]}, {"long_name": "Singapore", "short_name": "SG", "types": ["country", "political"]}, {"long_name": "680251", "short_name": "680251", "types": ["postal_code"]}], "formatted_address": "251 Choa Chu Kang Ave 2, Block 251, Singapore 680251", "geometry": {"bounds": {"northeast": {"lat": 1.378675, "lng": 103.744829}, "southwest": {"lat": 1.377931, "lng": 103.7443539}}, "location": {"lat": 1.3783006, "lng": 103.7445976}, "location_type": "ROOFTOP", "viewport": {"northeast": {"lat": 1.379651980291502, "lng": 103.7459404302915}, "southwest": {"lat": 1.376954019708498, "lng": 103.7432424697085}}}, "place_id": "ChIJ2ce-c8QR2jERXngQIDd7KkM", "types": ["premise"]}