{"address_components": [{"long_name": "Block 613", "short_name": "Block 613", "types": ["premise"]}, {"long_name": "613", "short_name": "613", "types": ["street_number"]}, {"long_name": "Elias Road", "short_name": "Elias Rd", "types": ["route"]}, {"long_name": "Pasir Ris", "short_name": "Pasir Ris", "types": ["neighborhood", "political"]}, {"long_name": "Singapore", "short_name": "Singapore", "types": ["locality", "political"]}, {"long_name": "Singapore", "short_name": "SG", "types": ["country", "political"]}, {"long_name": "510613", "short_name": "510613", "types": ["postal_code"]}], "formatted_address": "613 Elias Rd, Block 613, Singapore 510613", "geometry": {"bounds": {"northeast": {"lat": 1.3754293, "lng": 103.9416299}, "southwest": {"lat": 1.3748896, "lng": 103.9411794}}, "location": {"lat": 1.3751211, "lng": 103.9413413}, "location_type": "ROOFTOP", "viewport": {"northeast": {"lat": 1.376508430291502, "lng": 103.9427536302915}, "southwest": {"lat": 1.373810469708498, "lng": 103.9400556697085}}}, "place_id": "ChIJWQUv9rw92jER8m93KD_d6Y8", "types": ["premise"]}