{"address_components": [{"long_name": "Block 705", "short_name": "Block 705", "types": ["premise"]}, {"long_name": "705", "short_name": "705", "types": ["street_number"]}, {"long_name": "Woodlands Drive 40", "short_name": "Woodlands Drive 40", "types": ["route"]}, {"long_name": "Woodlands", "short_name": "Woodlands", "types": ["neighborhood", "political"]}, {"long_name": "Singapore", "short_name": "Singapore", "types": ["locality", "political"]}, {"long_name": "Singapore", "short_name": "SG", "types": ["country", "political"]}, {"long_name": "730705", "short_name": "730705", "types": ["postal_code"]}], "formatted_address": "705 Woodlands Drive 40, Block 705, Singapore 730705", "geometry": {"bounds": {"northeast": {"lat": 1.44011, "lng": 103.796395}, "southwest": {"lat": 1.4396559, "lng": 103.7958819}}, "location": {"lat": 1.4397379, "lng": 103.7960431}, "location_type": "ROOFTOP", "viewport": {"northeast": {"lat": 1.441231930291502, "lng": 103.7974874302915}, "southwest": {"lat": 1.438533969708498, "lng": 103.7947894697085}}}, "place_id": "ChIJfaEahQoT2jERXaa5R6GzJTs", "types": ["premise"]}