{"address_components": [{"long_name": "Block 155", "short_name": "Block 155", "types": ["premise"]}, {"long_name": "155", "short_name": "155", "types": ["street_number"]}, {"long_name": "Yung Loh Road", "short_name": "Yung Loh Rd", "types": ["route"]}, {"long_name": "Jurong West", "short_name": "Jurong West", "types": ["neighborhood", "political"]}, {"long_name": "Singapore", "short_name": "Singapore", "types": ["locality", "political"]}, {"long_name": "Singapore", "short_name": "SG", "types": ["country", "political"]}, {"long_name": "610155", "short_name": "610155", "types": ["postal_code"]}], "formatted_address": "155 Yung Loh Rd, Block 155, Singapore 610155", "geometry": {"bounds": {"northeast": {"lat": 1.3279535, "lng": 103.7225828}, "southwest": {"lat": 1.3276258, "lng": 103.7222542}}, "location": {"lat": 1.327764, "lng": 103.7224683}, "location_type": "ROOFTOP", "viewport": {"northeast": {"lat": 1.329138630291502, "lng": 103.7237674802915}, "southwest": {"lat": 1.326440669708498, "lng": 103.7210695197085}}}, "place_id": "ChIJ-73cr_gP2jERJMWz8eaIC9o", "types": ["premise"]}