{"address_components": [{"long_name": "Block 634", "short_name": "Block 634", "types": ["premise"]}, {"long_name": "634", "short_name": "634", "types": ["street_number"]}, {"long_name": "Jurong West Street 65", "short_name": "Jurong West Street 65", "types": ["route"]}, {"long_name": "Jurong West", "short_name": "Jurong West", "types": ["neighborhood", "political"]}, {"long_name": "Singapore", "short_name": "Singapore", "types": ["locality", "political"]}, {"long_name": "Singapore", "short_name": "SG", "types": ["country", "political"]}, {"long_name": "640634", "short_name": "640634", "types": ["postal_code"]}], "formatted_address": "634 Jurong West Street 65, Block 634, Singapore 640634", "geometry": {"bounds": {"northeast": {"lat": 1.343299, "lng": 103.699091}, "southwest": {"lat": 1.342862, "lng": 103.698632}}, "location": {"lat": 1.3430779, "lng": 103.6988271}, "location_type": "ROOFTOP", "viewport": {"northeast": {"lat": 1.344429480291502, "lng": 103.7002104802915}, "southwest": {"lat": 1.341731519708498, "lng": 103.6975125197085}}}, "place_id": "ChIJG80nkpYP2jERnrO2r0Ve8ow", "types": ["premise"]}