{"address_components": [{"long_name": "Block 424", "short_name": "Block 424", "types": ["premise"]}, {"long_name": "424", "short_name": "424", "types": ["street_number"]}, {"long_name": "Tampines Street 41", "short_name": "Tampines Street 41", "types": ["route"]}, {"long_name": "Tampines", "short_name": "Tampines", "types": ["neighborhood", "political"]}, {"long_name": "Singapore", "short_name": "Singapore", "types": ["locality", "political"]}, {"long_name": "Singapore", "short_name": "SG", "types": ["country", "political"]}, {"long_name": "520424", "short_name": "520424", "types": ["postal_code"]}], "formatted_address": "424 Tampines Street 41, Block 424, Singapore 520424", "geometry": {"bounds": {"northeast": {"lat": 1.3578073, "lng": 103.9482576}, "southwest": {"lat": 1.3570622, "lng": 103.9481286}}, "location": {"lat": 1.3574329, "lng": 103.9481853}, "location_type": "ROOFTOP", "viewport": {"northeast": {"lat": 1.358783730291502, "lng": 103.9495420802915}, "southwest": {"lat": 1.356085769708498, "lng": 103.9468441197085}}}, "place_id": "ChIJy1CQaQ892jER_R49BK4_zuo", "types": ["premise"]}