{"address_components": [{"long_name": "319B", "short_name": "319B", "types": ["street_number"]}, {"long_name": "Anchorvale Drive", "short_name": "Anchorvale Dr", "types": ["route"]}, {"long_name": "Sengkang", "short_name": "Sengkang", "types": ["neighborhood", "political"]}, {"long_name": "Singapore", "short_name": "Singapore", "types": ["locality", "political"]}, {"long_name": "Singapore", "short_name": "SG", "types": ["country", "political"]}, {"long_name": "542319", "short_name": "542319", "types": ["postal_code"]}], "formatted_address": "319B Anchorvale Dr, Singapore 542319", "geometry": {"bounds": {"northeast": {"lat": 1.3917143, "lng": 103.8906795}, "southwest": {"lat": 1.3911438, "lng": 103.8900156}}, "location": {"lat": 1.3915634, "lng": 103.8902484}, "location_type": "ROOFTOP", "viewport": {"northeast": {"lat": 1.392778030291502, "lng": 103.8916965302915}, "southwest": {"lat": 1.390080069708498, "lng": 103.8889985697085}}}, "place_id": "ChIJ5a6fW20W2jERhhQoaAvnnB8", "types": ["premise"]}