{"address_components": [{"long_name": "Block 619", "short_name": "Block 619", "types": ["premise"]}, {"long_name": "619", "short_name": "619", "types": ["street_number"]}, {"long_name": "Bukit Panjang Ring Road", "short_name": "Bukit Panjang Ring Rd", "types": ["route"]}, {"long_name": "Bukit Panjang", "short_name": "Bukit Panjang", "types": ["neighborhood", "political"]}, {"long_name": "Singapore", "short_name": "Singapore", "types": ["locality", "political"]}, {"long_name": "Singapore", "short_name": "SG", "types": ["country", "political"]}, {"long_name": "670619", "short_name": "670619", "types": ["postal_code"]}], "formatted_address": "619 Bukit Panjang Ring Rd, Block 619, Singapore 670619", "geometry": {"bounds": {"northeast": {"lat": 1.385961, "lng": 103.7626645}, "southwest": {"lat": 1.385677, "lng": 103.7620734}}, "location": {"lat": 1.3858569, "lng": 103.7623852}, "location_type": "ROOFTOP", "viewport": {"northeast": {"lat": 1.387167980291502, "lng": 103.7637179302915}, "southwest": {"lat": 1.384470019708498, "lng": 103.7610199697085}}}, "place_id": "ChIJRd-2dJcR2jER601-E4z5miY", "types": ["premise"]}