{"address_components": [{"long_name": "Block 657", "short_name": "Block 657", "types": ["premise"]}, {"long_name": "657", "short_name": "657", "types": ["street_number"]}, {"long_name": "Woodlands Ring Road", "short_name": "Woodlands Ring Rd", "types": ["route"]}, {"long_name": "Woodlands", "short_name": "Woodlands", "types": ["neighborhood", "political"]}, {"long_name": "Singapore", "short_name": "Singapore", "types": ["locality", "political"]}, {"long_name": "Singapore", "short_name": "SG", "types": ["country", "political"]}, {"long_name": "730657", "short_name": "730657", "types": ["postal_code"]}], "formatted_address": "657 Woodlands Ring Rd, Block 657, Singapore 730657", "geometry": {"bounds": {"northeast": {"lat": 1.4369116, "lng": 103.7989172}, "southwest": {"lat": 1.4365485, "lng": 103.7983001}}, "location": {"lat": 1.4367129, "lng": 103.7985786}, "location_type": "ROOFTOP", "viewport": {"northeast": {"lat": 1.438079030291502, "lng": 103.7999576302915}, "southwest": {"lat": 1.435381069708498, "lng": 103.7972596697085}}}, "place_id": "ChIJmYXEfZ8T2jERG6yf2LAidMM", "types": ["premise"]}