{"address_components": [{"long_name": "Block 688B", "short_name": "Block 688B", "types": ["premise"]}, {"long_name": "688B", "short_name": "688B", "types": ["street_number"]}, {"long_name": "Woodlands Drive 75", "short_name": "Woodlands Drive 75", "types": ["route"]}, {"long_name": "Woodlands", "short_name": "Woodlands", "types": ["neighborhood", "political"]}, {"long_name": "Singapore", "short_name": "Singapore", "types": ["locality", "political"]}, {"long_name": "Singapore", "short_name": "SG", "types": ["country", "political"]}, {"long_name": "732688", "short_name": "732688", "types": ["postal_code"]}], "formatted_address": "688B Woodlands Drive 75, Block 688B, Singapore 732688", "geometry": {"bounds": {"northeast": {"lat": 1.443592, "lng": 103.8070779}, "southwest": {"lat": 1.4432061, "lng": 103.8067498}}, "location": {"lat": 1.443341, "lng": 103.8069096}, "location_type": "ROOFTOP", "viewport": {"northeast": {"lat": 1.444748030291502, "lng": 103.8082628302915}, "southwest": {"lat": 1.442050069708498, "lng": 103.8055648697085}}}, "place_id": "ChIJg0bP2XYT2jERTmJAUfiBU3A", "types": ["premise"]}