{"address_components": [{"long_name": "Block 405", "short_name": "Block 405", "types": ["premise"]}, {"long_name": "405", "short_name": "405", "types": ["street_number"]}, {"long_name": "Woodlands Street 41", "short_name": "Woodlands Street 41", "types": ["route"]}, {"long_name": "Woodlands", "short_name": "Woodlands", "types": ["neighborhood", "political"]}, {"long_name": "Singapore", "short_name": "Singapore", "types": ["locality", "political"]}, {"long_name": "Singapore", "short_name": "SG", "types": ["country", "political"]}, {"long_name": "730405", "short_name": "730405", "types": ["postal_code"]}], "formatted_address": "405 Woodlands Street 41, Block 405, Singapore 730405", "geometry": {"bounds": {"northeast": {"lat": 1.4300812, "lng": 103.772613}, "southwest": {"lat": 1.4299311, "lng": 103.7719439}}, "location": {"lat": 1.4299749, "lng": 103.772321}, "location_type": "ROOFTOP", "viewport": {"northeast": {"lat": 1.431355130291502, "lng": 103.7736274302915}, "southwest": {"lat": 1.428657169708498, "lng": 103.7709294697085}}}, "place_id": "ChIJ7ZC4gU0S2jERfvlM8ZbnppE", "types": ["premise"]}