{"address_components": [{"long_name": "Block 293", "short_name": "Block 293", "types": ["premise"]}, {"long_name": "293", "short_name": "293", "types": ["street_number"]}, {"long_name": "Tampines Street 22", "short_name": "Tampines Street 22", "types": ["route"]}, {"long_name": "Tampines", "short_name": "Tampines", "types": ["neighborhood", "political"]}, {"long_name": "Singapore", "short_name": "Singapore", "types": ["locality", "political"]}, {"long_name": "Singapore", "short_name": "SG", "types": ["country", "political"]}, {"long_name": "520293", "short_name": "520293", "types": ["postal_code"]}], "formatted_address": "293 Tampines Street 22, Block 293, Singapore 520293", "geometry": {"bounds": {"northeast": {"lat": 1.3505077, "lng": 103.9552985}, "southwest": {"lat": 1.3503808, "lng": 103.9545336}}, "location": {"lat": 1.3504572, "lng": 103.9549617}, "location_type": "ROOFTOP", "viewport": {"northeast": {"lat": 1.351793230291502, "lng": 103.9562650302915}, "southwest": {"lat": 1.349095269708498, "lng": 103.9535670697085}}}, "place_id": "ChIJ5T4e9Rs92jERVdhr7LRUOjM", "types": ["premise"]}