{"address_components": [{"long_name": "Block 249", "short_name": "Block 249", "types": ["premise"]}, {"long_name": "249", "short_name": "249", "types": ["street_number"]}, {"long_name": "Bishan Street 22", "short_name": "Bishan Street 22", "types": ["route"]}, {"long_name": "Bishan", "short_name": "Bishan", "types": ["neighborhood", "political"]}, {"long_name": "Singapore", "short_name": "Singapore", "types": ["locality", "political"]}, {"long_name": "Singapore", "short_name": "SG", "types": ["country", "political"]}, {"long_name": "570249", "short_name": "570249", "types": ["postal_code"]}], "formatted_address": "249 Bishan Street 22, Block 249, Singapore 570249", "geometry": {"bounds": {"northeast": {"lat": 1.3614915, "lng": 103.84421}, "southwest": {"lat": 1.3610065, "lng": 103.8434411}}, "location": {"lat": 1.3612855, "lng": 103.8438623}, "location_type": "ROOFTOP", "viewport": {"northeast": {"lat": 1.362597980291502, "lng": 103.8451745302915}, "southwest": {"lat": 1.359900019708498, "lng": 103.8424765697085}}}, "place_id": "ChIJUVzDyCEX2jERXqLOCODns4g", "types": ["premise"]}