{"address_components": [{"long_name": "Block 235", "short_name": "Block 235", "types": ["premise"]}, {"long_name": "235", "short_name": "235", "types": ["street_number"]}, {"long_name": "Simei Street 4", "short_name": "Simei Street 4", "types": ["route"]}, {"long_name": "Tampines", "short_name": "Tampines", "types": ["neighborhood", "political"]}, {"long_name": "Singapore", "short_name": "Singapore", "types": ["locality", "political"]}, {"long_name": "Singapore", "short_name": "SG", "types": ["country", "political"]}, {"long_name": "520235", "short_name": "520235", "types": ["postal_code"]}], "formatted_address": "235 Simei Street 4, Block 235, Singapore 520235", "geometry": {"bounds": {"northeast": {"lat": 1.343155, "lng": 103.9556661}, "southwest": {"lat": 1.3428004, "lng": 103.9553455}}, "location": {"lat": 1.3429704, "lng": 103.9555283}, "location_type": "ROOFTOP", "viewport": {"northeast": {"lat": 1.344326680291502, "lng": 103.9568547802915}, "southwest": {"lat": 1.341628719708498, "lng": 103.9541568197085}}}, "place_id": "ChIJmZ41jyE92jERjm6H-HxbRR4", "types": ["premise"]}