{"address_components": [{"long_name": "Block 205", "short_name": "Block 205", "types": ["premise"]}, {"long_name": "205", "short_name": "205", "types": ["street_number"]}, {"long_name": "Bukit Batok Street 21", "short_name": "Bukit Batok Street 21", "types": ["route"]}, {"long_name": "Bukit Batok", "short_name": "Bukit Batok", "types": ["neighborhood", "political"]}, {"long_name": "Singapore", "short_name": "Singapore", "types": ["locality", "political"]}, {"long_name": "Singapore", "short_name": "SG", "types": ["country", "political"]}, {"long_name": "650205", "short_name": "650205", "types": ["postal_code"]}], "formatted_address": "205 Bukit Batok Street 21, Block 205, Singapore 650205", "geometry": {"bounds": {"northeast": {"lat": 1.347215, "lng": 103.7502376}, "southwest": {"lat": 1.347078, "lng": 103.7494816}}, "location": {"lat": 1.3471327, "lng": 103.7498505}, "location_type": "ROOFTOP", "viewport": {"northeast": {"lat": 1.348495480291502, "lng": 103.7512085802915}, "southwest": {"lat": 1.345797519708498, "lng": 103.7485106197085}}}, "place_id": "ChIJLXiXtz8Q2jERW61OEB0S2EA", "types": ["premise"]}