{"address_components": [{"long_name": "Block 682", "short_name": "Block 682", "types": ["premise"]}, {"long_name": "682", "short_name": "682", "types": ["street_number"]}, {"long_name": "Hougang Avenue 4", "short_name": "Hougang Ave 4", "types": ["route"]}, {"long_name": "Hougang", "short_name": "Hougang", "types": ["neighborhood", "political"]}, {"long_name": "Singapore", "short_name": "Singapore", "types": ["locality", "political"]}, {"long_name": "Singapore", "short_name": "SG", "types": ["country", "political"]}, {"long_name": "530682", "short_name": "530682", "types": ["postal_code"]}], "formatted_address": "682 Hougang Ave 4, Block 682, Singapore 530682", "geometry": {"bounds": {"northeast": {"lat": 1.3746716, "lng": 103.8860912}, "southwest": {"lat": 1.3735206, "lng": 103.8854314}}, "location": {"lat": 1.3740792, "lng": 103.8855366}, "location_type": "ROOFTOP", "viewport": {"northeast": {"lat": 1.375445080291502, "lng": 103.8871102802915}, "southwest": {"lat": 1.372747119708498, "lng": 103.8844123197085}}}, "place_id": "ChIJYW91DEYW2jERnkpabcL3Zvs", "types": ["premise"]}