{"address_components": [{"long_name": "Block 405C", "short_name": "Block 405C", "types": ["premise"]}, {"long_name": "405C", "short_name": "405C", "types": ["street_number"]}, {"long_name": "Fernvale Lane", "short_name": "Fernvale Ln", "types": ["route"]}, {"long_name": "Sengkang", "short_name": "Sengkang", "types": ["neighborhood", "political"]}, {"long_name": "Singapore", "short_name": "Singapore", "types": ["locality", "political"]}, {"long_name": "Singapore", "short_name": "SG", "types": ["country", "political"]}, {"long_name": "793405", "short_name": "793405", "types": ["postal_code"]}], "formatted_address": "405C Fernvale Ln, Block 405C, Singapore 793405", "geometry": {"bounds": {"northeast": {"lat": 1.3893622, "lng": 103.8735521}, "southwest": {"lat": 1.3890732, "lng": 103.8733238}}, "location": {"lat": 1.3892925, "lng": 103.8734177}, "location_type": "ROOFTOP", "viewport": {"northeast": {"lat": 1.390566680291502, "lng": 103.8747869302915}, "southwest": {"lat": 1.387868719708498, "lng": 103.8720889697085}}}, "place_id": "ChIJtemdhmMW2jERzvX2D8dR3cQ", "types": ["premise"]}