{"address_components": [{"long_name": "Block 59", "short_name": "Block 59", "types": ["premise"]}, {"long_name": "59", "short_name": "59", "types": ["street_number"]}, {"long_name": "Chai Chee Road", "short_name": "Chai Chee Rd", "types": ["route"]}, {"long_name": "Bedok", "short_name": "Bedok", "types": ["neighborhood", "political"]}, {"long_name": "Singapore", "short_name": "Singapore", "types": ["locality", "political"]}, {"long_name": "Singapore", "short_name": "SG", "types": ["country", "political"]}, {"long_name": "460059", "short_name": "460059", "types": ["postal_code"]}], "formatted_address": "59 Chai Chee Rd, Block 59, Singapore 460059", "geometry": {"bounds": {"northeast": {"lat": 1.325417, "lng": 103.9210181}, "southwest": {"lat": 1.324427, "lng": 103.919942}}, "location": {"lat": 1.3248997, "lng": 103.9202448}, "location_type": "ROOFTOP", "viewport": {"northeast": {"lat": 1.326270980291502, "lng": 103.9218290302915}, "southwest": {"lat": 1.323573019708498, "lng": 103.9191310697085}}}, "place_id": "ChIJyVxen6wi2jER7heyFTHarJU", "types": ["premise"]}