{"address_components": [{"long_name": "Block 349", "short_name": "Block 349", "types": ["premise"]}, {"long_name": "349", "short_name": "349", "types": ["street_number"]}, {"long_name": "Yishun Avenue 11", "short_name": "Yishun Ave 11", "types": ["route"]}, {"long_name": "Yishun", "short_name": "Yishun", "types": ["neighborhood", "political"]}, {"long_name": "Singapore", "short_name": "Singapore", "types": ["locality", "political"]}, {"long_name": "Singapore", "short_name": "SG", "types": ["country", "political"]}, {"long_name": "760349", "short_name": "760349", "types": ["postal_code"]}], "formatted_address": "349 Yishun Ave 11, Block 349, Singapore 760349", "geometry": {"bounds": {"northeast": {"lat": 1.4265237, "lng": 103.8439699}, "southwest": {"lat": 1.4259085, "lng": 103.843168}}, "location": {"lat": 1.4260164, "lng": 103.8435905}, "location_type": "ROOFTOP", "viewport": {"northeast": {"lat": 1.427565080291502, "lng": 103.8449179302915}, "southwest": {"lat": 1.424867119708498, "lng": 103.8422199697085}}}, "place_id": "ChIJIenSwWkU2jERLedKa0-Zs7k", "types": ["premise"]}