{"address_components": [{"long_name": "Block 623", "short_name": "Block 623", "types": ["premise"]}, {"long_name": "623", "short_name": "623", "types": ["street_number"]}, {"long_name": "Jurong West Street 61", "short_name": "Jurong West Street 61", "types": ["route"]}, {"long_name": "Jurong West", "short_name": "Jurong West", "types": ["neighborhood", "political"]}, {"long_name": "Singapore", "short_name": "Singapore", "types": ["locality", "political"]}, {"long_name": "Singapore", "short_name": "SG", "types": ["country", "political"]}, {"long_name": "640623", "short_name": "640623", "types": ["postal_code"]}], "formatted_address": "623 Jurong West Street 61, Block 623, Singapore 640623", "geometry": {"bounds": {"northeast": {"lat": 1.3408088, "lng": 103.6987665}, "southwest": {"lat": 1.3402818, "lng": 103.6978329}}, "location": {"lat": 1.3403882, "lng": 103.6983973}, "location_type": "ROOFTOP", "viewport": {"northeast": {"lat": 1.341894280291502, "lng": 103.6996486802915}, "southwest": {"lat": 1.339196319708498, "lng": 103.6969507197085}}}, "place_id": "ChIJrSbBPpEP2jERFuQCHj5yvJw", "types": ["premise"]}