{"address_components": [{"long_name": "Block 755", "short_name": "Block 755", "types": ["premise"]}, {"long_name": "755", "short_name": "755", "types": ["street_number"]}, {"long_name": "Woodlands Avenue 4", "short_name": "Woodlands Ave 4", "types": ["route"]}, {"long_name": "Woodlands", "short_name": "Woodlands", "types": ["neighborhood", "political"]}, {"long_name": "Singapore", "short_name": "Singapore", "types": ["locality", "political"]}, {"long_name": "Singapore", "short_name": "SG", "types": ["country", "political"]}, {"long_name": "730755", "short_name": "730755", "types": ["postal_code"]}], "formatted_address": "755 Woodlands Ave 4, Block 755, Singapore 730755", "geometry": {"bounds": {"northeast": {"lat": 1.445545, "lng": 103.7935641}, "southwest": {"lat": 1.444819, "lng": 103.7929159}}, "location": {"lat": 1.4453348, "lng": 103.7931456}, "location_type": "ROOFTOP", "viewport": {"northeast": {"lat": 1.446530980291502, "lng": 103.7945889802915}, "southwest": {"lat": 1.443833019708498, "lng": 103.7918910197085}}}, "place_id": "ChIJv8NPGAwT2jERgimIf8evp7I", "types": ["premise"]}