{"address_components": [{"long_name": "28", "short_name": "28", "types": ["street_number"]}, {"long_name": "Marsiling Drive", "short_name": "Marsiling Dr", "types": ["route"]}, {"long_name": "Woodlands", "short_name": "Woodlands", "types": ["neighborhood", "political"]}, {"long_name": "Singapore", "short_name": "Singapore", "types": ["locality", "political"]}, {"long_name": "Singapore", "short_name": "SG", "types": ["country", "political"]}, {"long_name": "730028", "short_name": "730028", "types": ["postal_code"]}], "formatted_address": "28 Marsiling Dr, Singapore 730028", "geometry": {"bounds": {"northeast": {"lat": 1.4431678, "lng": 103.7741123}, "southwest": {"lat": 1.4423925, "lng": 103.7732369}}, "location": {"lat": 1.4428122, "lng": 103.773679}, "location_type": "ROOFTOP", "viewport": {"northeast": {"lat": 1.444129130291502, "lng": 103.7750235802915}, "southwest": {"lat": 1.441431169708498, "lng": 103.7723256197085}}}, "place_id": "ChIJ-ZXSQP4S2jERQZyjoYSbPVA", "types": ["premise"]}