{"address_components": [{"long_name": "Block 422", "short_name": "Block 422", "types": ["premise"]}, {"long_name": "422", "short_name": "422", "types": ["street_number"]}, {"long_name": "Bedok North Road", "short_name": "Bedok North Rd", "types": ["route"]}, {"long_name": "Bedok", "short_name": "Bedok", "types": ["neighborhood", "political"]}, {"long_name": "Singapore", "short_name": "Singapore", "types": ["locality", "political"]}, {"long_name": "Singapore", "short_name": "SG", "types": ["country", "political"]}, {"long_name": "460422", "short_name": "460422", "types": ["postal_code"]}], "formatted_address": "422 Bedok North Rd, Block 422, Singapore 460422", "geometry": {"bounds": {"northeast": {"lat": 1.3289351, "lng": 103.9293908}, "southwest": {"lat": 1.3285165, "lng": 103.9283021}}, "location": {"lat": 1.3287637, "lng": 103.9289911}, "location_type": "ROOFTOP", "viewport": {"northeast": {"lat": 1.330074780291502, "lng": 103.9301954302915}, "southwest": {"lat": 1.327376819708498, "lng": 103.9274974697085}}}, "place_id": "ChIJfWGUrE092jERFEc4UTswfxE", "types": ["premise"]}