{"address_components": [{"long_name": "Block 406", "short_name": "Block 406", "types": ["premise"]}, {"long_name": "406", "short_name": "406", "types": ["street_number"]}, {"long_name": "Sembawang Drive", "short_name": "Sembawang Dr", "types": ["route"]}, {"long_name": "Sembawang", "short_name": "Sembawang", "types": ["neighborhood", "political"]}, {"long_name": "Singapore", "short_name": "Singapore", "types": ["locality", "political"]}, {"long_name": "Singapore", "short_name": "SG", "types": ["country", "political"]}, {"long_name": "750406", "short_name": "750406", "types": ["postal_code"]}], "formatted_address": "406 Sembawang Dr, Block 406, Singapore 750406", "geometry": {"bounds": {"northeast": {"lat": 1.4533011, "lng": 103.8174969}, "southwest": {"lat": 1.4528904, "lng": 103.8166091}}, "location": {"lat": 1.4529679, "lng": 103.8171431}, "location_type": "ROOFTOP", "viewport": {"northeast": {"lat": 1.454444730291502, "lng": 103.8184019802915}, "southwest": {"lat": 1.451746769708498, "lng": 103.8157040197085}}}, "place_id": "ChIJj4in5mMT2jERupBGjOoqVdU", "types": ["premise"]}