{"address_components": [{"long_name": "Block 527", "short_name": "Block 527", "types": ["premise"]}, {"long_name": "527", "short_name": "527", "types": ["street_number"]}, {"long_name": "Bukit Batok Street 51", "short_name": "Bukit Batok Street 51", "types": ["route"]}, {"long_name": "Bukit Batok", "short_name": "Bukit Batok", "types": ["neighborhood", "political"]}, {"long_name": "Singapore", "short_name": "Singapore", "types": ["locality", "political"]}, {"long_name": "Singapore", "short_name": "SG", "types": ["country", "political"]}, {"long_name": "650527", "short_name": "650527", "types": ["postal_code"]}], "formatted_address": "527 Bukit Batok Street 51, Block 527, Singapore 650527", "geometry": {"bounds": {"northeast": {"lat": 1.357383, "lng": 103.751513}, "southwest": {"lat": 1.356763, "lng": 103.751364}}, "location": {"lat": 1.3570802, "lng": 103.7514318}, "location_type": "ROOFTOP", "viewport": {"northeast": {"lat": 1.358421980291502, "lng": 103.7527874802915}, "southwest": {"lat": 1.355724019708498, "lng": 103.7500895197085}}}, "place_id": "ChIJa-Y20DcQ2jERZ2wun0PmlaI", "types": ["premise"]}