{"address_components": [{"long_name": "Block 425", "short_name": "Block 425", "types": ["premise"]}, {"long_name": "425", "short_name": "425", "types": ["street_number"]}, {"long_name": "Choa Chu Kang Avenue 4", "short_name": "Choa Chu Kang Ave 4", "types": ["route"]}, {"long_name": "Choa Chu Kang", "short_name": "Choa Chu Kang", "types": ["neighborhood", "political"]}, {"long_name": "Singapore", "short_name": "Singapore", "types": ["locality", "political"]}, {"long_name": "Singapore", "short_name": "SG", "types": ["country", "political"]}, {"long_name": "680425", "short_name": "680425", "types": ["postal_code"]}], "formatted_address": "425 Choa Chu Kang Ave 4, Block 425, Singapore 680425", "geometry": {"bounds": {"northeast": {"lat": 1.381624, "lng": 103.7398708}, "southwest": {"lat": 1.380827, "lng": 103.7390391}}, "location": {"lat": 1.3811902, "lng": 103.7394383}, "location_type": "ROOFTOP", "viewport": {"northeast": {"lat": 1.382574480291502, "lng": 103.7408039302915}, "southwest": {"lat": 1.379876519708498, "lng": 103.7381059697085}}}, "place_id": "ChIJDTbXJt0R2jER1qW1HOqiJvI", "types": ["premise"]}