{"address_components": [{"long_name": "Block 260", "short_name": "Block 260", "types": ["premise"]}, {"long_name": "260", "short_name": "260", "types": ["street_number"]}, {"long_name": "Bukit Batok East Avenue 4", "short_name": "Bukit Batok East Ave 4", "types": ["route"]}, {"long_name": "Bukit Batok", "short_name": "Bukit Batok", "types": ["neighborhood", "political"]}, {"long_name": "Singapore", "short_name": "Singapore", "types": ["locality", "political"]}, {"long_name": "Singapore", "short_name": "SG", "types": ["country", "political"]}, {"long_name": "650260", "short_name": "650260", "types": ["postal_code"]}], "formatted_address": "260 Bukit Batok East Ave 4, Block 260, Singapore 650260", "geometry": {"bounds": {"northeast": {"lat": 1.3510233, "lng": 103.7593496}, "southwest": {"lat": 1.3508429, "lng": 103.7585837}}, "location": {"lat": 1.3509445, "lng": 103.7589259}, "location_type": "ROOFTOP", "viewport": {"northeast": {"lat": 1.352282080291502, "lng": 103.7603156302915}, "southwest": {"lat": 1.349584119708498, "lng": 103.7576176697085}}}, "place_id": "ChIJAVALDkQQ2jERCISP4LXaqYA", "types": ["premise"]}