{"address_components": [{"long_name": "106A", "short_name": "106A", "types": ["street_number"]}, {"long_name": "Punggol Field", "short_name": "Punggol Field", "types": ["route"]}, {"long_name": "Punggol", "short_name": "Punggol", "types": ["neighborhood", "political"]}, {"long_name": "Singapore", "short_name": "Singapore", "types": ["locality", "political"]}, {"long_name": "Singapore", "short_name": "SG", "types": ["country", "political"]}, {"long_name": "821106", "short_name": "821106", "types": ["postal_code"]}], "formatted_address": "106A Punggol Field, Singapore 821106", "geometry": {"bounds": {"northeast": {"lat": 1.396957, "lng": 103.9087967}, "southwest": {"lat": 1.3964414, "lng": 103.9082581}}, "location": {"lat": 1.3966937, "lng": 103.9085083}, "location_type": "ROOFTOP", "viewport": {"northeast": {"lat": 1.398048180291502, "lng": 103.9098763802915}, "southwest": {"lat": 1.395350219708498, "lng": 103.9071784197085}}}, "place_id": "ChIJ4YqXqQYW2jERrdIQaF5JNho", "types": ["premise"]}