{"address_components": [{"long_name": "Block 665", "short_name": "Block 665", "types": ["premise"]}, {"long_name": "665", "short_name": "665", "types": ["street_number"]}, {"long_name": "Yishun Avenue 4", "short_name": "Yishun Ave 4", "types": ["route"]}, {"long_name": "Yishun", "short_name": "Yishun", "types": ["neighborhood", "political"]}, {"long_name": "Singapore", "short_name": "Singapore", "types": ["locality", "political"]}, {"long_name": "Singapore", "short_name": "SG", "types": ["country", "political"]}, {"long_name": "760665", "short_name": "760665", "types": ["postal_code"]}], "formatted_address": "665 Yishun Ave 4, Block 665, Singapore 760665", "geometry": {"bounds": {"northeast": {"lat": 1.4198553, "lng": 103.8409096}, "southwest": {"lat": 1.4193732, "lng": 103.8402747}}, "location": {"lat": 1.4197441, "lng": 103.840624}, "location_type": "ROOFTOP", "viewport": {"northeast": {"lat": 1.420963230291502, "lng": 103.8419411302915}, "southwest": {"lat": 1.418265269708498, "lng": 103.8392431697085}}}, "place_id": "ChIJTb-dxxQU2jERvF1C7_ZVYWU", "types": ["premise"]}