{"address_components": [{"long_name": "Block 683C", "short_name": "Block 683C", "types": ["premise"]}, {"long_name": "683C", "short_name": "683C", "types": ["street_number"]}, {"long_name": "Jurong West Street 64", "short_name": "Jurong West Street 64", "types": ["route"]}, {"long_name": "Jurong West", "short_name": "Jurong West", "types": ["neighborhood", "political"]}, {"long_name": "Singapore", "short_name": "Singapore", "types": ["locality", "political"]}, {"long_name": "Singapore", "short_name": "SG", "types": ["country", "political"]}, {"long_name": "643683", "short_name": "643683", "types": ["postal_code"]}], "formatted_address": "683C Jurong West Street 64, Block 683C, Singapore 643683", "geometry": {"bounds": {"northeast": {"lat": 1.3435065, "lng": 103.7048486}, "southwest": {"lat": 1.3431616, "lng": 103.7045116}}, "location": {"lat": 1.3433361, "lng": 103.7047014}, "location_type": "ROOFTOP", "viewport": {"northeast": {"lat": 1.344683030291502, "lng": 103.7060290802915}, "southwest": {"lat": 1.341985069708498, "lng": 103.7033311197085}}}, "place_id": "ChIJn_yF25QP2jERnDa57ol3zk4", "types": ["premise"]}