{"address_components": [{"long_name": "Block 720", "short_name": "Block 720", "types": ["premise"]}, {"long_name": "720", "short_name": "720", "types": ["street_number"]}, {"long_name": "Jurong West Avenue 5", "short_name": "Jurong West Ave 5", "types": ["route"]}, {"long_name": "Jurong West", "short_name": "Jurong West", "types": ["neighborhood", "political"]}, {"long_name": "Singapore", "short_name": "Singapore", "types": ["locality", "political"]}, {"long_name": "Singapore", "short_name": "SG", "types": ["country", "political"]}, {"long_name": "640720", "short_name": "640720", "types": ["postal_code"]}], "formatted_address": "720 Jurong West Ave 5, Block 720, Singapore 640720", "geometry": {"bounds": {"northeast": {"lat": 1.3445379, "lng": 103.6979439}, "southwest": {"lat": 1.3443339, "lng": 103.6971129}}, "location": {"lat": 1.3444104, "lng": 103.6976529}, "location_type": "ROOFTOP", "viewport": {"northeast": {"lat": 1.345784880291502, "lng": 103.6988773802915}, "southwest": {"lat": 1.343086919708498, "lng": 103.6961794197085}}}, "place_id": "ChIJkz8eTpYP2jERncRYkGYEwbY", "types": ["premise"]}