{"address_components": [{"long_name": "Block 164", "short_name": "Block 164", "types": ["premise"]}, {"long_name": "164", "short_name": "164", "types": ["street_number"]}, {"long_name": "Bedok South Road", "short_name": "Bedok S Rd", "types": ["route"]}, {"long_name": "Bedok", "short_name": "Bedok", "types": ["neighborhood", "political"]}, {"long_name": "Singapore", "short_name": "Singapore", "types": ["locality", "political"]}, {"long_name": "Singapore", "short_name": "SG", "types": ["country", "political"]}, {"long_name": "460164", "short_name": "460164", "types": ["postal_code"]}], "formatted_address": "164 Bedok S Rd, Block 164, Singapore 460164", "geometry": {"bounds": {"northeast": {"lat": 1.320229, "lng": 103.9469752}, "southwest": {"lat": 1.3198794, "lng": 103.9462116}}, "location": {"lat": 1.3200746, "lng": 103.9466203}, "location_type": "ROOFTOP", "viewport": {"northeast": {"lat": 1.321403180291502, "lng": 103.9479423802915}, "southwest": {"lat": 1.318705219708498, "lng": 103.9452444197085}}}, "place_id": "ChIJ_X2qYM4i2jERWgFk3DN-w6U", "types": ["premise"]}