{"address_components": [{"long_name": "Block 940", "short_name": "Block 940", "types": ["premise"]}, {"long_name": "940", "short_name": "940", "types": ["street_number"]}, {"long_name": "Jurong West Street 91", "short_name": "Jurong West Street 91", "types": ["route"]}, {"long_name": "Jurong West", "short_name": "Jurong West", "types": ["neighborhood", "political"]}, {"long_name": "Singapore", "short_name": "Singapore", "types": ["locality", "political"]}, {"long_name": "Singapore", "short_name": "SG", "types": ["country", "political"]}, {"long_name": "640940", "short_name": "640940", "types": ["postal_code"]}], "formatted_address": "940 Jurong West Street 91, Block 940, Singapore 640940", "geometry": {"bounds": {"northeast": {"lat": 1.3434401, "lng": 103.6894328}, "southwest": {"lat": 1.3432262, "lng": 103.6884326}}, "location": {"lat": 1.343354, "lng": 103.6889646}, "location_type": "ROOFTOP", "viewport": {"northeast": {"lat": 1.344682130291502, "lng": 103.6902816802915}, "southwest": {"lat": 1.341984169708498, "lng": 103.6875837197085}}}, "place_id": "ChIJnXJYLpkP2jERqsi7PxjgAkQ", "types": ["premise"]}