{"address_components": [{"long_name": "Block 218", "short_name": "Block 218", "types": ["premise"]}, {"long_name": "218", "short_name": "218", "types": ["street_number"]}, {"long_name": "Serangoon Avenue 4", "short_name": "Serangoon Ave 4", "types": ["route"]}, {"long_name": "Serangoon", "short_name": "Serangoon", "types": ["neighborhood", "political"]}, {"long_name": "Singapore", "short_name": "Singapore", "types": ["locality", "political"]}, {"long_name": "Singapore", "short_name": "SG", "types": ["country", "political"]}, {"long_name": "550218", "short_name": "550218", "types": ["postal_code"]}], "formatted_address": "218 Serangoon Ave 4, Block 218, Singapore 550218", "geometry": {"bounds": {"northeast": {"lat": 1.3580972, "lng": 103.8725572}, "southwest": {"lat": 1.3578593, "lng": 103.8716383}}, "location": {"lat": 1.3579657, "lng": 103.8721298}, "location_type": "ROOFTOP", "viewport": {"northeast": {"lat": 1.359327230291502, "lng": 103.8734467302915}, "southwest": {"lat": 1.356629269708498, "lng": 103.8707487697085}}}, "place_id": "ChIJJWFOa6kX2jERvRNdYN9FrNI", "types": ["premise"]}