{"address_components": [{"long_name": "Block 629", "short_name": "Block 629", "types": ["premise"]}, {"long_name": "629", "short_name": "629", "types": ["street_number"]}, {"long_name": "Woodlands Ring Road", "short_name": "Woodlands Ring Rd", "types": ["route"]}, {"long_name": "Woodlands", "short_name": "Woodlands", "types": ["neighborhood", "political"]}, {"long_name": "Singapore", "short_name": "Singapore", "types": ["locality", "political"]}, {"long_name": "Singapore", "short_name": "SG", "types": ["country", "political"]}, {"long_name": "730629", "short_name": "730629", "types": ["postal_code"]}], "formatted_address": "629 Woodlands Ring Rd, Block 629, Singapore 730629", "geometry": {"bounds": {"northeast": {"lat": 1.4346234, "lng": 103.8015859}, "southwest": {"lat": 1.4340646, "lng": 103.8008895}}, "location": {"lat": 1.4342008, "lng": 103.8012952}, "location_type": "ROOFTOP", "viewport": {"northeast": {"lat": 1.435692980291502, "lng": 103.8025866802915}, "southwest": {"lat": 1.432995019708498, "lng": 103.7998887197085}}}, "place_id": "ChIJJRB81pgT2jERcXkTkmJGSyI", "types": ["premise"]}