{"address_components": [{"long_name": "Block 315", "short_name": "Block 315", "types": ["premise"]}, {"long_name": "315", "short_name": "315", "types": ["street_number"]}, {"long_name": "Clementi Avenue 4", "short_name": "Clementi Ave 4", "types": ["route"]}, {"long_name": "Clementi", "short_name": "Clementi", "types": ["neighborhood", "political"]}, {"long_name": "Singapore", "short_name": "Singapore", "types": ["locality", "political"]}, {"long_name": "Singapore", "short_name": "SG", "types": ["country", "political"]}, {"long_name": "120315", "short_name": "120315", "types": ["postal_code"]}], "formatted_address": "315 Clementi Ave 4, Block 315, Singapore 120315", "geometry": {"bounds": {"northeast": {"lat": 1.3185535, "lng": 103.7657193}, "southwest": {"lat": 1.3183018, "lng": 103.7650536}}, "location": {"lat": 1.3184252, "lng": 103.7653953}, "location_type": "ROOFTOP", "viewport": {"northeast": {"lat": 1.319776630291502, "lng": 103.7667354302915}, "southwest": {"lat": 1.317078669708498, "lng": 103.7640374697085}}}, "place_id": "ChIJRaR-aYUa2jERW38xeR5HNck", "types": ["premise"]}