{"address_components": [{"long_name": "Block 339", "short_name": "Block 339", "types": ["premise"]}, {"long_name": "339", "short_name": "339", "types": ["street_number"]}, {"long_name": "Hougang Avenue 7", "short_name": "Hougang Ave 7", "types": ["route"]}, {"long_name": "Hougang", "short_name": "Hougang", "types": ["neighborhood", "political"]}, {"long_name": "Singapore", "short_name": "Singapore", "types": ["locality", "political"]}, {"long_name": "Singapore", "short_name": "SG", "types": ["country", "political"]}, {"long_name": "530339", "short_name": "530339", "types": ["postal_code"]}], "formatted_address": "339 Hougang Ave 7, Block 339, Singapore 530339", "geometry": {"bounds": {"northeast": {"lat": 1.3703174, "lng": 103.8989978}, "southwest": {"lat": 1.3700224, "lng": 103.8980829}}, "location": {"lat": 1.3701195, "lng": 103.8985851}, "location_type": "ROOFTOP", "viewport": {"northeast": {"lat": 1.371518880291502, "lng": 103.8998893302915}, "southwest": {"lat": 1.368820919708498, "lng": 103.8971913697085}}}, "place_id": "ChIJESjnFzEW2jERFEHlxtJlcbg", "types": ["premise"]}