{"address_components": [{"long_name": "Block 560", "short_name": "Block 560", "types": ["premise"]}, {"long_name": "560", "short_name": "560", "types": ["street_number"]}, {"long_name": "Ang Mo Kio Avenue 10", "short_name": "Ang Mo Kio Ave 10", "types": ["route"]}, {"long_name": "Ang Mo Kio", "short_name": "Ang Mo Kio", "types": ["neighborhood", "political"]}, {"long_name": "Singapore", "short_name": "Singapore", "types": ["locality", "political"]}, {"long_name": "Singapore", "short_name": "SG", "types": ["country", "political"]}, {"long_name": "560560", "short_name": "560560", "types": ["postal_code"]}], "formatted_address": "560 Ang Mo Kio Ave 10, Block 560, Singapore 560560", "geometry": {"bounds": {"northeast": {"lat": 1.370888, "lng": 103.8596691}, "southwest": {"lat": 1.3707509, "lng": 103.8586709}}, "location": {"lat": 1.3707919, "lng": 103.8591716}, "location_type": "ROOFTOP", "viewport": {"northeast": {"lat": 1.372168430291502, "lng": 103.8605189802915}, "southwest": {"lat": 1.369470469708498, "lng": 103.8578210197085}}}, "place_id": "ChIJuyz4APsW2jERSpC90pUTDIU", "types": ["premise"]}