{"address_components": [{"long_name": "Block 111A", "short_name": "Block 111A", "types": ["premise"]}, {"long_name": "111A", "short_name": "111A", "types": ["street_number"]}, {"long_name": "Depot Road", "short_name": "Depot Rd", "types": ["route"]}, {"long_name": "Bukit Merah", "short_name": "Bukit Merah", "types": ["neighborhood", "political"]}, {"long_name": "Singapore", "short_name": "Singapore", "types": ["locality", "political"]}, {"long_name": "Singapore", "short_name": "SG", "types": ["country", "political"]}, {"long_name": "101111", "short_name": "101111", "types": ["postal_code"]}], "formatted_address": "111A Depot Rd, Block 111A, Singapore 101111", "geometry": {"bounds": {"northeast": {"lat": 1.281295, "lng": 103.8089577}, "southwest": {"lat": 1.2809974, "lng": 103.8086443}}, "location": {"lat": 1.2811278, "lng": 103.8088168}, "location_type": "ROOFTOP", "viewport": {"northeast": {"lat": 1.282495180291502, "lng": 103.8101499802915}, "southwest": {"lat": 1.279797219708498, "lng": 103.8074520197085}}}, "place_id": "ChIJk7eg6s8b2jER63hTBpUQaJ4", "types": ["premise"]}