{"address_components": [{"long_name": "Block 763", "short_name": "Block 763", "types": ["premise"]}, {"long_name": "763", "short_name": "763", "types": ["street_number"]}, {"long_name": "Woodlands Avenue 6", "short_name": "Woodlands Ave 6", "types": ["route"]}, {"long_name": "Woodlands", "short_name": "Woodlands", "types": ["neighborhood", "political"]}, {"long_name": "Singapore", "short_name": "Singapore", "types": ["locality", "political"]}, {"long_name": "Singapore", "short_name": "SG", "types": ["country", "political"]}, {"long_name": "730763", "short_name": "730763", "types": ["postal_code"]}], "formatted_address": "763 Woodlands Ave 6, Block 763, Singapore 730763", "geometry": {"bounds": {"northeast": {"lat": 1.44576, "lng": 103.796253}, "southwest": {"lat": 1.4451719, "lng": 103.795616}}, "location": {"lat": 1.4454637, "lng": 103.7960431}, "location_type": "ROOFTOP", "viewport": {"northeast": {"lat": 1.446814930291502, "lng": 103.7972834802915}, "southwest": {"lat": 1.444116969708498, "lng": 103.7945855197085}}}, "place_id": "ChIJZVyP8wwT2jER6FqsBC07Xf0", "types": ["premise"]}