{"address_components": [{"long_name": "Block 6", "short_name": "Block 6", "types": ["premise"]}, {"long_name": "6", "short_name": "6", "types": ["street_number"]}, {"long_name": "Saint George's Lane", "short_name": "St George's Ln", "types": ["route"]}, {"long_name": "Kallang", "short_name": "Kallang", "types": ["neighborhood", "political"]}, {"long_name": "Singapore", "short_name": "Singapore", "types": ["locality", "political"]}, {"long_name": "Singapore", "short_name": "SG", "types": ["country", "political"]}, {"long_name": "320006", "short_name": "320006", "types": ["postal_code"]}], "formatted_address": "6 St George's Ln, Block 6, Singapore 320006", "geometry": {"bounds": {"northeast": {"lat": 1.3235633, "lng": 103.8591929}, "southwest": {"lat": 1.3231293, "lng": 103.858603}}, "location": {"lat": 1.3232004, "lng": 103.859081}, "location_type": "ROOFTOP", "viewport": {"northeast": {"lat": 1.324695280291502, "lng": 103.8602469302915}, "southwest": {"lat": 1.321997319708498, "lng": 103.8575489697085}}}, "place_id": "ChIJcUXJG9cZ2jERHO2bq2J9Uu0", "types": ["premise"]}