{"address_components": [{"long_name": "Block 14", "short_name": "Block 14", "types": ["premise"]}, {"long_name": "14", "short_name": "14", "types": ["street_number"]}, {"long_name": "Jalan Bukit Merah", "short_name": "Jalan Bukit Merah", "types": ["route"]}, {"long_name": "Bukit Merah", "short_name": "Bukit Merah", "types": ["neighborhood", "political"]}, {"long_name": "Singapore", "short_name": "Singapore", "types": ["locality", "political"]}, {"long_name": "Singapore", "short_name": "SG", "types": ["country", "political"]}, {"long_name": "150014", "short_name": "150014", "types": ["postal_code"]}], "formatted_address": "14 Jalan Bukit Merah, Block 14, Singapore 150014", "geometry": {"bounds": {"northeast": {"lat": 1.2880619, "lng": 103.8078459}, "southwest": {"lat": 1.2878182, "lng": 103.8075581}}, "location": {"lat": 1.2879364, "lng": 103.8077247}, "location_type": "ROOFTOP", "viewport": {"northeast": {"lat": 1.289289030291502, "lng": 103.8090509802915}, "southwest": {"lat": 1.286591069708498, "lng": 103.8063530197085}}}, "place_id": "ChIJa1RnGc0b2jERJZU8cEDD_OY", "types": ["premise"]}