{"address_components": [{"long_name": "Block 688D", "short_name": "Block 688D", "types": ["premise"]}, {"long_name": "688D", "short_name": "688D", "types": ["street_number"]}, {"long_name": "Woodlands Drive 75", "short_name": "Woodlands Drive 75", "types": ["route"]}, {"long_name": "Woodlands", "short_name": "Woodlands", "types": ["neighborhood", "political"]}, {"long_name": "Singapore", "short_name": "Singapore", "types": ["locality", "political"]}, {"long_name": "Singapore", "short_name": "SG", "types": ["country", "political"]}, {"long_name": "734688", "short_name": "734688", "types": ["postal_code"]}], "formatted_address": "688D Woodlands Drive 75, Block 688D, Singapore 734688", "geometry": {"bounds": {"northeast": {"lat": 1.4438002, "lng": 103.8077378}, "southwest": {"lat": 1.4433202, "lng": 103.8074648}}, "location": {"lat": 1.4435573, "lng": 103.8075436}, "location_type": "ROOFTOP", "viewport": {"northeast": {"lat": 1.444909180291502, "lng": 103.8089502802915}, "southwest": {"lat": 1.442211219708498, "lng": 103.8062523197085}}}, "place_id": "ChIJhQkJL3cT2jERJiYdx1cVr6o", "types": ["premise"]}