{"address_components": [{"long_name": "Block 103", "short_name": "Block 103", "types": ["premise"]}, {"long_name": "103", "short_name": "103", "types": ["street_number"]}, {"long_name": "Lengkong Tiga", "short_name": "Lengkong Tiga", "types": ["route"]}, {"long_name": "Bedok", "short_name": "Bedok", "types": ["neighborhood", "political"]}, {"long_name": "Singapore", "short_name": "Singapore", "types": ["locality", "political"]}, {"long_name": "Singapore", "short_name": "SG", "types": ["country", "political"]}, {"long_name": "410103", "short_name": "410103", "types": ["postal_code"]}], "formatted_address": "103 Lengkong Tiga, Block 103, Singapore 410103", "geometry": {"bounds": {"northeast": {"lat": 1.3260804, "lng": 103.9108114}, "southwest": {"lat": 1.3258156, "lng": 103.9102708}}, "location": {"lat": 1.3259058, "lng": 103.910638}, "location_type": "ROOFTOP", "viewport": {"northeast": {"lat": 1.327296980291502, "lng": 103.9118900802915}, "southwest": {"lat": 1.324599019708498, "lng": 103.9091921197085}}}, "place_id": "ChIJ4dwS2QEY2jER2aHX_S1Ehl0", "types": ["premise"]}