{"address_components": [{"long_name": "Block 351", "short_name": "Block 351", "types": ["premise"]}, {"long_name": "351", "short_name": "351", "types": ["street_number"]}, {"long_name": "Ang Mo Kio Street 32", "short_name": "Ang Mo Kio Street 32", "types": ["route"]}, {"long_name": "Ang Mo Kio", "short_name": "Ang Mo Kio", "types": ["neighborhood", "political"]}, {"long_name": "Singapore", "short_name": "Singapore", "types": ["locality", "political"]}, {"long_name": "Singapore", "short_name": "SG", "types": ["country", "political"]}, {"long_name": "560351", "short_name": "560351", "types": ["postal_code"]}], "formatted_address": "351 Ang Mo Kio Street 32, Block 351, Singapore 560351", "geometry": {"bounds": {"northeast": {"lat": 1.3644794, "lng": 103.8504149}, "southwest": {"lat": 1.3641772, "lng": 103.8501339}}, "location": {"lat": 1.3643243, "lng": 103.8502938}, "location_type": "ROOFTOP", "viewport": {"northeast": {"lat": 1.365677280291502, "lng": 103.8516233802915}, "southwest": {"lat": 1.362979319708498, "lng": 103.8489254197085}}}, "place_id": "ChIJjdzn--EW2jERazfr8lx70ow", "types": ["premise"]}