{"address_components": [{"long_name": "Block 162", "short_name": "Block 162", "types": ["premise"]}, {"long_name": "162", "short_name": "162", "types": ["street_number"]}, {"long_name": "Woodlands Street 13", "short_name": "Woodlands Street 13", "types": ["route"]}, {"long_name": "Woodlands", "short_name": "Woodlands", "types": ["neighborhood", "political"]}, {"long_name": "Singapore", "short_name": "Singapore", "types": ["locality", "political"]}, {"long_name": "Singapore", "short_name": "SG", "types": ["country", "political"]}, {"long_name": "730162", "short_name": "730162", "types": ["postal_code"]}], "formatted_address": "162 Woodlands Street 13, Block 162, Singapore 730162", "geometry": {"bounds": {"northeast": {"lat": 1.4334891, "lng": 103.773848}, "southwest": {"lat": 1.4329069, "lng": 103.772865}}, "location": {"lat": 1.4329786, "lng": 103.7732263}, "location_type": "ROOFTOP", "viewport": {"northeast": {"lat": 1.434546980291502, "lng": 103.7747054802915}, "southwest": {"lat": 1.431849019708498, "lng": 103.7720075197085}}}, "place_id": "ChIJAeDnEFMS2jERojBS7znxnXA", "types": ["premise"]}