{"address_components": [{"long_name": "Block 456", "short_name": "Block 456", "types": ["premise"]}, {"long_name": "456", "short_name": "456", "types": ["street_number"]}, {"long_name": "Tampines Street 42", "short_name": "Tampines Street 42", "types": ["route"]}, {"long_name": "Tampines", "short_name": "Tampines", "types": ["neighborhood", "political"]}, {"long_name": "Singapore", "short_name": "Singapore", "types": ["locality", "political"]}, {"long_name": "Singapore", "short_name": "SG", "types": ["country", "political"]}, {"long_name": "520456", "short_name": "520456", "types": ["postal_code"]}], "formatted_address": "456 Tampines Street 42, Block 456, Singapore 520456", "geometry": {"bounds": {"northeast": {"lat": 1.35771, "lng": 103.9550184}, "southwest": {"lat": 1.357577, "lng": 103.9540812}}, "location": {"lat": 1.3576337, "lng": 103.9545084}, "location_type": "ROOFTOP", "viewport": {"northeast": {"lat": 1.358992480291502, "lng": 103.9558987802915}, "southwest": {"lat": 1.356294519708498, "lng": 103.9532008197085}}}, "place_id": "ChIJ83LvDAQ92jERCyeevNla0sE", "types": ["premise"]}