{"address_components": [{"long_name": "Block 425", "short_name": "Block 425", "types": ["premise"]}, {"long_name": "425", "short_name": "425", "types": ["street_number"]}, {"long_name": "Woodlands Street 41", "short_name": "Woodlands Street 41", "types": ["route"]}, {"long_name": "Woodlands", "short_name": "Woodlands", "types": ["neighborhood", "political"]}, {"long_name": "Singapore", "short_name": "Singapore", "types": ["locality", "political"]}, {"long_name": "Singapore", "short_name": "SG", "types": ["country", "political"]}, {"long_name": "730425", "short_name": "730425", "types": ["postal_code"]}], "formatted_address": "425 Woodlands Street 41, Block 425, Singapore 730425", "geometry": {"bounds": {"northeast": {"lat": 1.4273691, "lng": 103.7742052}, "southwest": {"lat": 1.4270562, "lng": 103.7736402}}, "location": {"lat": 1.4271033, "lng": 103.7738601}, "location_type": "ROOFTOP", "viewport": {"northeast": {"lat": 1.428561630291502, "lng": 103.7752716802915}, "southwest": {"lat": 1.425863669708498, "lng": 103.7725737197085}}}, "place_id": "ChIJS5bbwkwS2jERfx82j9DSCr8", "types": ["premise"]}