{"address_components": [{"long_name": "Block 711", "short_name": "Block 711", "types": ["premise"]}, {"long_name": "711", "short_name": "711", "types": ["street_number"]}, {"long_name": "Woodlands Drive 70", "short_name": "Woodlands Drive 70", "types": ["route"]}, {"long_name": "Woodlands", "short_name": "Woodlands", "types": ["neighborhood", "political"]}, {"long_name": "Singapore", "short_name": "Singapore", "types": ["locality", "political"]}, {"long_name": "Singapore", "short_name": "SG", "types": ["country", "political"]}, {"long_name": "730711", "short_name": "730711", "types": ["postal_code"]}], "formatted_address": "711 Woodlands Drive 70, Block 711, Singapore 730711", "geometry": {"bounds": {"northeast": {"lat": 1.4415039, "lng": 103.797693}, "southwest": {"lat": 1.441022, "lng": 103.796999}}, "location": {"lat": 1.4411976, "lng": 103.7974014}, "location_type": "ROOFTOP", "viewport": {"northeast": {"lat": 1.442611930291502, "lng": 103.7986949802915}, "southwest": {"lat": 1.439913969708498, "lng": 103.7959970197085}}}, "place_id": "ChIJOwGd3AoT2jERZqzumwh5bd0", "types": ["premise"]}