{"address_components": [{"long_name": "Block 221", "short_name": "Block 221", "types": ["premise"]}, {"long_name": "221", "short_name": "221", "types": ["street_number"]}, {"long_name": "Simei Street 4", "short_name": "Simei Street 4", "types": ["route"]}, {"long_name": "Tampines", "short_name": "Tampines", "types": ["neighborhood", "political"]}, {"long_name": "Singapore", "short_name": "Singapore", "types": ["locality", "political"]}, {"long_name": "Singapore", "short_name": "SG", "types": ["country", "political"]}, {"long_name": "520221", "short_name": "520221", "types": ["postal_code"]}], "formatted_address": "221 Simei Street 4, Block 221, Singapore 520221", "geometry": {"bounds": {"northeast": {"lat": 1.3419208, "lng": 103.9565828}, "southwest": {"lat": 1.3415909, "lng": 103.9562853}}, "location": {"lat": 1.3417576, "lng": 103.9564348}, "location_type": "ROOFTOP", "viewport": {"northeast": {"lat": 1.343104830291502, "lng": 103.9577830302915}, "southwest": {"lat": 1.340406869708498, "lng": 103.9550850697085}}}, "place_id": "ChIJbc2sciE92jERY0y57TFd1eQ", "types": ["premise"]}