{"address_components": [{"long_name": "Block 350", "short_name": "Block 350", "types": ["premise"]}, {"long_name": "350", "short_name": "350", "types": ["street_number"]}, {"long_name": "Tampines Street 33", "short_name": "Tampines Street 33", "types": ["route"]}, {"long_name": "Tampines", "short_name": "Tampines", "types": ["neighborhood", "political"]}, {"long_name": "Singapore", "short_name": "Singapore", "types": ["locality", "political"]}, {"long_name": "Singapore", "short_name": "SG", "types": ["country", "political"]}, {"long_name": "520350", "short_name": "520350", "types": ["postal_code"]}], "formatted_address": "350 Tampines Street 33, Block 350, Singapore 520350", "geometry": {"bounds": {"northeast": {"lat": 1.3539397, "lng": 103.9633275}, "southwest": {"lat": 1.3535138, "lng": 103.9625546}}, "location": {"lat": 1.3538497, "lng": 103.963121}, "location_type": "ROOFTOP", "viewport": {"northeast": {"lat": 1.355075730291502, "lng": 103.9642900302915}, "southwest": {"lat": 1.352377769708498, "lng": 103.9615920697085}}}, "place_id": "ChIJ5-uszeI82jERbev_wVdXLQ4", "types": ["premise"]}