{"address_components": [{"long_name": "Block 120", "short_name": "Block 120", "types": ["premise"]}, {"long_name": "120", "short_name": "120", "types": ["street_number"]}, {"long_name": "Marsiling Rise", "short_name": "Marsiling Rise", "types": ["route"]}, {"long_name": "Woodlands", "short_name": "Woodlands", "types": ["neighborhood", "political"]}, {"long_name": "Singapore", "short_name": "Singapore", "types": ["locality", "political"]}, {"long_name": "Singapore", "short_name": "SG", "types": ["country", "political"]}, {"long_name": "730120", "short_name": "730120", "types": ["postal_code"]}], "formatted_address": "120 Marsiling Rise, Block 120, Singapore 730120", "geometry": {"bounds": {"northeast": {"lat": 1.439314, "lng": 103.7811138}, "southwest": {"lat": 1.4389449, "lng": 103.780119}}, "location": {"lat": 1.4392455, "lng": 103.7806504}, "location_type": "ROOFTOP", "viewport": {"northeast": {"lat": 1.440478430291502, "lng": 103.7819653802915}, "southwest": {"lat": 1.437780469708498, "lng": 103.7792674197085}}}, "place_id": "ChIJv5dJBKoT2jER26gfohtpXQs", "types": ["premise"]}