{"address_components": [{"long_name": "Block 118", "short_name": "Block 118", "types": ["premise"]}, {"long_name": "118", "short_name": "118", "types": ["street_number"]}, {"long_name": "Teck Whye Lane", "short_name": "Teck Whye Ln", "types": ["route"]}, {"long_name": "Choa Chu Kang", "short_name": "Choa Chu Kang", "types": ["neighborhood", "political"]}, {"long_name": "Singapore", "short_name": "Singapore", "types": ["locality", "political"]}, {"long_name": "Singapore", "short_name": "SG", "types": ["country", "political"]}, {"long_name": "680118", "short_name": "680118", "types": ["postal_code"]}], "formatted_address": "118 Teck Whye Ln, Block 118, Singapore 680118", "geometry": {"bounds": {"northeast": {"lat": 1.380195, "lng": 103.7509227}, "southwest": {"lat": 1.379393, "lng": 103.750029}}, "location": {"lat": 1.3799337, "lng": 103.7505039}, "location_type": "ROOFTOP", "viewport": {"northeast": {"lat": 1.381142980291502, "lng": 103.7518248302915}, "southwest": {"lat": 1.378445019708498, "lng": 103.7491268697085}}}, "place_id": "ChIJKVPJwcAR2jERwh2ZHunf2t4", "types": ["premise"]}