{"address_components": [{"long_name": "Block 627", "short_name": "Block 627", "types": ["premise"]}, {"long_name": "627", "short_name": "627", "types": ["street_number"]}, {"long_name": "Ang Mo Kio Avenue 9", "short_name": "Ang Mo Kio Ave 9", "types": ["route"]}, {"long_name": "Ang Mo Kio", "short_name": "Ang Mo Kio", "types": ["neighborhood", "political"]}, {"long_name": "Singapore", "short_name": "Singapore", "types": ["locality", "political"]}, {"long_name": "Singapore", "short_name": "SG", "types": ["country", "political"]}, {"long_name": "560627", "short_name": "560627", "types": ["postal_code"]}], "formatted_address": "627 Ang Mo Kio Ave 9, Block 627, Singapore 560627", "geometry": {"bounds": {"northeast": {"lat": 1.3821455, "lng": 103.8417611}, "southwest": {"lat": 1.3816783, "lng": 103.8410285}}, "location": {"lat": 1.3818885, "lng": 103.841326}, "location_type": "ROOFTOP", "viewport": {"northeast": {"lat": 1.383260880291502, "lng": 103.8427437802915}, "southwest": {"lat": 1.380562919708498, "lng": 103.8400458197085}}}, "place_id": "ChIJO53IjcAW2jERIJ_ZiZJfsHc", "types": ["premise"]}