{"address_components": [{"long_name": "Block 229", "short_name": "Block 229", "types": ["premise"]}, {"long_name": "229", "short_name": "229", "types": ["street_number"]}, {"long_name": "Pasir Ris Street 21", "short_name": "Pasir Ris Street 21", "types": ["route"]}, {"long_name": "Pasir Ris", "short_name": "Pasir Ris", "types": ["neighborhood", "political"]}, {"long_name": "Singapore", "short_name": "Singapore", "types": ["locality", "political"]}, {"long_name": "Singapore", "short_name": "SG", "types": ["country", "political"]}, {"long_name": "510229", "short_name": "510229", "types": ["postal_code"]}], "formatted_address": "229 Pasir Ris Street 21, Block 229, Singapore 510229", "geometry": {"bounds": {"northeast": {"lat": 1.3728771, "lng": 103.9619819}, "southwest": {"lat": 1.3722151, "lng": 103.9613852}}, "location": {"lat": 1.3727474, "lng": 103.961761}, "location_type": "ROOFTOP", "viewport": {"northeast": {"lat": 1.373895080291502, "lng": 103.9630325302915}, "southwest": {"lat": 1.371197119708498, "lng": 103.9603345697085}}}, "place_id": "ChIJOVOiplI82jERY6oJK8GdDoo", "types": ["premise"]}