{"address_components": [{"long_name": "Block 211", "short_name": "Block 211", "types": ["premise"]}, {"long_name": "211", "short_name": "211", "types": ["street_number"]}, {"long_name": "Pasir Ris Street 21", "short_name": "Pasir Ris Street 21", "types": ["route"]}, {"long_name": "Pasir Ris", "short_name": "Pasir Ris", "types": ["neighborhood", "political"]}, {"long_name": "Singapore", "short_name": "Singapore", "types": ["locality", "political"]}, {"long_name": "Singapore", "short_name": "SG", "types": ["country", "political"]}, {"long_name": "510211", "short_name": "510211", "types": ["postal_code"]}], "formatted_address": "211 Pasir Ris Street 21, Block 211, Singapore 510211", "geometry": {"bounds": {"northeast": {"lat": 1.367623, "lng": 103.961325}, "southwest": {"lat": 1.367031, "lng": 103.960684}}, "location": {"lat": 1.3672409, "lng": 103.9611038}, "location_type": "ROOFTOP", "viewport": {"northeast": {"lat": 1.368675980291502, "lng": 103.9623534802915}, "southwest": {"lat": 1.365978019708498, "lng": 103.9596555197085}}}, "place_id": "ChIJIw5XslQ82jERUayZlbHJCts", "types": ["premise"]}