{"address_components": [{"long_name": "Block 221", "short_name": "Block 221", "types": ["premise"]}, {"long_name": "221", "short_name": "221", "types": ["street_number"]}, {"long_name": "Tampines Street 24", "short_name": "Tampines Street 24", "types": ["route"]}, {"long_name": "Tampines", "short_name": "Tampines", "types": ["neighborhood", "political"]}, {"long_name": "Singapore", "short_name": "Singapore", "types": ["locality", "political"]}, {"long_name": "Singapore", "short_name": "SG", "types": ["country", "political"]}, {"long_name": "521221", "short_name": "521221", "types": ["postal_code"]}], "formatted_address": "221 Tampines Street 24, Block 221, Singapore 521221", "geometry": {"bounds": {"northeast": {"lat": 1.355249, "lng": 103.9530787}, "southwest": {"lat": 1.355119, "lng": 103.9521348}}, "location": {"lat": 1.3551574, "lng": 103.9523327}, "location_type": "ROOFTOP", "viewport": {"northeast": {"lat": 1.356532980291502, "lng": 103.9539557302915}, "southwest": {"lat": 1.353835019708498, "lng": 103.9512577697085}}}, "place_id": "ChIJ9X6W3QQ92jERrA9y-OPgD68", "types": ["premise"]}