{"address_components": [{"long_name": "Block 81A", "short_name": "Block 81A", "types": ["premise"]}, {"long_name": "81A", "short_name": "81A", "types": ["street_number"]}, {"long_name": "Lorong 4 Toa Payoh", "short_name": "Lor 4 Toa Payoh", "types": ["route"]}, {"long_name": "Toa Payoh", "short_name": "Toa Payoh", "types": ["neighborhood", "political"]}, {"long_name": "Singapore", "short_name": "Singapore", "types": ["locality", "political"]}, {"long_name": "Singapore", "short_name": "SG", "types": ["country", "political"]}, {"long_name": "311081", "short_name": "311081", "types": ["postal_code"]}], "formatted_address": "81A Lor 4 Toa Payoh, Block 81A, Singapore 311081", "geometry": {"bounds": {"northeast": {"lat": 1.3355979, "lng": 103.8501564}, "southwest": {"lat": 1.3353579, "lng": 103.8499064}}, "location": {"lat": 1.3354694, "lng": 103.8500266}, "location_type": "ROOFTOP", "viewport": {"northeast": {"lat": 1.336826880291502, "lng": 103.8513803802915}, "southwest": {"lat": 1.334128919708498, "lng": 103.8486824197085}}}, "place_id": "ChIJU2MQA2YX2jERbNomD9gfJ8U", "types": ["premise"]}