{"address_components": [{"long_name": "Block 183", "short_name": "Block 183", "types": ["premise"]}, {"long_name": "183", "short_name": "183", "types": ["street_number"]}, {"long_name": "Bukit Batok West Avenue 8", "short_name": "Bukit Batok West Ave 8", "types": ["route"]}, {"long_name": "Bukit Batok", "short_name": "Bukit Batok", "types": ["neighborhood", "political"]}, {"long_name": "Singapore", "short_name": "Singapore", "types": ["locality", "political"]}, {"long_name": "Singapore", "short_name": "SG", "types": ["country", "political"]}, {"long_name": "650183", "short_name": "650183", "types": ["postal_code"]}], "formatted_address": "183 Bukit Batok West Ave 8, Block 183, Singapore 650183", "geometry": {"bounds": {"northeast": {"lat": 1.3466448, "lng": 103.7436487}, "southwest": {"lat": 1.3459348, "lng": 103.7431396}}, "location": {"lat": 1.3463279, "lng": 103.743333}, "location_type": "ROOFTOP", "viewport": {"northeast": {"lat": 1.347638780291502, "lng": 103.7447431302915}, "southwest": {"lat": 1.344940819708498, "lng": 103.7420451697085}}}, "place_id": "ChIJWyGCeD0Q2jERtpZfpM2Ku08", "types": ["premise"]}