{"address_components": [{"long_name": "Block 474", "short_name": "Block 474", "types": ["premise"]}, {"long_name": "474", "short_name": "474", "types": ["street_number"]}, {"long_name": "Pasir Ris Drive 6", "short_name": "Pasir Ris Drive 6", "types": ["route"]}, {"long_name": "Pasir Ris", "short_name": "Pasir Ris", "types": ["neighborhood", "political"]}, {"long_name": "Singapore", "short_name": "Singapore", "types": ["locality", "political"]}, {"long_name": "Singapore", "short_name": "SG", "types": ["country", "political"]}, {"long_name": "510474", "short_name": "510474", "types": ["postal_code"]}], "formatted_address": "474 Pasir Ris Drive 6, Block 474, Singapore 510474", "geometry": {"bounds": {"northeast": {"lat": 1.3753452, "lng": 103.9574651}, "southwest": {"lat": 1.3747545, "lng": 103.9564206}}, "location": {"lat": 1.3752661, "lng": 103.9569561}, "location_type": "ROOFTOP", "viewport": {"northeast": {"lat": 1.376398830291502, "lng": 103.9582918302915}, "southwest": {"lat": 1.373700869708498, "lng": 103.9555938697085}}}, "place_id": "ChIJH3fsSrI92jERVhgh1U_OIJw", "types": ["premise"]}