{"address_components": [{"long_name": "Block 819", "short_name": "Block 819", "types": ["premise"]}, {"long_name": "819", "short_name": "819", "types": ["street_number"]}, {"long_name": "Tampines Street 81", "short_name": "Tampines Street 81", "types": ["route"]}, {"long_name": "Tampines", "short_name": "Tampines", "types": ["neighborhood", "political"]}, {"long_name": "Singapore", "short_name": "Singapore", "types": ["locality", "political"]}, {"long_name": "Singapore", "short_name": "SG", "types": ["country", "political"]}, {"long_name": "520819", "short_name": "520819", "types": ["postal_code"]}], "formatted_address": "819 Tampines Street 81, Block 819, Singapore 520819", "geometry": {"bounds": {"northeast": {"lat": 1.3486873, "lng": 103.9373526}, "southwest": {"lat": 1.3479989, "lng": 103.9363491}}, "location": {"lat": 1.3483668, "lng": 103.9369223}, "location_type": "ROOFTOP", "viewport": {"northeast": {"lat": 1.349692080291502, "lng": 103.9381998302915}, "southwest": {"lat": 1.346994119708498, "lng": 103.9355018697085}}}, "place_id": "ChIJuZ2VR2s92jERzTXqAaIkEeQ", "types": ["premise"]}