{"address_components": [{"long_name": "Block 667C", "short_name": "Block 667C", "types": ["premise"]}, {"long_name": "667C", "short_name": "667C", "types": ["street_number"]}, {"long_name": "Jurong West Street 65", "short_name": "Jurong West Street 65", "types": ["route"]}, {"long_name": "Jurong West", "short_name": "Jurong West", "types": ["neighborhood", "political"]}, {"long_name": "Singapore", "short_name": "Singapore", "types": ["locality", "political"]}, {"long_name": "Singapore", "short_name": "SG", "types": ["country", "political"]}, {"long_name": "643667", "short_name": "643667", "types": ["postal_code"]}], "formatted_address": "667C Jurong West Street 65, Block 667C, Singapore 643667", "geometry": {"bounds": {"northeast": {"lat": 1.3414139, "lng": 103.7025129}, "southwest": {"lat": 1.3409419, "lng": 103.7020269}}, "location": {"lat": 1.3411536, "lng": 103.7022655}, "location_type": "ROOFTOP", "viewport": {"northeast": {"lat": 1.342526880291502, "lng": 103.7036188802915}, "southwest": {"lat": 1.339828919708498, "lng": 103.7009209197085}}}, "place_id": "ChIJFRuth5MP2jER7_HU5FPGHto", "types": ["premise"]}