{"address_components": [{"long_name": "Block 230", "short_name": "Block 230", "types": ["premise"]}, {"long_name": "230", "short_name": "230", "types": ["street_number"]}, {"long_name": "Bishan Street 23", "short_name": "Bishan Street 23", "types": ["route"]}, {"long_name": "Bishan", "short_name": "Bishan", "types": ["neighborhood", "political"]}, {"long_name": "Singapore", "short_name": "Singapore", "types": ["locality", "political"]}, {"long_name": "Singapore", "short_name": "SG", "types": ["country", "political"]}, {"long_name": "570230", "short_name": "570230", "types": ["postal_code"]}], "formatted_address": "230 Bishan Street 23, Block 230, Singapore 570230", "geometry": {"bounds": {"northeast": {"lat": 1.3581116, "lng": 103.8459913}, "southwest": {"lat": 1.3576299, "lng": 103.8452979}}, "location": {"lat": 1.3579056, "lng": 103.8456739}, "location_type": "ROOFTOP", "viewport": {"northeast": {"lat": 1.359219730291502, "lng": 103.8469935802915}, "southwest": {"lat": 1.356521769708498, "lng": 103.8442956197085}}}, "place_id": "ChIJcdUsmhgX2jER5TKlnvHIEUg", "types": ["premise"]}