{"address_components": [{"long_name": "Block 116", "short_name": "Block 116", "types": ["premise"]}, {"long_name": "116", "short_name": "116", "types": ["street_number"]}, {"long_name": "Bedok North Road", "short_name": "Bedok North Rd", "types": ["route"]}, {"long_name": "Bedok", "short_name": "Bedok", "types": ["neighborhood", "political"]}, {"long_name": "Singapore", "short_name": "Singapore", "types": ["locality", "political"]}, {"long_name": "Singapore", "short_name": "SG", "types": ["country", "political"]}, {"long_name": "460116", "short_name": "460116", "types": ["postal_code"]}], "formatted_address": "116 Bedok North Rd, Block 116, Singapore 460116", "geometry": {"bounds": {"northeast": {"lat": 1.3312791, "lng": 103.9385883}, "southwest": {"lat": 1.330777, "lng": 103.9375402}}, "location": {"lat": 1.3309428, "lng": 103.9381007}, "location_type": "ROOFTOP", "viewport": {"northeast": {"lat": 1.332377030291502, "lng": 103.9394132302915}, "southwest": {"lat": 1.329679069708498, "lng": 103.9367152697085}}}, "place_id": "ChIJDaYIAzY92jERxl8olAu0BGs", "types": ["premise"]}