{"address_components": [{"long_name": "175c", "short_name": "175c", "types": ["street_number"]}, {"long_name": "Yung Kuang Road", "short_name": "Yung Kuang Rd", "types": ["route"]}, {"long_name": "Jurong West", "short_name": "Jurong West", "types": ["neighborhood", "political"]}, {"long_name": "Singapore", "short_name": "Singapore", "types": ["locality", "political"]}, {"long_name": "Singapore", "short_name": "SG", "types": ["country", "political"]}, {"long_name": "613175", "short_name": "613175", "types": ["postal_code"]}], "formatted_address": "175c Yung Kuang Rd, Singapore 613175", "geometry": {"bounds": {"northeast": {"lat": 1.3329612, "lng": 103.7217494}, "southwest": {"lat": 1.3326864, "lng": 103.7209045}}, "location": {"lat": 1.3327682, "lng": 103.7213597}, "location_type": "ROOFTOP", "viewport": {"northeast": {"lat": 1.334172780291502, "lng": 103.7226759302915}, "southwest": {"lat": 1.331474819708498, "lng": 103.7199779697085}}}, "place_id": "ChIJ27TSxvsP2jER871--rPH1pQ", "types": ["establishment", "premise"]}