{"address_components": [{"long_name": "Block 547", "short_name": "Block 547", "types": ["premise"]}, {"long_name": "547", "short_name": "547", "types": ["street_number"]}, {"long_name": "Bedok North Street 3", "short_name": "Bedok North Street 3", "types": ["route"]}, {"long_name": "Bedok", "short_name": "Bedok", "types": ["neighborhood", "political"]}, {"long_name": "Singapore", "short_name": "Singapore", "types": ["locality", "political"]}, {"long_name": "Singapore", "short_name": "SG", "types": ["country", "political"]}, {"long_name": "460547", "short_name": "460547", "types": ["postal_code"]}], "formatted_address": "547 Bedok North Street 3, Block 547, Singapore 460547", "geometry": {"bounds": {"northeast": {"lat": 1.3306024, "lng": 103.9259936}, "southwest": {"lat": 1.3296591, "lng": 103.9247658}}, "location": {"lat": 1.3303589, "lng": 103.925139}, "location_type": "ROOFTOP", "viewport": {"northeast": {"lat": 1.331479730291502, "lng": 103.9267286802915}, "southwest": {"lat": 1.328781769708498, "lng": 103.9240307197085}}}, "place_id": "ChIJLZzsD1I92jERulaD2azIC-A", "types": ["premise"]}