{"address_components": [{"long_name": "Block 263", "short_name": "Block 263", "types": ["premise"]}, {"long_name": "263", "short_name": "263", "types": ["street_number"]}, {"long_name": "Tampines Street 21", "short_name": "Tampines Street 21", "types": ["route"]}, {"long_name": "Tampines", "short_name": "Tampines", "types": ["neighborhood", "political"]}, {"long_name": "Singapore", "short_name": "Singapore", "types": ["locality", "political"]}, {"long_name": "Singapore", "short_name": "SG", "types": ["country", "political"]}, {"long_name": "520263", "short_name": "520263", "types": ["postal_code"]}], "formatted_address": "263 Tampines Street 21, Block 263, Singapore 520263", "geometry": {"bounds": {"northeast": {"lat": 1.3534121, "lng": 103.951544}, "southwest": {"lat": 1.352991, "lng": 103.950608}}, "location": {"lat": 1.3532622, "lng": 103.9509729}, "location_type": "ROOFTOP", "viewport": {"northeast": {"lat": 1.354550530291502, "lng": 103.9524249802915}, "southwest": {"lat": 1.351852569708498, "lng": 103.9497270197085}}}, "place_id": "ChIJJx8RxBo92jERPxIHM2_O-DQ", "types": ["premise"]}