{"address_components": [{"long_name": "488C", "short_name": "488C", "types": ["street_number"]}, {"long_name": "Choa Chu Kang Avenue 5", "short_name": "Choa Chu Kang Ave 5", "types": ["route"]}, {"long_name": "Choa Chu Kang", "short_name": "Choa Chu Kang", "types": ["neighborhood", "political"]}, {"long_name": "Singapore", "short_name": "Singapore", "types": ["locality", "political"]}, {"long_name": "Singapore", "short_name": "SG", "types": ["country", "political"]}], "formatted_address": "488C Choa Chu Kang Ave 5, Singapore", "geometry": {"bounds": {"northeast": {"lat": 1.3767709, "lng": 103.7403526}, "southwest": {"lat": 1.3763892, "lng": 103.7398084}}, "location": {"lat": 1.376567, "lng": 103.7400467}, "location_type": "ROOFTOP", "viewport": {"northeast": {"lat": 1.377929030291502, "lng": 103.7414294802915}, "southwest": {"lat": 1.375231069708498, "lng": 103.7387315197085}}}, "place_id": "ChIJv-VeKdsR2jERx7ORSRmSHps", "types": ["premise"]}