{"address_components": [{"long_name": "Block 869", "short_name": "Block 869", "types": ["premise"]}, {"long_name": "869", "short_name": "869", "types": ["street_number"]}, {"long_name": "Tampines Street 83", "short_name": "Tampines Street 83", "types": ["route"]}, {"long_name": "Tampines", "short_name": "Tampines", "types": ["neighborhood", "political"]}, {"long_name": "Singapore", "short_name": "Singapore", "types": ["locality", "political"]}, {"long_name": "Singapore", "short_name": "SG", "types": ["country", "political"]}, {"long_name": "520869", "short_name": "520869", "types": ["postal_code"]}], "formatted_address": "869 Tampines Street 83, Block 869, Singapore 520869", "geometry": {"bounds": {"northeast": {"lat": 1.3548058, "lng": 103.9341234}, "southwest": {"lat": 1.3543039, "lng": 103.9333275}}, "location": {"lat": 1.3546824, "lng": 103.9334779}, "location_type": "ROOFTOP", "viewport": {"northeast": {"lat": 1.355903830291502, "lng": 103.9350744302915}, "southwest": {"lat": 1.353205869708498, "lng": 103.9323764697085}}}, "place_id": "ChIJGbJzcXI92jERYJcH_V40YMY", "types": ["premise"]}