{"address_components": [{"long_name": "Natura Loft Block 275A", "short_name": "Natura Loft Block 275A", "types": ["premise"]}, {"long_name": "275A", "short_name": "275A", "types": ["street_number"]}, {"long_name": "Bishan Street 24", "short_name": "Bishan Street 24", "types": ["route"]}, {"long_name": "Bishan", "short_name": "Bishan", "types": ["neighborhood", "political"]}, {"long_name": "Singapore", "short_name": "Singapore", "types": ["locality", "political"]}, {"long_name": "Singapore", "short_name": "SG", "types": ["country", "political"]}, {"long_name": "571275", "short_name": "571275", "types": ["postal_code"]}], "formatted_address": "275A Bishan Street 24, Natura Loft Block 275A, Singapore 571275", "geometry": {"bounds": {"northeast": {"lat": 1.3568736, "lng": 103.8436902}, "southwest": {"lat": 1.3564997, "lng": 103.8433192}}, "location": {"lat": 1.3566732, "lng": 103.8435}, "location_type": "ROOFTOP", "viewport": {"northeast": {"lat": 1.358035630291502, "lng": 103.8448536802915}, "southwest": {"lat": 1.355337669708498, "lng": 103.8421557197085}}}, "place_id": "ChIJV5K09CIX2jERlAtnkwdOxUw", "types": ["premise"]}