{"address_components": [{"long_name": "Block 423", "short_name": "Block 423", "types": ["premise"]}, {"long_name": "423", "short_name": "423", "types": ["street_number"]}, {"long_name": "Ang Mo Kio Avenue 3", "short_name": "Ang Mo Kio Ave 3", "types": ["route"]}, {"long_name": "Ang Mo Kio", "short_name": "Ang Mo Kio", "types": ["neighborhood", "political"]}, {"long_name": "Singapore", "short_name": "Singapore", "types": ["locality", "political"]}, {"long_name": "Singapore", "short_name": "SG", "types": ["country", "political"]}, {"long_name": "560423", "short_name": "560423", "types": ["postal_code"]}], "formatted_address": "423 Ang Mo Kio Ave 3, Block 423, Singapore 560423", "geometry": {"bounds": {"northeast": {"lat": 1.3689249, "lng": 103.8521117}, "southwest": {"lat": 1.3685183, "lng": 103.851074}}, "location": {"lat": 1.3687122, "lng": 103.851562}, "location_type": "ROOFTOP", "viewport": {"northeast": {"lat": 1.370070580291502, "lng": 103.8529418302915}, "southwest": {"lat": 1.367372619708498, "lng": 103.8502438697085}}}, "place_id": "ChIJ6eq0CeQW2jERsUcA0JLlyy0", "types": ["premise"]}