{"address_components": [{"long_name": "Block 524", "short_name": "Block 524", "types": ["premise"]}, {"long_name": "524", "short_name": "524", "types": ["street_number"]}, {"long_name": "Jelapang Road", "short_name": "Jelapang Rd", "types": ["route"]}, {"long_name": "Bukit Panjang", "short_name": "Bukit Panjang", "types": ["neighborhood", "political"]}, {"long_name": "Singapore", "short_name": "Singapore", "types": ["locality", "political"]}, {"long_name": "Singapore", "short_name": "SG", "types": ["country", "political"]}, {"long_name": "670524", "short_name": "670524", "types": ["postal_code"]}], "formatted_address": "524 Jelapang Rd, Block 524, Singapore 670524", "geometry": {"bounds": {"northeast": {"lat": 1.386233, "lng": 103.7661541}, "southwest": {"lat": 1.385754, "lng": 103.7655149}}, "location": {"lat": 1.3861482, "lng": 103.7658027}, "location_type": "ROOFTOP", "viewport": {"northeast": {"lat": 1.387342480291502, "lng": 103.7671834802915}, "southwest": {"lat": 1.384644519708498, "lng": 103.7644855197085}}}, "place_id": "ChIJKa_ZsZkR2jERuwYQznP5H_w", "types": ["premise"]}