{"address_components": [{"long_name": "Block 3", "short_name": "Block 3", "types": ["premise"]}, {"long_name": "3", "short_name": "3", "types": ["street_number"]}, {"long_name": "Holland Close", "short_name": "Holland Cl", "types": ["route"]}, {"long_name": "Queenstown", "short_name": "Queenstown", "types": ["neighborhood", "political"]}, {"long_name": "Singapore", "short_name": "Singapore", "types": ["locality", "political"]}, {"long_name": "Singapore", "short_name": "SG", "types": ["country", "political"]}, {"long_name": "271003", "short_name": "271003", "types": ["postal_code"]}], "formatted_address": "3 Holland Cl, Block 3, Singapore 271003", "geometry": {"bounds": {"northeast": {"lat": 1.3084753, "lng": 103.7968446}, "southwest": {"lat": 1.3080952, "lng": 103.7964744}}, "location": {"lat": 1.30826, "lng": 103.796677}, "location_type": "ROOFTOP", "viewport": {"northeast": {"lat": 1.309634230291502, "lng": 103.7980084802915}, "southwest": {"lat": 1.306936269708498, "lng": 103.7953105197085}}}, "place_id": "ChIJm1Y0nGoa2jERv64alddcuVU", "types": ["premise"]}