{"address_components": [{"long_name": "Block 65", "short_name": "Block 65", "types": ["premise"]}, {"long_name": "65", "short_name": "65", "types": ["street_number"]}, {"long_name": "Teban Gardens Road", "short_name": "Teban Gardens Rd", "types": ["route"]}, {"long_name": "Jurong East", "short_name": "Jurong East", "types": ["neighborhood", "political"]}, {"long_name": "Singapore", "short_name": "Singapore", "types": ["locality", "political"]}, {"long_name": "Singapore", "short_name": "SG", "types": ["country", "political"]}, {"long_name": "600065", "short_name": "600065", "types": ["postal_code"]}], "formatted_address": "65 Teban Gardens Rd, Block 65, Singapore 600065", "geometry": {"bounds": {"northeast": {"lat": 1.322147, "lng": 103.7393339}, "southwest": {"lat": 1.3218539, "lng": 103.738962}}, "location": {"lat": 1.3219768, "lng": 103.7391894}, "location_type": "ROOFTOP", "viewport": {"northeast": {"lat": 1.323349430291502, "lng": 103.7404969302915}, "southwest": {"lat": 1.320651469708498, "lng": 103.7377989697085}}}, "place_id": "ChIJ9WxKSK8a2jERkRWgabLcCJA", "types": ["premise"]}