{"address_components": [{"long_name": "Block 506", "short_name": "Block 506", "types": ["premise"]}, {"long_name": "506", "short_name": "506", "types": ["street_number"]}, {"long_name": "Woodlands Drive 14", "short_name": "Woodlands Drive 14", "types": ["route"]}, {"long_name": "Woodlands", "short_name": "Woodlands", "types": ["neighborhood", "political"]}, {"long_name": "Singapore", "short_name": "Singapore", "types": ["locality", "political"]}, {"long_name": "Singapore", "short_name": "SG", "types": ["country", "political"]}, {"long_name": "730506", "short_name": "730506", "types": ["postal_code"]}], "formatted_address": "506 Woodlands Drive 14, Block 506, Singapore 730506", "geometry": {"bounds": {"northeast": {"lat": 1.43262, "lng": 103.7912171}, "southwest": {"lat": 1.43227, "lng": 103.7904609}}, "location": {"lat": 1.4325034, "lng": 103.7908819}, "location_type": "ROOFTOP", "viewport": {"northeast": {"lat": 1.433793980291502, "lng": 103.7921879802915}, "southwest": {"lat": 1.431096019708498, "lng": 103.7894900197085}}}, "place_id": "ChIJO7dMX6QT2jERYXJkO58msxU", "types": ["premise"]}