{"address_components": [{"long_name": "342A", "short_name": "342A", "types": ["street_number"]}, {"long_name": "Yishun Ring Road", "short_name": "Yishun Ring Rd", "types": ["route"]}, {"long_name": "Yishun", "short_name": "Yishun", "types": ["neighborhood", "political"]}, {"long_name": "Singapore", "short_name": "Singapore", "types": ["locality", "political"]}, {"long_name": "Singapore", "short_name": "SG", "types": ["country", "political"]}, {"long_name": "761342", "short_name": "761342", "types": ["postal_code"]}], "formatted_address": "342A Yishun Ring Rd, Singapore 761342", "geometry": {"bounds": {"northeast": {"lat": 1.4309211, "lng": 103.8446444}, "southwest": {"lat": 1.4305457, "lng": 103.8440274}}, "location": {"lat": 1.4307809, "lng": 103.8443152}, "location_type": "ROOFTOP", "viewport": {"northeast": {"lat": 1.432082380291502, "lng": 103.8456848802915}, "southwest": {"lat": 1.429384419708498, "lng": 103.8429869197085}}}, "place_id": "ChIJP8Sn82cU2jERviM1dhMuQiA", "types": ["premise"]}