{"address_components": [{"long_name": "Block 163", "short_name": "Block 163", "types": ["premise"]}, {"long_name": "163", "short_name": "163", "types": ["street_number"]}, {"long_name": "Tampines Street 12", "short_name": "Tampines Street 12", "types": ["route"]}, {"long_name": "Tampines", "short_name": "Tampines", "types": ["neighborhood", "political"]}, {"long_name": "Singapore", "short_name": "Singapore", "types": ["locality", "political"]}, {"long_name": "Singapore", "short_name": "SG", "types": ["country", "political"]}], "formatted_address": "163 Tampines Street 12, Block 163, Singapore", "geometry": {"bounds": {"northeast": {"lat": 1.3496902, "lng": 103.9477224}, "southwest": {"lat": 1.3493712, "lng": 103.9466914}}, "location": {"lat": 1.3494776, "lng": 103.9472561}, "location_type": "ROOFTOP", "viewport": {"northeast": {"lat": 1.350879680291502, "lng": 103.9485558802915}, "southwest": {"lat": 1.348181719708498, "lng": 103.9458579197085}}}, "place_id": "ChIJQVS8zRA92jERmm3or7yMPFo", "types": ["premise"]}