{"address_components": [{"long_name": "Block 219", "short_name": "Block 219", "types": ["premise"]}, {"long_name": "219", "short_name": "219", "types": ["street_number"]}, {"long_name": "Choa Chu Kang Central", "short_name": "Choa Chu Kang Central", "types": ["route"]}, {"long_name": "Choa Chu Kang", "short_name": "Choa Chu Kang", "types": ["neighborhood", "political"]}, {"long_name": "Singapore", "short_name": "Singapore", "types": ["locality", "political"]}, {"long_name": "Singapore", "short_name": "SG", "types": ["country", "political"]}, {"long_name": "680219", "short_name": "680219", "types": ["postal_code"]}], "formatted_address": "219 Choa Chu Kang Central, Block 219, Singapore 680219", "geometry": {"bounds": {"northeast": {"lat": 1.38302, "lng": 103.746183}, "southwest": {"lat": 1.3822609, "lng": 103.7451251}}, "location": {"lat": 1.3827479, "lng": 103.7457065}, "location_type": "ROOFTOP", "viewport": {"northeast": {"lat": 1.383989430291502, "lng": 103.7470030302915}, "southwest": {"lat": 1.381291469708498, "lng": 103.7443050697085}}}, "place_id": "ChIJg57VEMIR2jER1jxiFh3Crb0", "types": ["premise"]}