{"address_components": [{"long_name": "Block 181", "short_name": "Block 181", "types": ["premise"]}, {"long_name": "181", "short_name": "181", "types": ["street_number"]}, {"long_name": "Pasir Ris Street 11", "short_name": "Pasir Ris Street 11", "types": ["route"]}, {"long_name": "Pasir Ris", "short_name": "Pasir Ris", "types": ["neighborhood", "political"]}, {"long_name": "Singapore", "short_name": "Singapore", "types": ["locality", "political"]}, {"long_name": "Singapore", "short_name": "SG", "types": ["country", "political"]}, {"long_name": "510181", "short_name": "510181", "types": ["postal_code"]}], "formatted_address": "181 Pasir Ris Street 11, Block 181, Singapore 510181", "geometry": {"bounds": {"northeast": {"lat": 1.3646967, "lng": 103.9610238}, "southwest": {"lat": 1.3641237, "lng": 103.9603888}}, "location": {"lat": 1.3644804, "lng": 103.9604918}, "location_type": "ROOFTOP", "viewport": {"northeast": {"lat": 1.365759180291502, "lng": 103.9620552802915}, "southwest": {"lat": 1.363061219708498, "lng": 103.9593573197085}}}, "place_id": "ChIJy1Mctao92jERMARUv8RbZkQ", "types": ["premise"]}