{"address_components": [{"long_name": "Block 462", "short_name": "Block 462", "types": ["premise"]}, {"long_name": "462", "short_name": "462", "types": ["street_number"]}, {"long_name": "Tampines Street 44", "short_name": "Tampines Street 44", "types": ["route"]}, {"long_name": "Tampines", "short_name": "Tampines", "types": ["neighborhood", "political"]}, {"long_name": "Singapore", "short_name": "Singapore", "types": ["locality", "political"]}, {"long_name": "Singapore", "short_name": "SG", "types": ["country", "political"]}, {"long_name": "520462", "short_name": "520462", "types": ["postal_code"]}], "formatted_address": "462 Tampines Street 44, Block 462, Singapore 520462", "geometry": {"bounds": {"northeast": {"lat": 1.3593804, "lng": 103.9552637}, "southwest": {"lat": 1.3587656, "lng": 103.9547982}}, "location": {"lat": 1.3589482, "lng": 103.9550523}, "location_type": "ROOFTOP", "viewport": {"northeast": {"lat": 1.360421980291502, "lng": 103.9563799302915}, "southwest": {"lat": 1.357724019708498, "lng": 103.9536819697085}}}, "place_id": "ChIJKTa5rAY92jERQYdEHOKibLU", "types": ["premise"]}