{"address_components": [{"long_name": "Block 102", "short_name": "Block 102", "types": ["premise"]}, {"long_name": "102", "short_name": "102", "types": ["street_number"]}, {"long_name": "Henderson Crescent", "short_name": "Henderson Cres", "types": ["route"]}, {"long_name": "Bukit Merah", "short_name": "Bukit Merah", "types": ["neighborhood", "political"]}, {"long_name": "Singapore", "short_name": "Singapore", "types": ["locality", "political"]}, {"long_name": "Singapore", "short_name": "SG", "types": ["country", "political"]}, {"long_name": "150102", "short_name": "150102", "types": ["postal_code"]}], "formatted_address": "102 Henderson Cres, Block 102, Singapore 150102", "geometry": {"bounds": {"northeast": {"lat": 1.2904901, "lng": 103.8219586}, "southwest": {"lat": 1.2899761, "lng": 103.8213485}}, "location": {"lat": 1.2904366, "lng": 103.8217393}, "location_type": "ROOFTOP", "viewport": {"northeast": {"lat": 1.291582080291502, "lng": 103.8230025302915}, "southwest": {"lat": 1.288884119708498, "lng": 103.8203045697085}}}, "place_id": "ChIJyVvvoCoa2jERVRY3ZKXEOFs", "types": ["premise"]}