{"address_components": [{"long_name": "Block 897A", "short_name": "Block 897A", "types": ["premise"]}, {"long_name": "897A", "short_name": "897A", "types": ["street_number"]}, {"long_name": "Woodlands Drive 50", "short_name": "Woodlands Drive 50", "types": ["route"]}, {"long_name": "Woodlands", "short_name": "Woodlands", "types": ["neighborhood", "political"]}, {"long_name": "Singapore", "short_name": "Singapore", "types": ["locality", "political"]}, {"long_name": "Singapore", "short_name": "SG", "types": ["country", "political"]}, {"long_name": "730897", "short_name": "730897", "types": ["postal_code"]}], "formatted_address": "897A Woodlands Drive 50, Block 897A, Singapore 730897", "geometry": {"bounds": {"northeast": {"lat": 1.4366689, "lng": 103.7943909}, "southwest": {"lat": 1.436352, "lng": 103.7936937}}, "location": {"lat": 1.4365587, "lng": 103.7938247}, "location_type": "ROOFTOP", "viewport": {"northeast": {"lat": 1.437859430291502, "lng": 103.7953912802915}, "southwest": {"lat": 1.435161469708498, "lng": 103.7926933197085}}}, "place_id": "ChIJIXPOIqET2jERuvriPxxXlDY", "types": ["premise"]}