{"address_components": [{"long_name": "Block 108", "short_name": "Block 108", "types": ["premise"]}, {"long_name": "108", "short_name": "108", "types": ["street_number"]}, {"long_name": "Bukit Batok West Avenue 6", "short_name": "Bukit Batok West Ave 6", "types": ["route"]}, {"long_name": "Bukit Batok", "short_name": "Bukit Batok", "types": ["neighborhood", "political"]}, {"long_name": "Singapore", "short_name": "Singapore", "types": ["locality", "political"]}, {"long_name": "Singapore", "short_name": "SG", "types": ["country", "political"]}, {"long_name": "650108", "short_name": "650108", "types": ["postal_code"]}], "formatted_address": "108 Bukit Batok West Ave 6, Block 108, Singapore 650108", "geometry": {"bounds": {"northeast": {"lat": 1.3475084, "lng": 103.7469775}, "southwest": {"lat": 1.3471375, "lng": 103.7460971}}, "location": {"lat": 1.347426, "lng": 103.7466144}, "location_type": "ROOFTOP", "viewport": {"northeast": {"lat": 1.348671930291502, "lng": 103.7478862802915}, "southwest": {"lat": 1.345973969708498, "lng": 103.7451883197085}}}, "place_id": "ChIJL0qcdj4Q2jERRaCRPVruNG4", "types": ["premise"]}