{"address_components": [{"long_name": "Block 201", "short_name": "Block 201", "types": ["premise"]}, {"long_name": "201", "short_name": "201", "types": ["street_number"]}, {"long_name": "Bukit Batok Street 21", "short_name": "Bukit Batok Street 21", "types": ["route"]}, {"long_name": "Bukit Batok", "short_name": "Bukit Batok", "types": ["neighborhood", "political"]}, {"long_name": "Singapore", "short_name": "Singapore", "types": ["locality", "political"]}, {"long_name": "Singapore", "short_name": "SG", "types": ["country", "political"]}, {"long_name": "650201", "short_name": "650201", "types": ["postal_code"]}], "formatted_address": "201 Bukit Batok Street 21, Block 201, Singapore 650201", "geometry": {"bounds": {"northeast": {"lat": 1.3463288, "lng": 103.748357}, "southwest": {"lat": 1.3455009, "lng": 103.7477801}}, "location": {"lat": 1.3457336, "lng": 103.7479719}, "location_type": "ROOFTOP", "viewport": {"northeast": {"lat": 1.347263830291502, "lng": 103.7494175302915}, "southwest": {"lat": 1.344565869708498, "lng": 103.7467195697085}}}, "place_id": "ChIJi0ncID4Q2jERVSwT1aUcPdY", "types": ["premise"]}