{"address_components": [{"long_name": "Block 413", "short_name": "Block 413", "types": ["premise"]}, {"long_name": "413", "short_name": "413", "types": ["street_number"]}, {"long_name": "Saujana Road", "short_name": "Saujana Rd", "types": ["route"]}, {"long_name": "Bukit Panjang", "short_name": "Bukit Panjang", "types": ["neighborhood", "political"]}, {"long_name": "Singapore", "short_name": "Singapore", "types": ["locality", "political"]}, {"long_name": "Singapore", "short_name": "SG", "types": ["country", "political"]}, {"long_name": "670413", "short_name": "670413", "types": ["postal_code"]}], "formatted_address": "413 Saujana Rd, Block 413, Singapore 670413", "geometry": {"bounds": {"northeast": {"lat": 1.3825306, "lng": 103.7691634}, "southwest": {"lat": 1.3822875, "lng": 103.7685525}}, "location": {"lat": 1.3823927, "lng": 103.7686091}, "location_type": "ROOFTOP", "viewport": {"northeast": {"lat": 1.383758030291502, "lng": 103.7702069302915}, "southwest": {"lat": 1.381060069708498, "lng": 103.7675089697085}}}, "place_id": "ChIJHcanEKIR2jERkNTDbSyqPMA", "types": ["premise"]}