{"address_components": [{"long_name": "Block 228", "short_name": "Block 228", "types": ["premise"]}, {"long_name": "228", "short_name": "228", "types": ["street_number"]}, {"long_name": "Simei Street 4", "short_name": "Simei Street 4", "types": ["route"]}, {"long_name": "Tampines", "short_name": "Tampines", "types": ["neighborhood", "political"]}, {"long_name": "Singapore", "short_name": "Singapore", "types": ["locality", "political"]}, {"long_name": "Singapore", "short_name": "SG", "types": ["country", "political"]}, {"long_name": "520228", "short_name": "520228", "types": ["postal_code"]}], "formatted_address": "228 Simei Street 4, Block 228, Singapore 520228", "geometry": {"bounds": {"northeast": {"lat": 1.3427435, "lng": 103.956164}, "southwest": {"lat": 1.3423427, "lng": 103.9555762}}, "location": {"lat": 1.3424926, "lng": 103.9558909}, "location_type": "ROOFTOP", "viewport": {"northeast": {"lat": 1.343892080291502, "lng": 103.9572190802915}, "southwest": {"lat": 1.341194119708498, "lng": 103.9545211197085}}}, "place_id": "ChIJbwGgnCE92jERnWm5bHCNTpU", "types": ["premise"]}