{"address_components": [{"long_name": "Block 510B", "short_name": "Block 510B", "types": ["premise"]}, {"long_name": "Sembawang", "short_name": "Sembawang", "types": ["neighborhood", "political"]}, {"long_name": "Singapore", "short_name": "Singapore", "types": ["locality", "political"]}, {"long_name": "Singapore", "short_name": "SG", "types": ["country", "political"]}], "formatted_address": "Block 510B, Singapore", "geometry": {"bounds": {"northeast": {"lat": 1.453955, "lng": 103.820997}, "southwest": {"lat": 1.4535791, "lng": 103.8205519}}, "location": {"lat": 1.4538997, "lng": 103.8207657}, "location_type": "ROOFTOP", "viewport": {"northeast": {"lat": 1.455116030291502, "lng": 103.8221234302915}, "southwest": {"lat": 1.452418069708498, "lng": 103.8194254697085}}}, "place_id": "ChIJPd3w8GET2jER3dabcSAqk1c", "types": ["premise"]}