{"address_components": [{"long_name": "Block 13", "short_name": "Block 13", "types": ["premise"]}, {"long_name": "13", "short_name": "13", "types": ["street_number"]}, {"long_name": "Cantonment Close", "short_name": "Cantonment Cl", "types": ["route"]}, {"long_name": "Bukit Merah", "short_name": "Bukit Merah", "types": ["neighborhood", "political"]}, {"long_name": "Singapore", "short_name": "Singapore", "types": ["locality", "political"]}, {"long_name": "Singapore", "short_name": "SG", "types": ["country", "political"]}, {"long_name": "080013", "short_name": "080013", "types": ["postal_code"]}], "formatted_address": "13 Cantonment Cl, Block 13, Singapore 080013", "geometry": {"bounds": {"northeast": {"lat": 1.274818, "lng": 103.8406359}, "southwest": {"lat": 1.274561, "lng": 103.8403449}}, "location": {"lat": 1.2746874, "lng": 103.8404881}, "location_type": "ROOFTOP", "viewport": {"northeast": {"lat": 1.276038480291502, "lng": 103.8418393802915}, "southwest": {"lat": 1.273340519708498, "lng": 103.8391414197085}}}, "place_id": "ChIJcVDJjGsZ2jER0er5O7ih2A8", "types": ["premise"]}