{"address_components": [{"long_name": "Block 868", "short_name": "Block 868", "types": ["premise"]}, {"long_name": "868", "short_name": "868", "types": ["street_number"]}, {"long_name": "Tampines Street 83", "short_name": "Tampines Street 83", "types": ["route"]}, {"long_name": "Tampines", "short_name": "Tampines", "types": ["neighborhood", "political"]}, {"long_name": "Singapore", "short_name": "Singapore", "types": ["locality", "political"]}, {"long_name": "Singapore", "short_name": "SG", "types": ["country", "political"]}, {"long_name": "520868", "short_name": "520868", "types": ["postal_code"]}], "formatted_address": "868 Tampines Street 83, Block 868, Singapore 520868", "geometry": {"bounds": {"northeast": {"lat": 1.3550884, "lng": 103.9344495}, "southwest": {"lat": 1.3544874, "lng": 103.9334894}}, "location": {"lat": 1.3546045, "lng": 103.9342936}, "location_type": "ROOFTOP", "viewport": {"northeast": {"lat": 1.356136880291502, "lng": 103.9353184302915}, "southwest": {"lat": 1.353438919708498, "lng": 103.9326204697085}}}, "place_id": "ChIJ8xDtb3I92jERVdb4c7rnfmY", "types": ["premise"]}