{"address_components": [{"long_name": "295A", "short_name": "295A", "types": ["street_number"]}, {"long_name": "Compassvale Crescent", "short_name": "Compassvale Cres", "types": ["route"]}, {"long_name": "Sengkang", "short_name": "Sengkang", "types": ["neighborhood", "political"]}, {"long_name": "Singapore", "short_name": "Singapore", "types": ["locality", "political"]}, {"long_name": "Singapore", "short_name": "SG", "types": ["country", "political"]}, {"long_name": "541295", "short_name": "541295", "types": ["postal_code"]}], "formatted_address": "295A Compassvale Cres, Singapore 541295", "geometry": {"bounds": {"northeast": {"lat": 1.3983411, "lng": 103.8997328}, "southwest": {"lat": 1.3979379, "lng": 103.8988702}}, "location": {"lat": 1.3982523, "lng": 103.8992195}, "location_type": "ROOFTOP", "viewport": {"northeast": {"lat": 1.399488480291502, "lng": 103.9006504802915}, "southwest": {"lat": 1.396790519708498, "lng": 103.8979525197085}}}, "place_id": "ChIJQY8CGwkW2jERgt82tl-jEyI", "types": ["premise"]}