{"address_components": [{"long_name": "Block 765", "short_name": "Block 765", "types": ["premise"]}, {"long_name": "765", "short_name": "765", "types": ["street_number"]}, {"long_name": "Pasir Ris Street 71", "short_name": "Pasir Ris Street 71", "types": ["route"]}, {"long_name": "Pasir Ris", "short_name": "Pasir Ris", "types": ["neighborhood", "political"]}, {"long_name": "Singapore", "short_name": "Singapore", "types": ["locality", "political"]}, {"long_name": "Singapore", "short_name": "SG", "types": ["country", "political"]}, {"long_name": "510765", "short_name": "510765", "types": ["postal_code"]}], "formatted_address": "765 Pasir Ris Street 71, Block 765, Singapore 510765", "geometry": {"bounds": {"northeast": {"lat": 1.3770155, "lng": 103.9349636}, "southwest": {"lat": 1.3766976, "lng": 103.9345267}}, "location": {"lat": 1.3768083, "lng": 103.9347695}, "location_type": "ROOFTOP", "viewport": {"northeast": {"lat": 1.378205530291502, "lng": 103.9360941302915}, "southwest": {"lat": 1.375507569708498, "lng": 103.9333961697085}}}, "place_id": "ChIJsxBmiJY92jERFWY8-hinFu4", "types": ["premise"]}