{"address_components": [{"long_name": "Block 4", "short_name": "Block 4", "types": ["premise"]}, {"long_name": "4", "short_name": "4", "types": ["street_number"]}, {"long_name": "Toh Yi Drive", "short_name": "Toh Yi Dr", "types": ["route"]}, {"long_name": "Bukit Timah", "short_name": "Bukit Timah", "types": ["neighborhood", "political"]}, {"long_name": "Singapore", "short_name": "Singapore", "types": ["locality", "political"]}, {"long_name": "Singapore", "short_name": "SG", "types": ["country", "political"]}, {"long_name": "590004", "short_name": "590004", "types": ["postal_code"]}], "formatted_address": "4 Toh Yi Dr, Block 4, Singapore 590004", "geometry": {"bounds": {"northeast": {"lat": 1.338748, "lng": 103.7750419}, "southwest": {"lat": 1.3383859, "lng": 103.7741079}}, "location": {"lat": 1.3384688, "lng": 103.7747655}, "location_type": "ROOFTOP", "viewport": {"northeast": {"lat": 1.339915930291502, "lng": 103.7759238802915}, "southwest": {"lat": 1.337217969708498, "lng": 103.7732259197085}}}, "place_id": "ChIJ2_Pch2IQ2jERFCN_Umt1f9k", "types": ["premise"]}