{"address_components": [{"long_name": "Block 447", "short_name": "Block 447", "types": ["premise"]}, {"long_name": "447", "short_name": "447", "types": ["street_number"]}, {"long_name": "Choa Chu Kang Avenue 4", "short_name": "Choa Chu Kang Ave 4", "types": ["route"]}, {"long_name": "Choa Chu Kang", "short_name": "Choa Chu Kang", "types": ["neighborhood", "political"]}, {"long_name": "Singapore", "short_name": "Singapore", "types": ["locality", "political"]}, {"long_name": "Singapore", "short_name": "SG", "types": ["country", "political"]}, {"long_name": "680447", "short_name": "680447", "types": ["postal_code"]}], "formatted_address": "447 Choa Chu Kang Ave 4, Block 447, Singapore 680447", "geometry": {"bounds": {"northeast": {"lat": 1.3808123, "lng": 103.7378142}, "southwest": {"lat": 1.3803705, "lng": 103.7372741}}, "location": {"lat": 1.3806151, "lng": 103.7374923}, "location_type": "ROOFTOP", "viewport": {"northeast": {"lat": 1.381940380291502, "lng": 103.7388931302915}, "southwest": {"lat": 1.379242419708498, "lng": 103.7361951697085}}}, "place_id": "ChIJPR20V9wR2jERUOlz954TrXs", "types": ["premise"]}