{"address_components": [{"long_name": "Block 284", "short_name": "Block 284", "types": ["premise"]}, {"long_name": "284", "short_name": "284", "types": ["street_number"]}, {"long_name": "Toh Guan Road", "short_name": "Toh Guan Rd", "types": ["route"]}, {"long_name": "Jurong East", "short_name": "Jurong East", "types": ["neighborhood", "political"]}, {"long_name": "Singapore", "short_name": "Singapore", "types": ["locality", "political"]}, {"long_name": "Singapore", "short_name": "SG", "types": ["country", "political"]}, {"long_name": "600284", "short_name": "600284", "types": ["postal_code"]}], "formatted_address": "284 Toh Guan Rd, Block 284, Singapore 600284", "geometry": {"bounds": {"northeast": {"lat": 1.339703, "lng": 103.7463706}, "southwest": {"lat": 1.339167, "lng": 103.7460156}}, "location": {"lat": 1.339438, "lng": 103.746159}, "location_type": "ROOFTOP", "viewport": {"northeast": {"lat": 1.340783980291502, "lng": 103.7475420802915}, "southwest": {"lat": 1.338086019708498, "lng": 103.7448441197085}}}, "place_id": "ChIJ-_rkYhEQ2jERY-k9mVc8kec", "types": ["premise"]}