{"address_components": [{"long_name": "Block 861A", "short_name": "Block 861A", "types": ["premise"]}, {"long_name": "861A", "short_name": "861A", "types": ["street_number"]}, {"long_name": "Tampines Avenue 5", "short_name": "Tampines Ave 5", "types": ["route"]}, {"long_name": "Tampines", "short_name": "Tampines", "types": ["neighborhood", "political"]}, {"long_name": "Singapore", "short_name": "Singapore", "types": ["locality", "political"]}, {"long_name": "Singapore", "short_name": "SG", "types": ["country", "political"]}, {"long_name": "521861", "short_name": "521861", "types": ["postal_code"]}], "formatted_address": "861A Tampines Ave 5, Block 861A, Singapore 521861", "geometry": {"bounds": {"northeast": {"lat": 1.3548798, "lng": 103.937585}, "southwest": {"lat": 1.3544979, "lng": 103.936975}}, "location": {"lat": 1.3547152, "lng": 103.9372622}, "location_type": "ROOFTOP", "viewport": {"northeast": {"lat": 1.356037830291502, "lng": 103.9386289802915}, "southwest": {"lat": 1.353339869708498, "lng": 103.9359310197085}}}, "place_id": "ChIJQXn_rXI92jERvILqF5KHgdw", "types": ["premise"]}