{"address_components": [{"long_name": "Block 673C", "short_name": "Block 673C", "types": ["premise"]}, {"long_name": "673C", "short_name": "673C", "types": ["street_number"]}, {"long_name": "Jurong West Street 65", "short_name": "Jurong West Street 65", "types": ["route"]}, {"long_name": "Jurong West", "short_name": "Jurong West", "types": ["neighborhood", "political"]}, {"long_name": "Singapore", "short_name": "Singapore", "types": ["locality", "political"]}, {"long_name": "Singapore", "short_name": "SG", "types": ["country", "political"]}, {"long_name": "643673", "short_name": "643673", "types": ["postal_code"]}], "formatted_address": "673C Jurong West Street 65, Block 673C, Singapore 643673", "geometry": {"bounds": {"northeast": {"lat": 1.3450133, "lng": 103.7016845}, "southwest": {"lat": 1.3445834, "lng": 103.7010015}}, "location": {"lat": 1.3448474, "lng": 103.701295}, "location_type": "ROOFTOP", "viewport": {"northeast": {"lat": 1.346147330291502, "lng": 103.7026919802915}, "southwest": {"lat": 1.343449369708498, "lng": 103.6999940197085}}}, "place_id": "ChIJsVPHwJUP2jEREbXTtJmsmsI", "types": ["premise"]}