{"address_components": [{"long_name": "Block 49", "short_name": "Block 49", "types": ["premise"]}, {"long_name": "49", "short_name": "49", "types": ["street_number"]}, {"long_name": "Hoy Fatt Road", "short_name": "Hoy Fatt Rd", "types": ["route"]}, {"long_name": "Bukit Merah", "short_name": "Bukit Merah", "types": ["neighborhood", "political"]}, {"long_name": "Singapore", "short_name": "Singapore", "types": ["locality", "political"]}, {"long_name": "Singapore", "short_name": "SG", "types": ["country", "political"]}, {"long_name": "150049", "short_name": "150049", "types": ["postal_code"]}], "formatted_address": "49 Hoy Fatt Rd, Block 49, Singapore 150049", "geometry": {"bounds": {"northeast": {"lat": 1.2877301, "lng": 103.8121197}, "southwest": {"lat": 1.287469, "lng": 103.8113408}}, "location": {"lat": 1.2875487, "lng": 103.8117093}, "location_type": "ROOFTOP", "viewport": {"northeast": {"lat": 1.288948530291502, "lng": 103.8130792302915}, "southwest": {"lat": 1.286250569708498, "lng": 103.8103812697085}}}, "place_id": "ChIJeQOB7dIb2jERvpw7dioVXZY", "types": ["premise"]}