{"address_components": [{"long_name": "23", "short_name": "23", "types": ["street_number"]}, {"long_name": "Ghim Moh Link", "short_name": "Ghim Moh Link", "types": ["route"]}, {"long_name": "Queenstown", "short_name": "Queenstown", "types": ["neighborhood", "political"]}, {"long_name": "Singapore", "short_name": "Singapore", "types": ["locality", "political"]}, {"long_name": "Singapore", "short_name": "SG", "types": ["country", "political"]}, {"long_name": "271023", "short_name": "271023", "types": ["postal_code"]}], "formatted_address": "23 Ghim Moh Link, Singapore 271023", "geometry": {"bounds": {"northeast": {"lat": 1.3090344, "lng": 103.7865023}, "southwest": {"lat": 1.3085159, "lng": 103.7859624}}, "location": {"lat": 1.3088305, "lng": 103.786264}, "location_type": "ROOFTOP", "viewport": {"northeast": {"lat": 1.310124130291502, "lng": 103.7875813302915}, "southwest": {"lat": 1.307426169708498, "lng": 103.7848833697085}}}, "place_id": "ChIJ7WkO5Wca2jERwjdxhxGUpQg", "types": ["premise"]}