{"address_components": [{"long_name": "Block 287", "short_name": "Block 287", "types": ["premise"]}, {"long_name": "287", "short_name": "287", "types": ["street_number"]}, {"long_name": "Tampines Street 22", "short_name": "Tampines Street 22", "types": ["route"]}, {"long_name": "Tampines", "short_name": "Tampines", "types": ["neighborhood", "political"]}, {"long_name": "Singapore", "short_name": "Singapore", "types": ["locality", "political"]}, {"long_name": "Singapore", "short_name": "SG", "types": ["country", "political"]}, {"long_name": "520287", "short_name": "520287", "types": ["postal_code"]}], "formatted_address": "287 Tampines Street 22, Block 287, Singapore 520287", "geometry": {"bounds": {"northeast": {"lat": 1.349286, "lng": 103.954654}, "southwest": {"lat": 1.3488738, "lng": 103.9537269}}, "location": {"lat": 1.3492182, "lng": 103.9540551}, "location_type": "ROOFTOP", "viewport": {"northeast": {"lat": 1.350428880291502, "lng": 103.9555394302915}, "southwest": {"lat": 1.347730919708498, "lng": 103.9528414697085}}}, "place_id": "ChIJc9WSWRk92jER4bTiz7Dlcps", "types": ["premise"]}