{"address_components": [{"long_name": "Block 357", "short_name": "Block 357", "types": ["premise"]}, {"long_name": "357", "short_name": "357", "types": ["street_number"]}, {"long_name": "Yishun Ring Road", "short_name": "Yishun Ring Rd", "types": ["route"]}, {"long_name": "Yishun", "short_name": "Yishun", "types": ["neighborhood", "political"]}, {"long_name": "Singapore", "short_name": "Singapore", "types": ["locality", "political"]}, {"long_name": "Singapore", "short_name": "SG", "types": ["country", "political"]}, {"long_name": "760357", "short_name": "760357", "types": ["postal_code"]}], "formatted_address": "357 Yishun Ring Rd, Block 357, Singapore 760357", "geometry": {"bounds": {"northeast": {"lat": 1.4264182, "lng": 103.8461261}, "southwest": {"lat": 1.4257032, "lng": 103.8458572}}, "location": {"lat": 1.4263682, "lng": 103.8460363}, "location_type": "ROOFTOP", "viewport": {"northeast": {"lat": 1.427409680291502, "lng": 103.8473406302915}, "southwest": {"lat": 1.424711719708498, "lng": 103.8446426697085}}}, "place_id": "ChIJKT2bFEIU2jERPqSvhcS8BHY", "types": ["premise"]}