{"address_components": [{"long_name": "Block 611", "short_name": "Block 611", "types": ["premise"]}, {"long_name": "611", "short_name": "611", "types": ["street_number"]}, {"long_name": "Jurong West Street 65", "short_name": "Jurong West Street 65", "types": ["route"]}, {"long_name": "Jurong West", "short_name": "Jurong West", "types": ["neighborhood", "political"]}, {"long_name": "Singapore", "short_name": "Singapore", "types": ["locality", "political"]}, {"long_name": "Singapore", "short_name": "SG", "types": ["country", "political"]}, {"long_name": "640611", "short_name": "640611", "types": ["postal_code"]}], "formatted_address": "611 Jurong West Street 65, Block 611, Singapore 640611", "geometry": {"bounds": {"northeast": {"lat": 1.3391157, "lng": 103.70099}, "southwest": {"lat": 1.3388026, "lng": 103.700677}}, "location": {"lat": 1.3389642, "lng": 103.7008177}, "location_type": "ROOFTOP", "viewport": {"northeast": {"lat": 1.340308130291502, "lng": 103.7021824802915}, "southwest": {"lat": 1.337610169708498, "lng": 103.6994845197085}}}, "place_id": "ChIJEYhZMpIP2jERl4GRTmXL7gY", "types": ["premise"]}