{"address_components": [{"long_name": "Block 563", "short_name": "Block 563", "types": ["premise"]}, {"long_name": "563", "short_name": "563", "types": ["street_number"]}, {"long_name": "Ang Mo Kio Avenue 3", "short_name": "Ang Mo Kio Ave 3", "types": ["route"]}, {"long_name": "Ang Mo Kio", "short_name": "Ang Mo Kio", "types": ["neighborhood", "political"]}, {"long_name": "Singapore", "short_name": "Singapore", "types": ["locality", "political"]}, {"long_name": "Singapore", "short_name": "SG", "types": ["country", "political"]}, {"long_name": "560563", "short_name": "560563", "types": ["postal_code"]}], "formatted_address": "563 Ang Mo Kio Ave 3, Block 563, Singapore 560563", "geometry": {"bounds": {"northeast": {"lat": 1.369917, "lng": 103.858313}, "southwest": {"lat": 1.369805, "lng": 103.857653}}, "location": {"lat": 1.3698464, "lng": 103.8579939}, "location_type": "ROOFTOP", "viewport": {"northeast": {"lat": 1.371209980291502, "lng": 103.8593319802915}, "southwest": {"lat": 1.368512019708498, "lng": 103.8566340197085}}}, "place_id": "ChIJvXU7FfsW2jER2cQ5taHmr84", "types": ["premise"]}