{"address_components": [{"long_name": "Block 713", "short_name": "Block 713", "types": ["premise"]}, {"long_name": "713", "short_name": "713", "types": ["street_number"]}, {"long_name": "Clementi West Street 2", "short_name": "Clementi West Street 2", "types": ["route"]}, {"long_name": "Clementi", "short_name": "Clementi", "types": ["neighborhood", "political"]}, {"long_name": "Singapore", "short_name": "Singapore", "types": ["locality", "political"]}, {"long_name": "Singapore", "short_name": "SG", "types": ["country", "political"]}, {"long_name": "120713", "short_name": "120713", "types": ["postal_code"]}], "formatted_address": "713 Clementi West Street 2, Block 713, Singapore 120713", "geometry": {"bounds": {"northeast": {"lat": 1.3044235, "lng": 103.7624297}, "southwest": {"lat": 1.3038176, "lng": 103.7620508}}, "location": {"lat": 1.3040621, "lng": 103.762272}, "location_type": "ROOFTOP", "viewport": {"northeast": {"lat": 1.305469530291502, "lng": 103.7635892302915}, "southwest": {"lat": 1.302771569708498, "lng": 103.7608912697085}}}, "place_id": "ChIJ26dL3e0a2jERi65ubGve2Mc", "types": ["premise"]}