{"address_components": [{"long_name": "Block 105", "short_name": "Block 105", "types": ["premise"]}, {"long_name": "105", "short_name": "105", "types": ["street_number"]}, {"long_name": "Jurong East Street 13", "short_name": "Jurong East Street 13", "types": ["route"]}, {"long_name": "Jurong East", "short_name": "Jurong East", "types": ["neighborhood", "political"]}, {"long_name": "Singapore", "short_name": "Singapore", "types": ["locality", "political"]}, {"long_name": "Singapore", "short_name": "SG", "types": ["country", "political"]}, {"long_name": "600105", "short_name": "600105", "types": ["postal_code"]}], "formatted_address": "105 Jurong East Street 13, Block 105, Singapore 600105", "geometry": {"bounds": {"northeast": {"lat": 1.3376279, "lng": 103.7387484}, "southwest": {"lat": 1.3372368, "lng": 103.7379893}}, "location": {"lat": 1.3372922, "lng": 103.7383752}, "location_type": "ROOFTOP", "viewport": {"northeast": {"lat": 1.338781330291502, "lng": 103.7397178302915}, "southwest": {"lat": 1.336083369708498, "lng": 103.7370198697085}}}, "place_id": "ChIJVUJQwxoQ2jERj9lG-FbIPME", "types": ["premise"]}