{"address_components": [{"long_name": "Block 103", "short_name": "Block 103", "types": ["premise"]}, {"long_name": "103", "short_name": "103", "types": ["street_number"]}, {"long_name": "Bukit Batok Central", "short_name": "Bukit Batok Central", "types": ["route"]}, {"long_name": "Bukit Batok", "short_name": "Bukit Batok", "types": ["neighborhood", "political"]}, {"long_name": "Singapore", "short_name": "Singapore", "types": ["locality", "political"]}, {"long_name": "Singapore", "short_name": "SG", "types": ["country", "political"]}, {"long_name": "650103", "short_name": "650103", "types": ["postal_code"]}], "formatted_address": "103 Bukit Batok Central, Block 103, Singapore 650103", "geometry": {"bounds": {"northeast": {"lat": 1.3486683, "lng": 103.7481944}, "southwest": {"lat": 1.3479511, "lng": 103.7476171}}, "location": {"lat": 1.3482234, "lng": 103.748063}, "location_type": "ROOFTOP", "viewport": {"northeast": {"lat": 1.349658680291502, "lng": 103.7492547302915}, "southwest": {"lat": 1.346960719708498, "lng": 103.7465567697085}}}, "place_id": "ChIJrcuv9T4Q2jERpvsZVEpaDhI", "types": ["premise"]}