{"address_components": [{"long_name": "Block 139", "short_name": "Block 139", "types": ["premise"]}, {"long_name": "139", "short_name": "139", "types": ["street_number"]}, {"long_name": "Jalan Bukit Merah", "short_name": "Jalan Bukit Merah", "types": ["route"]}, {"long_name": "Bukit Merah", "short_name": "Bukit Merah", "types": ["neighborhood", "political"]}, {"long_name": "Singapore", "short_name": "Singapore", "types": ["locality", "political"]}, {"long_name": "Singapore", "short_name": "SG", "types": ["country", "political"]}, {"long_name": "160139", "short_name": "160139", "types": ["postal_code"]}], "formatted_address": "139 Jalan Bukit Merah, Block 139, Singapore 160139", "geometry": {"bounds": {"northeast": {"lat": 1.2792436, "lng": 103.827092}, "southwest": {"lat": 1.2785616, "lng": 103.8264225}}, "location": {"lat": 1.2786934, "lng": 103.8264716}, "location_type": "ROOFTOP", "viewport": {"northeast": {"lat": 1.280251580291502, "lng": 103.8281062302915}, "southwest": {"lat": 1.277553619708498, "lng": 103.8254082697085}}}, "place_id": "ChIJzYVLQ2MZ2jER_pu2jjHm3Q0", "types": ["premise"]}