{"address_components": [{"long_name": "Block 255", "short_name": "Block 255", "types": ["premise"]}, {"long_name": "255", "short_name": "255", "types": ["street_number"]}, {"long_name": "Bangkit Road", "short_name": "Bangkit Rd", "types": ["route"]}, {"long_name": "Bukit Panjang", "short_name": "Bukit Panjang", "types": ["neighborhood", "political"]}, {"long_name": "Singapore", "short_name": "Singapore", "types": ["locality", "political"]}, {"long_name": "Singapore", "short_name": "SG", "types": ["country", "political"]}, {"long_name": "670255", "short_name": "670255", "types": ["postal_code"]}], "formatted_address": "255 Bangkit Rd, Block 255, Singapore 670255", "geometry": {"bounds": {"northeast": {"lat": 1.38001, "lng": 103.773321}, "southwest": {"lat": 1.379551, "lng": 103.7727911}}, "location": {"lat": 1.379636, "lng": 103.7730226}, "location_type": "ROOFTOP", "viewport": {"northeast": {"lat": 1.381129480291502, "lng": 103.7744050302915}, "southwest": {"lat": 1.378431519708498, "lng": 103.7717070697085}}}, "place_id": "ChIJsYfc56AR2jERai5RwZm3DpI", "types": ["premise"]}