{"address_components": [{"long_name": "Block 136", "short_name": "Block 136", "types": ["premise"]}, {"long_name": "136", "short_name": "136", "types": ["street_number"]}, {"long_name": "Bukit Batok West Avenue 6", "short_name": "Bukit Batok West Ave 6", "types": ["route"]}, {"long_name": "Bukit Batok", "short_name": "Bukit Batok", "types": ["neighborhood", "political"]}, {"long_name": "Singapore", "short_name": "Singapore", "types": ["locality", "political"]}, {"long_name": "Singapore", "short_name": "SG", "types": ["country", "political"]}, {"long_name": "650136", "short_name": "650136", "types": ["postal_code"]}], "formatted_address": "136 Bukit Batok West Ave 6, Block 136, Singapore 650136", "geometry": {"bounds": {"northeast": {"lat": 1.3510183, "lng": 103.7451829}, "southwest": {"lat": 1.3507662, "lng": 103.7445449}}, "location": {"lat": 1.3508789, "lng": 103.7448952}, "location_type": "ROOFTOP", "viewport": {"northeast": {"lat": 1.352241230291502, "lng": 103.7462128802915}, "southwest": {"lat": 1.349543269708498, "lng": 103.7435149197085}}}, "place_id": "ChIJraJI8zsQ2jER4Cwly3KQewU", "types": ["premise"]}