{"address_components": [{"long_name": "Block 666", "short_name": "Block 666", "types": ["premise"]}, {"long_name": "666", "short_name": "666", "types": ["street_number"]}, {"long_name": "Woodlands Ring Road", "short_name": "Woodlands Ring Rd", "types": ["route"]}, {"long_name": "Woodlands", "short_name": "Woodlands", "types": ["neighborhood", "political"]}, {"long_name": "Singapore", "short_name": "Singapore", "types": ["locality", "political"]}, {"long_name": "Singapore", "short_name": "SG", "types": ["country", "political"]}, {"long_name": "730666", "short_name": "730666", "types": ["postal_code"]}], "formatted_address": "666 Woodlands Ring Rd, Block 666, Singapore 730666", "geometry": {"bounds": {"northeast": {"lat": 1.4388611, "lng": 103.7975529}, "southwest": {"lat": 1.438201, "lng": 103.797323}}, "location": {"lat": 1.4382979, "lng": 103.7974467}, "location_type": "ROOFTOP", "viewport": {"northeast": {"lat": 1.439880030291502, "lng": 103.7987869302915}, "southwest": {"lat": 1.437182069708498, "lng": 103.7960889697085}}}, "place_id": "ChIJu0hKEaAT2jERMvTkpbFvKzY", "types": ["premise"]}