{"address_components": [{"long_name": "Block 268B", "short_name": "Block 268B", "types": ["premise"]}, {"long_name": "268B", "short_name": "268B", "types": ["street_number"]}, {"long_name": "Boon Lay Drive", "short_name": "Boon Lay Dr", "types": ["route"]}, {"long_name": "Jurong West", "short_name": "Jurong West", "types": ["neighborhood", "political"]}, {"long_name": "Singapore", "short_name": "Singapore", "types": ["locality", "political"]}, {"long_name": "Singapore", "short_name": "SG", "types": ["country", "political"]}, {"long_name": "642268", "short_name": "642268", "types": ["postal_code"]}], "formatted_address": "268B Boon Lay Dr, Block 268B, Singapore 642268", "geometry": {"bounds": {"northeast": {"lat": 1.3478315, "lng": 103.7083015}, "southwest": {"lat": 1.3475496, "lng": 103.7077945}}, "location": {"lat": 1.3477396, "lng": 103.7079466}, "location_type": "ROOFTOP", "viewport": {"northeast": {"lat": 1.349039530291502, "lng": 103.7093969802915}, "southwest": {"lat": 1.346341569708498, "lng": 103.7066990197085}}}, "place_id": "ChIJxXoCRsAP2jERkuEcfK5M0sk", "types": ["premise"]}