{"address_components": [{"long_name": "Block 978D", "short_name": "Block 978D", "types": ["premise"]}, {"long_name": "978D", "short_name": "978D", "types": ["street_number"]}, {"long_name": "Buangkok Crescent", "short_name": "Buangkok Cres", "types": ["route"]}, {"long_name": "Hougang", "short_name": "Hougang", "types": ["neighborhood", "political"]}, {"long_name": "Singapore", "short_name": "Singapore", "types": ["locality", "political"]}, {"long_name": "Singapore", "short_name": "SG", "types": ["country", "political"]}, {"long_name": "536978", "short_name": "536978", "types": ["postal_code"]}], "formatted_address": "978D Buangkok Cres, Block 978D, Singapore 536978", "geometry": {"bounds": {"northeast": {"lat": 1.3801818, "lng": 103.8795297}, "southwest": {"lat": 1.3799999, "lng": 103.8791317}}, "location": {"lat": 1.3801212, "lng": 103.8793727}, "location_type": "ROOFTOP", "viewport": {"northeast": {"lat": 1.381439830291502, "lng": 103.8806796802915}, "southwest": {"lat": 1.378741869708498, "lng": 103.8779817197085}}}, "place_id": "ChIJqZ4o1FwW2jERD63boXEsaGU", "types": ["premise"]}