{"address_components": [{"long_name": "780C", "short_name": "780C", "types": ["street_number"]}, {"long_name": "Woodlands Crescent", "short_name": "Woodlands Cres", "types": ["route"]}, {"long_name": "Woodlands", "short_name": "Woodlands", "types": ["neighborhood", "political"]}, {"long_name": "Singapore", "short_name": "Singapore", "types": ["locality", "political"]}, {"long_name": "Singapore", "short_name": "SG", "types": ["country", "political"]}, {"long_name": "733780", "short_name": "733780", "types": ["postal_code"]}], "formatted_address": "780C Woodlands Cres, Singapore 733780", "geometry": {"bounds": {"northeast": {"lat": 1.4493272, "lng": 103.8017686}, "southwest": {"lat": 1.4488272, "lng": 103.8009069}}, "location": {"lat": 1.4491747, "lng": 103.8013857}, "location_type": "ROOFTOP", "viewport": {"northeast": {"lat": 1.450426180291502, "lng": 103.8026867302915}, "southwest": {"lat": 1.447728219708498, "lng": 103.7999887697085}}}, "place_id": "ChIJp-m1gW0T2jERdKhNR-rxT6o", "types": ["premise"]}