{"address_components": [{"long_name": "Block 462", "short_name": "Block 462", "types": ["premise"]}, {"long_name": "462", "short_name": "462", "types": ["street_number"]}, {"long_name": "Ang Mo Kio Avenue 10", "short_name": "Ang Mo Kio Ave 10", "types": ["route"]}, {"long_name": "Ang Mo Kio", "short_name": "Ang Mo Kio", "types": ["neighborhood", "political"]}, {"long_name": "Singapore", "short_name": "Singapore", "types": ["locality", "political"]}, {"long_name": "Singapore", "short_name": "SG", "types": ["country", "political"]}, {"long_name": "560462", "short_name": "560462", "types": ["postal_code"]}], "formatted_address": "462 Ang Mo Kio Ave 10, Block 462, Singapore 560462", "geometry": {"bounds": {"northeast": {"lat": 1.36737, "lng": 103.8582369}, "southwest": {"lat": 1.3666641, "lng": 103.857612}}, "location": {"lat": 1.3669161, "lng": 103.8579939}, "location_type": "ROOFTOP", "viewport": {"northeast": {"lat": 1.368366030291502, "lng": 103.8592734302915}, "southwest": {"lat": 1.365668069708498, "lng": 103.8565754697085}}}, "place_id": "ChIJH4Iz6PwW2jERLuu0qqGemuM", "types": ["premise"]}