{"address_components": [{"long_name": "Block 698A", "short_name": "Block 698A", "types": ["premise"]}, {"long_name": "698A", "short_name": "698A", "types": ["street_number"]}, {"long_name": "Hougang Street 61", "short_name": "Hougang Street 61", "types": ["route"]}, {"long_name": "Hougang", "short_name": "Hougang", "types": ["neighborhood", "political"]}, {"long_name": "Singapore", "short_name": "Singapore", "types": ["locality", "political"]}, {"long_name": "Singapore", "short_name": "SG", "types": ["country", "political"]}, {"long_name": "531698", "short_name": "531698", "types": ["postal_code"]}], "formatted_address": "698A Hougang Street 61, Block 698A, Singapore 531698", "geometry": {"bounds": {"northeast": {"lat": 1.3753888, "lng": 103.8877569}, "southwest": {"lat": 1.3748638, "lng": 103.8871348}}, "location": {"lat": 1.3753138, "lng": 103.8873489}, "location_type": "ROOFTOP", "viewport": {"northeast": {"lat": 1.376475280291502, "lng": 103.8887948302915}, "southwest": {"lat": 1.373777319708498, "lng": 103.8860968697085}}}, "place_id": "ChIJK85mWkYW2jERdE711H85YSY", "types": ["premise"]}