{"address_components": [{"long_name": "Block 224", "short_name": "Block 224", "types": ["premise"]}, {"long_name": "224", "short_name": "224", "types": ["street_number"]}, {"long_name": "Simei Street 4", "short_name": "Simei Street 4", "types": ["route"]}, {"long_name": "Tampines", "short_name": "Tampines", "types": ["neighborhood", "political"]}, {"long_name": "Singapore", "short_name": "Singapore", "types": ["locality", "political"]}, {"long_name": "Singapore", "short_name": "SG", "types": ["country", "political"]}, {"long_name": "520224", "short_name": "520224", "types": ["postal_code"]}], "formatted_address": "224 Simei Street 4, Block 224, Singapore 520224", "geometry": {"bounds": {"northeast": {"lat": 1.3433014, "lng": 103.9577636}, "southwest": {"lat": 1.3426122, "lng": 103.9568604}}, "location": {"lat": 1.3431973, "lng": 103.9574094}, "location_type": "ROOFTOP", "viewport": {"northeast": {"lat": 1.344305780291502, "lng": 103.9586609802915}, "southwest": {"lat": 1.341607819708498, "lng": 103.9559630197085}}}, "place_id": "ChIJMazgryE92jEROB84AgLNKCI", "types": ["premise"]}