{"address_components": [{"long_name": "Block 708", "short_name": "Block 708", "types": ["premise"]}, {"long_name": "708", "short_name": "708", "types": ["street_number"]}, {"long_name": "Pasir Ris Drive 10", "short_name": "Pasir Ris Drive 10", "types": ["route"]}, {"long_name": "Pasir Ris", "short_name": "Pasir Ris", "types": ["neighborhood", "political"]}, {"long_name": "Singapore", "short_name": "Singapore", "types": ["locality", "political"]}, {"long_name": "Singapore", "short_name": "SG", "types": ["country", "political"]}, {"long_name": "510708", "short_name": "510708", "types": ["postal_code"]}], "formatted_address": "708 Pasir Ris Drive 10, Block 708, Singapore 510708", "geometry": {"bounds": {"northeast": {"lat": 1.3815949, "lng": 103.9392069}, "southwest": {"lat": 1.3811068, "lng": 103.9387889}}, "location": {"lat": 1.381379, "lng": 103.9390978}, "location_type": "ROOFTOP", "viewport": {"northeast": {"lat": 1.382699830291502, "lng": 103.9403468802915}, "southwest": {"lat": 1.380001869708498, "lng": 103.9376489197085}}}, "place_id": "ChIJ-6lG67892jERd94F8tlSWUk", "types": ["premise"]}