{"address_components": [{"long_name": "Block 763", "short_name": "Block 763", "types": ["premise"]}, {"long_name": "763", "short_name": "763", "types": ["street_number"]}, {"long_name": "Pasir Ris Street 71", "short_name": "Pasir Ris Street 71", "types": ["route"]}, {"long_name": "Pasir Ris", "short_name": "Pasir Ris", "types": ["neighborhood", "political"]}, {"long_name": "Singapore", "short_name": "Singapore", "types": ["locality", "political"]}, {"long_name": "Singapore", "short_name": "SG", "types": ["country", "political"]}, {"long_name": "510763", "short_name": "510763", "types": ["postal_code"]}], "formatted_address": "763 Pasir Ris Street 71, Block 763, Singapore 510763", "geometry": {"bounds": {"northeast": {"lat": 1.3764615, "lng": 103.9343314}, "southwest": {"lat": 1.3758924, "lng": 103.9340184}}, "location": {"lat": 1.3761889, "lng": 103.9342257}, "location_type": "ROOFTOP", "viewport": {"northeast": {"lat": 1.377525930291502, "lng": 103.9355238802915}, "southwest": {"lat": 1.374827969708498, "lng": 103.9328259197085}}}, "place_id": "ChIJXQNl8pY92jERAJfh2OHW0SE", "types": ["premise"]}