{"address_components": [{"long_name": "Block 342", "short_name": "Block 342", "types": ["premise"]}, {"long_name": "342", "short_name": "342", "types": ["street_number"]}, {"long_name": "Clementi Avenue 5", "short_name": "Clementi Ave 5", "types": ["route"]}, {"long_name": "Clementi", "short_name": "Clementi", "types": ["neighborhood", "political"]}, {"long_name": "Singapore", "short_name": "Singapore", "types": ["locality", "political"]}, {"long_name": "Singapore", "short_name": "SG", "types": ["country", "political"]}, {"long_name": "120342", "short_name": "120342", "types": ["postal_code"]}], "formatted_address": "342 Clementi Ave 5, Block 342, Singapore 120342", "geometry": {"bounds": {"northeast": {"lat": 1.3187189, "lng": 103.7701829}, "southwest": {"lat": 1.318012, "lng": 103.769465}}, "location": {"lat": 1.3182164, "lng": 103.7699671}, "location_type": "ROOFTOP", "viewport": {"northeast": {"lat": 1.319714430291502, "lng": 103.7711729302915}, "southwest": {"lat": 1.317016469708498, "lng": 103.7684749697085}}}, "place_id": "ChIJO5oyCYYa2jERRqIk2QoYCxg", "types": ["premise"]}