{"address_components": [{"long_name": "Block 825", "short_name": "Block 825", "types": ["premise"]}, {"long_name": "825", "short_name": "825", "types": ["street_number"]}, {"long_name": "Woodlands Street 81", "short_name": "Woodlands Street 81", "types": ["route"]}, {"long_name": "Woodlands", "short_name": "Woodlands", "types": ["neighborhood", "political"]}, {"long_name": "Singapore", "short_name": "Singapore", "types": ["locality", "political"]}, {"long_name": "Singapore", "short_name": "SG", "types": ["country", "political"]}, {"long_name": "730825", "short_name": "730825", "types": ["postal_code"]}], "formatted_address": "825 Woodlands Street 81, Block 825, Singapore 730825", "geometry": {"bounds": {"northeast": {"lat": 1.4392509, "lng": 103.790032}, "southwest": {"lat": 1.4386189, "lng": 103.7889909}}, "location": {"lat": 1.4388967, "lng": 103.7896142}, "location_type": "ROOFTOP", "viewport": {"northeast": {"lat": 1.440283880291502, "lng": 103.7908604302915}, "southwest": {"lat": 1.437585919708498, "lng": 103.7881624697085}}}, "place_id": "ChIJmysWg6cT2jERgRDEJoTxPWA", "types": ["premise"]}