{"address_components": [{"long_name": "Block 168", "short_name": "Block 168", "types": ["premise"]}, {"long_name": "168", "short_name": "168", "types": ["street_number"]}, {"long_name": "Petir Road", "short_name": "Petir Rd", "types": ["route"]}, {"long_name": "Bukit Panjang", "short_name": "Bukit Panjang", "types": ["neighborhood", "political"]}, {"long_name": "Singapore", "short_name": "Singapore", "types": ["locality", "political"]}, {"long_name": "Singapore", "short_name": "SG", "types": ["country", "political"]}, {"long_name": "670168", "short_name": "670168", "types": ["postal_code"]}], "formatted_address": "168 Petir Rd, Block 168, Singapore 670168", "geometry": {"bounds": {"northeast": {"lat": 1.3778668, "lng": 103.7646778}, "southwest": {"lat": 1.3775317, "lng": 103.7643417}}, "location": {"lat": 1.3777257, "lng": 103.7644447}, "location_type": "ROOFTOP", "viewport": {"northeast": {"lat": 1.379048230291502, "lng": 103.7658587302915}, "southwest": {"lat": 1.376350269708498, "lng": 103.7631607697085}}}, "place_id": "ChIJ87Nvt6QR2jERzSkaYvVBQds", "types": ["premise"]}