{"address_components": [{"long_name": "13", "short_name": "13", "types": ["street_number"]}, {"long_name": "Holland Drive", "short_name": "Holland Dr", "types": ["route"]}, {"long_name": "Queenstown", "short_name": "Queenstown", "types": ["neighborhood", "political"]}, {"long_name": "Singapore", "short_name": "Singapore", "types": ["locality", "political"]}, {"long_name": "Singapore", "short_name": "SG", "types": ["country", "political"]}, {"long_name": "271013", "short_name": "271013", "types": ["postal_code"]}], "formatted_address": "13 Holland Dr, Singapore 271013", "geometry": {"bounds": {"northeast": {"lat": 1.3099109, "lng": 103.7937114}, "southwest": {"lat": 1.3092513, "lng": 103.7929999}}, "location": {"lat": 1.3093758, "lng": 103.7934172}, "location_type": "ROOFTOP", "viewport": {"northeast": {"lat": 1.310930080291502, "lng": 103.7947046302915}, "southwest": {"lat": 1.308232119708498, "lng": 103.7920066697085}}}, "place_id": "ChIJx1meJGoa2jERnoHp7j2URaY", "types": ["premise"]}