{"address_components": [{"long_name": "Block 436", "short_name": "Block 436", "types": ["premise"]}, {"long_name": "436", "short_name": "436", "types": ["street_number"]}, {"long_name": "Ang Mo Kio Avenue 10", "short_name": "Ang Mo Kio Ave 10", "types": ["route"]}, {"long_name": "Ang Mo Kio", "short_name": "Ang Mo Kio", "types": ["neighborhood", "political"]}, {"long_name": "Singapore", "short_name": "Singapore", "types": ["locality", "political"]}, {"long_name": "Singapore", "short_name": "SG", "types": ["country", "political"]}, {"long_name": "560436", "short_name": "560436", "types": ["postal_code"]}], "formatted_address": "436 Ang Mo Kio Ave 10, Block 436, Singapore 560436", "geometry": {"bounds": {"northeast": {"lat": 1.3675539, "lng": 103.8543029}, "southwest": {"lat": 1.3671739, "lng": 103.8535641}}, "location": {"lat": 1.3673797, "lng": 103.8539173}, "location_type": "ROOFTOP", "viewport": {"northeast": {"lat": 1.368712880291502, "lng": 103.8552824802915}, "southwest": {"lat": 1.366014919708498, "lng": 103.8525845197085}}}, "place_id": "ChIJT8aODOMW2jERtuliXgDoSnk", "types": ["premise"]}