{"address_components": [{"long_name": "Block 338", "short_name": "Block 338", "types": ["premise"]}, {"long_name": "338", "short_name": "338", "types": ["street_number"]}, {"long_name": "Ubi Avenue 1", "short_name": "Ubi Ave 1", "types": ["route"]}, {"long_name": "Geylang", "short_name": "Geylang", "types": ["neighborhood", "political"]}, {"long_name": "Singapore", "short_name": "Singapore", "types": ["locality", "political"]}, {"long_name": "Singapore", "short_name": "SG", "types": ["country", "political"]}, {"long_name": "400338", "short_name": "400338", "types": ["postal_code"]}], "formatted_address": "338 Ubi Ave 1, Block 338, Singapore 400338", "geometry": {"bounds": {"northeast": {"lat": 1.3262989, "lng": 103.9025123}, "southwest": {"lat": 1.3260087, "lng": 103.9016367}}, "location": {"lat": 1.3261736, "lng": 103.9022099}, "location_type": "ROOFTOP", "viewport": {"northeast": {"lat": 1.327502780291502, "lng": 103.9034234802915}, "southwest": {"lat": 1.324804819708498, "lng": 103.9007255197085}}}, "place_id": "ChIJH4oVWB0Y2jERopxUr3xxi68", "types": ["premise"]}