{"address_components": [{"long_name": "Block 517A", "short_name": "Block 517A", "types": ["premise"]}, {"long_name": "517A", "short_name": "517A", "types": ["street_number"]}, {"long_name": "Jurong West Street 52", "short_name": "Jurong West Street 52", "types": ["route"]}, {"long_name": "Jurong West", "short_name": "Jurong West", "types": ["neighborhood", "political"]}, {"long_name": "Singapore", "short_name": "Singapore", "types": ["locality", "political"]}, {"long_name": "Singapore", "short_name": "SG", "types": ["country", "political"]}, {"long_name": "641517", "short_name": "641517", "types": ["postal_code"]}], "formatted_address": "517A Jurong West Street 52, Block 517A, Singapore 641517", "geometry": {"bounds": {"northeast": {"lat": 1.3454797, "lng": 103.7214977}, "southwest": {"lat": 1.3450926, "lng": 103.7210367}}, "location": {"lat": 1.3452091, "lng": 103.7212941}, "location_type": "ROOFTOP", "viewport": {"northeast": {"lat": 1.346635130291502, "lng": 103.7226161802915}, "southwest": {"lat": 1.343937169708498, "lng": 103.7199182197085}}}, "place_id": "ChIJWRkob-cP2jERYDaSKw-1uR4", "types": ["premise"]}