{"address_components": [{"long_name": "Block 355", "short_name": "Block 355", "types": ["premise"]}, {"long_name": "355", "short_name": "355", "types": ["street_number"]}, {"long_name": "Tampines Street 33", "short_name": "Tampines Street 33", "types": ["route"]}, {"long_name": "Tampines", "short_name": "Tampines", "types": ["neighborhood", "political"]}, {"long_name": "Singapore", "short_name": "Singapore", "types": ["locality", "political"]}, {"long_name": "Singapore", "short_name": "SG", "types": ["country", "political"]}, {"long_name": "520355", "short_name": "520355", "types": ["postal_code"]}], "formatted_address": "355 Tampines Street 33, Block 355, Singapore 520355", "geometry": {"bounds": {"northeast": {"lat": 1.355155, "lng": 103.9617711}, "southwest": {"lat": 1.3548909, "lng": 103.961129}}, "location": {"lat": 1.3551036, "lng": 103.9614891}, "location_type": "ROOFTOP", "viewport": {"northeast": {"lat": 1.356371930291502, "lng": 103.9627990302915}, "southwest": {"lat": 1.353673969708498, "lng": 103.9601010697085}}}, "place_id": "ChIJDfMiXf082jER6WI8yQ0Q3Ok", "types": ["premise"]}