{"address_components": [{"long_name": "Block 644", "short_name": "Block 644", "types": ["premise"]}, {"long_name": "644", "short_name": "644", "types": ["street_number"]}, {"long_name": "Woodlands Ring Road", "short_name": "Woodlands Ring Rd", "types": ["route"]}, {"long_name": "Woodlands", "short_name": "Woodlands", "types": ["neighborhood", "political"]}, {"long_name": "Singapore", "short_name": "Singapore", "types": ["locality", "political"]}, {"long_name": "Singapore", "short_name": "SG", "types": ["country", "political"]}, {"long_name": "730644", "short_name": "730644", "types": ["postal_code"]}], "formatted_address": "644 Woodlands Ring Rd, Block 644, Singapore 730644", "geometry": {"bounds": {"northeast": {"lat": 1.4373236, "lng": 103.8018678}, "southwest": {"lat": 1.4366001, "lng": 103.8013595}}, "location": {"lat": 1.4371343, "lng": 103.8016574}, "location_type": "ROOFTOP", "viewport": {"northeast": {"lat": 1.438310830291502, "lng": 103.8029626302915}, "southwest": {"lat": 1.435612869708498, "lng": 103.8002646697085}}}, "place_id": "ChIJkwJy_54T2jERy1P8U9hWNVg", "types": ["premise"]}