{"address_components": [{"long_name": "Block 970", "short_name": "Block 970", "types": ["premise"]}, {"long_name": "970", "short_name": "970", "types": ["street_number"]}, {"long_name": "Hougang Street 91", "short_name": "Hougang Street 91", "types": ["route"]}, {"long_name": "Hougang", "short_name": "Hougang", "types": ["neighborhood", "political"]}, {"long_name": "Singapore", "short_name": "Singapore", "types": ["locality", "political"]}, {"long_name": "Singapore", "short_name": "SG", "types": ["country", "political"]}, {"long_name": "530970", "short_name": "530970", "types": ["postal_code"]}], "formatted_address": "970 Hougang Street 91, Block 970, Singapore 530970", "geometry": {"bounds": {"northeast": {"lat": 1.3786758, "lng": 103.8806785}, "southwest": {"lat": 1.3779727, "lng": 103.880148}}, "location": {"lat": 1.3784002, "lng": 103.8806067}, "location_type": "ROOFTOP", "viewport": {"northeast": {"lat": 1.379673230291502, "lng": 103.8817622302915}, "southwest": {"lat": 1.376975269708498, "lng": 103.8790642697085}}}, "place_id": "ChIJDRRbRUMW2jERHpJns6y-Qr4", "types": ["premise"]}