{"address_components": [{"long_name": "Block 735", "short_name": "Block 735", "types": ["premise"]}, {"long_name": "735", "short_name": "735", "types": ["street_number"]}, {"long_name": "Woodlands Circle", "short_name": "Woodlands Cir", "types": ["route"]}, {"long_name": "Woodlands", "short_name": "Woodlands", "types": ["neighborhood", "political"]}, {"long_name": "Singapore", "short_name": "Singapore", "types": ["locality", "political"]}, {"long_name": "Singapore", "short_name": "SG", "types": ["country", "political"]}, {"long_name": "730735", "short_name": "730735", "types": ["postal_code"]}], "formatted_address": "735 Woodlands Cir, Block 735, Singapore 730735", "geometry": {"bounds": {"northeast": {"lat": 1.4437541, "lng": 103.7975761}, "southwest": {"lat": 1.443208, "lng": 103.796913}}, "location": {"lat": 1.4434015, "lng": 103.7971298}, "location_type": "ROOFTOP", "viewport": {"northeast": {"lat": 1.444830030291502, "lng": 103.7985935302915}, "southwest": {"lat": 1.442132069708498, "lng": 103.7958955697085}}}, "place_id": "ChIJ_TE3QwsT2jERJEUxbDYhSE0", "types": ["premise"]}