{"address_components": [{"long_name": "Block 106", "short_name": "Block 106", "types": ["premise"]}, {"long_name": "106", "short_name": "106", "types": ["street_number"]}, {"long_name": "Bedok Reservoir Road", "short_name": "Bedok Reservoir Rd", "types": ["route"]}, {"long_name": "Bedok", "short_name": "Bedok", "types": ["neighborhood", "political"]}, {"long_name": "Singapore", "short_name": "Singapore", "types": ["locality", "political"]}, {"long_name": "Singapore", "short_name": "SG", "types": ["country", "political"]}, {"long_name": "470106", "short_name": "470106", "types": ["postal_code"]}], "formatted_address": "106 Bedok Reservoir Rd, Block 106, Singapore 470106", "geometry": {"bounds": {"northeast": {"lat": 1.3295945, "lng": 103.9098175}, "southwest": {"lat": 1.3293885, "lng": 103.9089464}}, "location": {"lat": 1.3294979, "lng": 103.9094598}, "location_type": "ROOFTOP", "viewport": {"northeast": {"lat": 1.330840480291502, "lng": 103.9107309302915}, "southwest": {"lat": 1.328142519708498, "lng": 103.9080329697085}}}, "place_id": "ChIJGYkrxv4X2jERc_bqr4ibCR4", "types": ["premise"]}