{"address_components": [{"long_name": "Block 416", "short_name": "Block 416", "types": ["premise"]}, {"long_name": "416", "short_name": "416", "types": ["street_number"]}, {"long_name": "Woodlands Street 41", "short_name": "Woodlands Street 41", "types": ["route"]}, {"long_name": "Woodlands", "short_name": "Woodlands", "types": ["neighborhood", "political"]}, {"long_name": "Singapore", "short_name": "Singapore", "types": ["locality", "political"]}, {"long_name": "Singapore", "short_name": "SG", "types": ["country", "political"]}, {"long_name": "730416", "short_name": "730416", "types": ["postal_code"]}], "formatted_address": "416 Woodlands Street 41, Block 416, Singapore 730416", "geometry": {"bounds": {"northeast": {"lat": 1.4285641, "lng": 103.7739937}, "southwest": {"lat": 1.4281859, "lng": 103.7736146}}, "location": {"lat": 1.4284977, "lng": 103.7738601}, "location_type": "ROOFTOP", "viewport": {"northeast": {"lat": 1.429723980291502, "lng": 103.7751531302915}, "southwest": {"lat": 1.427026019708498, "lng": 103.7724551697085}}}, "place_id": "ChIJ9TcNGE0S2jERguK5-VMHGC4", "types": ["premise"]}