{"address_components": [{"long_name": "Block 360A", "short_name": "Block 360A", "types": ["premise"]}, {"long_name": "360A", "short_name": "360A", "types": ["street_number"]}, {"long_name": "Admiralty Drive", "short_name": "Admiralty Dr", "types": ["route"]}, {"long_name": "Sembawang", "short_name": "Sembawang", "types": ["neighborhood", "political"]}, {"long_name": "Singapore", "short_name": "Singapore", "types": ["locality", "political"]}, {"long_name": "Singapore", "short_name": "SG", "types": ["country", "political"]}, {"long_name": "751360", "short_name": "751360", "types": ["postal_code"]}], "formatted_address": "360A Admiralty Dr, Block 360A, Singapore 751360", "geometry": {"bounds": {"northeast": {"lat": 1.4494994, "lng": 103.8160527}, "southwest": {"lat": 1.4490895, "lng": 103.8157306}}, "location": {"lat": 1.4492497, "lng": 103.8158978}, "location_type": "ROOFTOP", "viewport": {"northeast": {"lat": 1.450643430291502, "lng": 103.8172406302915}, "southwest": {"lat": 1.447945469708498, "lng": 103.8145426697085}}}, "place_id": "ChIJVSgDWGMT2jERZqzaa_CdVK4", "types": ["premise"]}