{"address_components": [{"long_name": "Block 684C", "short_name": "Block 684C", "types": ["premise"]}, {"long_name": "684C", "short_name": "684C", "types": ["street_number"]}, {"long_name": "Choa Chu Kang Crescent", "short_name": "Choa Chu Kang Cres", "types": ["route"]}, {"long_name": "Choa Chu Kang", "short_name": "Choa Chu Kang", "types": ["neighborhood", "political"]}, {"long_name": "Singapore", "short_name": "Singapore", "types": ["locality", "political"]}, {"long_name": "Singapore", "short_name": "SG", "types": ["country", "political"]}, {"long_name": "683684", "short_name": "683684", "types": ["postal_code"]}], "formatted_address": "684C Choa Chu Kang Cres, Block 684C, Singapore 683684", "geometry": {"bounds": {"northeast": {"lat": 1.4047486, "lng": 103.7474568}, "southwest": {"lat": 1.4042226, "lng": 103.7471437}}, "location": {"lat": 1.4045361, "lng": 103.747348}, "location_type": "ROOFTOP", "viewport": {"northeast": {"lat": 1.405834580291502, "lng": 103.7486492302915}, "southwest": {"lat": 1.403136619708498, "lng": 103.7459512697085}}}, "place_id": "ChIJdbc0iB4S2jEREaZBlWQlelM", "types": ["premise"]}