{"address_components": [{"long_name": "Block 836", "short_name": "Block 836", "types": ["premise"]}, {"long_name": "836", "short_name": "836", "types": ["street_number"]}, {"long_name": "Tampines Street 82", "short_name": "Tampines Street 82", "types": ["route"]}, {"long_name": "Tampines", "short_name": "Tampines", "types": ["neighborhood", "political"]}, {"long_name": "Singapore", "short_name": "Singapore", "types": ["locality", "political"]}, {"long_name": "Singapore", "short_name": "SG", "types": ["country", "political"]}, {"long_name": "520836", "short_name": "520836", "types": ["postal_code"]}], "formatted_address": "836 Tampines Street 82, Block 836, Singapore 520836", "geometry": {"bounds": {"northeast": {"lat": 1.3507936, "lng": 103.935559}, "southwest": {"lat": 1.3503642, "lng": 103.9348447}}, "location": {"lat": 1.3505729, "lng": 103.9352001}, "location_type": "ROOFTOP", "viewport": {"northeast": {"lat": 1.351927880291502, "lng": 103.9365508302915}, "southwest": {"lat": 1.349229919708498, "lng": 103.9338528697085}}}, "place_id": "ChIJz-G3jGw92jERGHx8r-0VVgw", "types": ["premise"]}