{"address_components": [{"long_name": "Block 101", "short_name": "Block 101", "types": ["premise"]}, {"long_name": "101", "short_name": "101", "types": ["street_number"]}, {"long_name": "Bukit Purmei Road", "short_name": "Bukit Purmei Rd", "types": ["route"]}, {"long_name": "Bukit Merah", "short_name": "Bukit Merah", "types": ["neighborhood", "political"]}, {"long_name": "Singapore", "short_name": "Singapore", "types": ["locality", "political"]}, {"long_name": "Singapore", "short_name": "SG", "types": ["country", "political"]}, {"long_name": "090101", "short_name": "090101", "types": ["postal_code"]}], "formatted_address": "101 Bukit Purmei Rd, Block 101, Singapore 090101", "geometry": {"bounds": {"northeast": {"lat": 1.2718574, "lng": 103.8261295}, "southwest": {"lat": 1.2714864, "lng": 103.8253597}}, "location": {"lat": 1.2715396, "lng": 103.825747}, "location_type": "ROOFTOP", "viewport": {"northeast": {"lat": 1.273020880291502, "lng": 103.8270935802915}, "southwest": {"lat": 1.270322919708498, "lng": 103.8243956197085}}}, "place_id": "ChIJJchbk2AZ2jERJS5JU9uD93E", "types": ["premise"]}