{"address_components": [{"long_name": "Block 417", "short_name": "Block 417", "types": ["premise"]}, {"long_name": "417", "short_name": "417", "types": ["street_number"]}, {"long_name": "Fajar Road", "short_name": "Fajar Rd", "types": ["route"]}, {"long_name": "Bukit Panjang", "short_name": "Bukit Panjang", "types": ["neighborhood", "political"]}, {"long_name": "Singapore", "short_name": "Singapore", "types": ["locality", "political"]}, {"long_name": "Singapore", "short_name": "SG", "types": ["country", "political"]}, {"long_name": "670417", "short_name": "670417", "types": ["postal_code"]}], "formatted_address": "417 Fajar Rd, Block 417, Singapore 670417", "geometry": {"bounds": {"northeast": {"lat": 1.384518, "lng": 103.7684243}, "southwest": {"lat": 1.3834179, "lng": 103.7677193}}, "location": {"lat": 1.3840087, "lng": 103.7680659}, "location_type": "ROOFTOP", "viewport": {"northeast": {"lat": 1.385316930291502, "lng": 103.7694207802915}, "southwest": {"lat": 1.382618969708498, "lng": 103.7667228197085}}}, "place_id": "ChIJmWp_vZgR2jER_-vLfe-1I-g", "types": ["premise"]}