{"address_components": [{"long_name": "671A", "short_name": "671A", "types": ["street_number"]}, {"long_name": "Edgefield Plains", "short_name": "Edgefield Plains", "types": ["route"]}, {"long_name": "Punggol", "short_name": "Punggol", "types": ["neighborhood", "political"]}, {"long_name": "Singapore", "short_name": "Singapore", "types": ["locality", "political"]}, {"long_name": "Singapore", "short_name": "SG", "types": ["country", "political"]}, {"long_name": "821671", "short_name": "821671", "types": ["postal_code"]}], "formatted_address": "671A Edgefield Plains, Singapore 821671", "geometry": {"bounds": {"northeast": {"lat": 1.4062563, "lng": 103.9124034}, "southwest": {"lat": 1.4059105, "lng": 103.9119074}}, "location": {"lat": 1.4060178, "lng": 103.912088}, "location_type": "ROOFTOP", "viewport": {"northeast": {"lat": 1.407432380291502, "lng": 103.9135043802915}, "southwest": {"lat": 1.404734419708498, "lng": 103.9108064197085}}}, "place_id": "ChIJyT8q0PgV2jER2BKSMCS1ibk", "types": ["establishment", "premise"]}