{"address_components": [{"long_name": "Block 275B", "short_name": "Block 275B", "types": ["premise"]}, {"long_name": "275B", "short_name": "275B", "types": ["street_number"]}, {"long_name": "Jurong West Street 25", "short_name": "Jurong West Street 25", "types": ["route"]}, {"long_name": "Jurong West", "short_name": "Jurong West", "types": ["neighborhood", "political"]}, {"long_name": "Singapore", "short_name": "Singapore", "types": ["locality", "political"]}, {"long_name": "Singapore", "short_name": "SG", "types": ["country", "political"]}, {"long_name": "642275", "short_name": "642275", "types": ["postal_code"]}], "formatted_address": "275B Jurong West Street 25, Block 275B, Singapore 642275", "geometry": {"bounds": {"northeast": {"lat": 1.353032, "lng": 103.7027159}, "southwest": {"lat": 1.352563, "lng": 103.7021241}}, "location": {"lat": 1.3527275, "lng": 103.7026275}, "location_type": "ROOFTOP", "viewport": {"northeast": {"lat": 1.354146480291502, "lng": 103.7037689802915}, "southwest": {"lat": 1.351448519708498, "lng": 103.7010710197085}}}, "place_id": "ChIJZ0cXBLkP2jERBjsfqzPzx4Q", "types": ["premise"]}