{"address_components": [{"long_name": "Block 154", "short_name": "Block 154", "types": ["premise"]}, {"long_name": "154", "short_name": "154", "types": ["street_number"]}, {"long_name": "Woodlands Street 13", "short_name": "Woodlands Street 13", "types": ["route"]}, {"long_name": "Woodlands", "short_name": "Woodlands", "types": ["neighborhood", "political"]}, {"long_name": "Singapore", "short_name": "Singapore", "types": ["locality", "political"]}, {"long_name": "Singapore", "short_name": "SG", "types": ["country", "political"]}, {"long_name": "730154", "short_name": "730154", "types": ["postal_code"]}], "formatted_address": "154 Woodlands Street 13, Block 154, Singapore 730154", "geometry": {"bounds": {"northeast": {"lat": 1.4350291, "lng": 103.775777}, "southwest": {"lat": 1.434353, "lng": 103.775075}}, "location": {"lat": 1.4347268, "lng": 103.7753992}, "location_type": "ROOFTOP", "viewport": {"northeast": {"lat": 1.436040030291502, "lng": 103.7767749802915}, "southwest": {"lat": 1.433342069708498, "lng": 103.7740770197085}}}, "place_id": "ChIJAxz-qqwT2jEReDS9xVU3lwc", "types": ["premise"]}