{"address_components": [{"long_name": "Block 118B", "short_name": "Block 118B", "types": ["premise"]}, {"long_name": "118B", "short_name": "118B", "types": ["street_number"]}, {"long_name": "Jalan Membina", "short_name": "Jln Membina", "types": ["route"]}, {"long_name": "Bukit Merah", "short_name": "Bukit Merah", "types": ["neighborhood", "political"]}, {"long_name": "Singapore", "short_name": "Singapore", "types": ["locality", "political"]}, {"long_name": "Singapore", "short_name": "SG", "types": ["country", "political"]}, {"long_name": "162118", "short_name": "162118", "types": ["postal_code"]}], "formatted_address": "118B Jln Membina, Block 118B, Singapore 162118", "geometry": {"bounds": {"northeast": {"lat": 1.2821693, "lng": 103.8262924}, "southwest": {"lat": 1.2817684, "lng": 103.8259256}}, "location": {"lat": 1.2820389, "lng": 103.8260912}, "location_type": "ROOFTOP", "viewport": {"northeast": {"lat": 1.283317830291502, "lng": 103.8274579802915}, "southwest": {"lat": 1.280619869708498, "lng": 103.8247600197085}}}, "place_id": "ChIJkQ299HwZ2jERT9hrPOnolc0", "types": ["premise"]}