{"address_components": [{"long_name": "Block 147", "short_name": "Block 147", "types": ["premise"]}, {"long_name": "147", "short_name": "147", "types": ["street_number"]}, {"long_name": "Bedok Reservoir Road", "short_name": "Bedok Reservoir Rd", "types": ["route"]}, {"long_name": "Bedok", "short_name": "Bedok", "types": ["neighborhood", "political"]}, {"long_name": "Singapore", "short_name": "Singapore", "types": ["locality", "political"]}, {"long_name": "Singapore", "short_name": "SG", "types": ["country", "political"]}, {"long_name": "470147", "short_name": "470147", "types": ["postal_code"]}], "formatted_address": "147 Bedok Reservoir Rd, Block 147, Singapore 470147", "geometry": {"bounds": {"northeast": {"lat": 1.335227, "lng": 103.9122423}, "southwest": {"lat": 1.334596, "lng": 103.9114381}}, "location": {"lat": 1.3349004, "lng": 103.9116349}, "location_type": "ROOFTOP", "viewport": {"northeast": {"lat": 1.336260480291502, "lng": 103.9131891802915}, "southwest": {"lat": 1.333562519708498, "lng": 103.9104912197085}}}, "place_id": "ChIJz3RrJv0X2jERqlhLXuBnKjM", "types": ["premise"]}