{"address_components": [{"long_name": "Block 503C", "short_name": "Block 503C", "types": ["premise"]}, {"long_name": "503C", "short_name": "503C", "types": ["street_number"]}, {"long_name": "Canberra Link", "short_name": "Canberra Link", "types": ["route"]}, {"long_name": "Sembawang", "short_name": "Sembawang", "types": ["neighborhood", "political"]}, {"long_name": "Singapore", "short_name": "Singapore", "types": ["locality", "political"]}, {"long_name": "Singapore", "short_name": "SG", "types": ["country", "political"]}, {"long_name": "753503", "short_name": "753503", "types": ["postal_code"]}], "formatted_address": "503C Canberra Link, Block 503C, Singapore 753503", "geometry": {"bounds": {"northeast": {"lat": 1.4508383, "lng": 103.8230834}, "southwest": {"lat": 1.4503796, "lng": 103.8222911}}, "location": {"lat": 1.4505841, "lng": 103.8226676}, "location_type": "ROOFTOP", "viewport": {"northeast": {"lat": 1.451957930291502, "lng": 103.8240362302915}, "southwest": {"lat": 1.449259969708498, "lng": 103.8213382697085}}}, "place_id": "ChIJefslcZ0U2jER85dy82jQj2g", "types": ["premise"]}