{"address_components": [{"long_name": "Block 637", "short_name": "Block 637", "types": ["premise"]}, {"long_name": "637", "short_name": "637", "types": ["street_number"]}, {"long_name": "Veerasamy Road", "short_name": "Veerasamy Rd", "types": ["route"]}, {"long_name": "Rochor", "short_name": "Rochor", "types": ["neighborhood", "political"]}, {"long_name": "Singapore", "short_name": "Singapore", "types": ["locality", "political"]}, {"long_name": "Singapore", "short_name": "SG", "types": ["country", "political"]}, {"long_name": "200637", "short_name": "200637", "types": ["postal_code"]}], "formatted_address": "637 Veerasamy Rd, Block 637, Singapore 200637", "geometry": {"bounds": {"northeast": {"lat": 1.3072873, "lng": 103.8559353}, "southwest": {"lat": 1.3066589, "lng": 103.8553263}}, "location": {"lat": 1.3069042, "lng": 103.8557291}, "location_type": "ROOFTOP", "viewport": {"northeast": {"lat": 1.308322080291502, "lng": 103.8569797802915}, "southwest": {"lat": 1.305624119708498, "lng": 103.8542818197085}}}, "place_id": "ChIJh9OHELgZ2jERQUdvNDEZzng", "types": ["premise"]}