{"address_components": [{"long_name": "35", "short_name": "35", "types": ["street_number"]}, {"long_name": "Circuit Road", "short_name": "Circuit Rd", "types": ["route"]}, {"long_name": "Geylang", "short_name": "Geylang", "types": ["neighborhood", "political"]}, {"long_name": "Singapore", "short_name": "Singapore", "types": ["locality", "political"]}, {"long_name": "Singapore", "short_name": "SG", "types": ["country", "political"]}, {"long_name": "370035", "short_name": "370035", "types": ["postal_code"]}], "formatted_address": "35 Circuit Rd, Singapore 370035", "geometry": {"bounds": {"northeast": {"lat": 1.329319, "lng": 103.8862889}, "southwest": {"lat": 1.3289886, "lng": 103.8856328}}, "location": {"lat": 1.3291935, "lng": 103.8859897}, "location_type": "ROOFTOP", "viewport": {"northeast": {"lat": 1.330502780291502, "lng": 103.8873098302915}, "southwest": {"lat": 1.327804819708498, "lng": 103.8846118697085}}}, "place_id": "ChIJhYFs0IsX2jERXesYRe4kZpk", "types": ["premise"]}