{"address_components": [{"long_name": "Block 844", "short_name": "Block 844", "types": ["premise"]}, {"long_name": "844", "short_name": "844", "types": ["street_number"]}, {"long_name": "Woodlands Avenue 4", "short_name": "Woodlands Ave 4", "types": ["route"]}, {"long_name": "Woodlands", "short_name": "Woodlands", "types": ["neighborhood", "political"]}, {"long_name": "Singapore", "short_name": "Singapore", "types": ["locality", "political"]}, {"long_name": "Singapore", "short_name": "SG", "types": ["country", "political"]}, {"long_name": "730844", "short_name": "730844", "types": ["postal_code"]}], "formatted_address": "844 Woodlands Ave 4, Block 844, Singapore 730844", "geometry": {"bounds": {"northeast": {"lat": 1.4439789, "lng": 103.793394}, "southwest": {"lat": 1.4436381, "lng": 103.7928979}}, "location": {"lat": 1.4439215, "lng": 103.7931682}, "location_type": "ROOFTOP", "viewport": {"northeast": {"lat": 1.445157480291502, "lng": 103.7944949302915}, "southwest": {"lat": 1.442459519708498, "lng": 103.7917969697085}}}, "place_id": "ChIJE6fQ-wsT2jERSiPr466SNq8", "types": ["premise"]}