{"address_components": [{"long_name": "Block 435", "short_name": "Block 435", "types": ["premise"]}, {"long_name": "435", "short_name": "435", "types": ["street_number"]}, {"long_name": "Jurong West Street 42", "short_name": "Jurong West Street 42", "types": ["route"]}, {"long_name": "Jurong West", "short_name": "Jurong West", "types": ["neighborhood", "political"]}, {"long_name": "Singapore", "short_name": "Singapore", "types": ["locality", "political"]}, {"long_name": "Singapore", "short_name": "SG", "types": ["country", "political"]}, {"long_name": "640435", "short_name": "640435", "types": ["postal_code"]}], "formatted_address": "435 Jurong West Street 42, Block 435, Singapore 640435", "geometry": {"bounds": {"northeast": {"lat": 1.3524217, "lng": 103.7239051}, "southwest": {"lat": 1.3520956, "lng": 103.7234123}}, "location": {"lat": 1.352167, "lng": 103.7236222}, "location_type": "ROOFTOP", "viewport": {"northeast": {"lat": 1.353607630291502, "lng": 103.7250076802915}, "southwest": {"lat": 1.350909669708498, "lng": 103.7223097197085}}}, "place_id": "ChIJyzQ1ZNkP2jERN0J60JUduBU", "types": ["premise"]}