{"address_components": [{"long_name": "Block 141", "short_name": "Block 141", "types": ["premise"]}, {"long_name": "141", "short_name": "141", "types": ["street_number"]}, {"long_name": "Pasir Ris Street 11", "short_name": "Pasir Ris Street 11", "types": ["route"]}, {"long_name": "Pasir Ris", "short_name": "Pasir Ris", "types": ["neighborhood", "political"]}, {"long_name": "Singapore", "short_name": "Singapore", "types": ["locality", "political"]}, {"long_name": "Singapore", "short_name": "SG", "types": ["country", "political"]}, {"long_name": "510141", "short_name": "510141", "types": ["postal_code"]}], "formatted_address": "141 Pasir Ris Street 11, Block 141, Singapore 510141", "geometry": {"bounds": {"northeast": {"lat": 1.3643233, "lng": 103.9591005}, "southwest": {"lat": 1.3639753, "lng": 103.958612}}, "location": {"lat": 1.3641967, "lng": 103.9589506}, "location_type": "ROOFTOP", "viewport": {"northeast": {"lat": 1.365498280291502, "lng": 103.9602052302915}, "southwest": {"lat": 1.362800319708498, "lng": 103.9575072697085}}}, "place_id": "ChIJjz2Bkao92jER_KPDKkQNg4g", "types": ["premise"]}