{"address_components": [{"long_name": "Block 521", "short_name": "Block 521", "types": ["premise"]}, {"long_name": "521", "short_name": "521", "types": ["street_number"]}, {"long_name": "Serangoon North Avenue 4", "short_name": "Serangoon North Ave 4", "types": ["route"]}, {"long_name": "Serangoon", "short_name": "Serangoon", "types": ["neighborhood", "political"]}, {"long_name": "Singapore", "short_name": "Singapore", "types": ["locality", "political"]}, {"long_name": "Singapore", "short_name": "SG", "types": ["country", "political"]}, {"long_name": "550521", "short_name": "550521", "types": ["postal_code"]}], "formatted_address": "521 Serangoon North Ave 4, Block 521, Singapore 550521", "geometry": {"bounds": {"northeast": {"lat": 1.3735191, "lng": 103.8735976}, "southwest": {"lat": 1.3730882, "lng": 103.8730727}}, "location": {"lat": 1.3734462, "lng": 103.8733325}, "location_type": "ROOFTOP", "viewport": {"northeast": {"lat": 1.374652630291502, "lng": 103.8746841302915}, "southwest": {"lat": 1.371954669708498, "lng": 103.8719861697085}}}, "place_id": "ChIJTTLZV1cW2jERimX0QRltrYY", "types": ["premise"]}