{"address_components": [{"long_name": "Block 165", "short_name": "Block 165", "types": ["premise"]}, {"long_name": "165", "short_name": "165", "types": ["street_number"]}, {"long_name": "Tampines Street 12", "short_name": "Tampines Street 12", "types": ["route"]}, {"long_name": "Tampines", "short_name": "Tampines", "types": ["neighborhood", "political"]}, {"long_name": "Singapore", "short_name": "Singapore", "types": ["locality", "political"]}, {"long_name": "Singapore", "short_name": "SG", "types": ["country", "political"]}, {"long_name": "521165", "short_name": "521165", "types": ["postal_code"]}], "formatted_address": "165 Tampines Street 12, Block 165, Singapore 521165", "geometry": {"bounds": {"northeast": {"lat": 1.3493693, "lng": 103.9466978}, "southwest": {"lat": 1.3491434, "lng": 103.9455728}}, "location": {"lat": 1.3492644, "lng": 103.9461683}, "location_type": "ROOFTOP", "viewport": {"northeast": {"lat": 1.350605330291502, "lng": 103.9474842802915}, "southwest": {"lat": 1.347907369708498, "lng": 103.9447863197085}}}, "place_id": "ChIJ3dTu1BY92jERIi0hxv8CR-w", "types": ["premise"]}