{"address_components": [{"long_name": "Block 51", "short_name": "Block 51", "types": ["premise"]}, {"long_name": "51", "short_name": "51", "types": ["street_number"]}, {"long_name": "Strathmore Avenue", "short_name": "Strathmore Ave", "types": ["route"]}, {"long_name": "Queenstown", "short_name": "Queenstown", "types": ["neighborhood", "political"]}, {"long_name": "Singapore", "short_name": "Singapore", "types": ["locality", "political"]}, {"long_name": "Singapore", "short_name": "SG", "types": ["country", "political"]}, {"long_name": "140051", "short_name": "140051", "types": ["postal_code"]}], "formatted_address": "51 Strathmore Ave, Block 51, Singapore 140051", "geometry": {"bounds": {"northeast": {"lat": 1.293614, "lng": 103.8090241}, "southwest": {"lat": 1.293317, "lng": 103.808625}}, "location": {"lat": 1.2934517, "lng": 103.8088567}, "location_type": "ROOFTOP", "viewport": {"northeast": {"lat": 1.294814480291502, "lng": 103.8101735302915}, "southwest": {"lat": 1.292116519708498, "lng": 103.8074755697085}}}, "place_id": "ChIJsW6DFzIa2jERgA1M9toOcsk", "types": ["premise"]}