{"address_components": [{"long_name": "Block 610", "short_name": "Block 610", "types": ["premise"]}, {"long_name": "610", "short_name": "610", "types": ["street_number"]}, {"long_name": "Bedok Reservoir Road", "short_name": "Bedok Reservoir Rd", "types": ["route"]}, {"long_name": "Bedok", "short_name": "Bedok", "types": ["neighborhood", "political"]}, {"long_name": "Singapore", "short_name": "Singapore", "types": ["locality", "political"]}, {"long_name": "Singapore", "short_name": "SG", "types": ["country", "political"]}, {"long_name": "470610", "short_name": "470610", "types": ["postal_code"]}], "formatted_address": "610 Bedok Reservoir Rd, Block 610, Singapore 470610", "geometry": {"bounds": {"northeast": {"lat": 1.3311047, "lng": 103.9123756}, "southwest": {"lat": 1.3306347, "lng": 103.9120656}}, "location": {"lat": 1.3309457, "lng": 103.9121786}, "location_type": "ROOFTOP", "viewport": {"northeast": {"lat": 1.332218680291502, "lng": 103.9135695802915}, "southwest": {"lat": 1.329520719708498, "lng": 103.9108716197085}}}, "place_id": "ChIJjWz91_0X2jER35I1FaFblnQ", "types": ["premise"]}