{"address_components": [{"long_name": "Block 738", "short_name": "Block 738", "types": ["premise"]}, {"long_name": "738", "short_name": "738", "types": ["street_number"]}, {"long_name": "Pasir Ris Drive 10", "short_name": "Pasir Ris Drive 10", "types": ["route"]}, {"long_name": "Pasir Ris", "short_name": "Pasir Ris", "types": ["neighborhood", "political"]}, {"long_name": "Singapore", "short_name": "Singapore", "types": ["locality", "political"]}, {"long_name": "Singapore", "short_name": "SG", "types": ["country", "political"]}, {"long_name": "510738", "short_name": "510738", "types": ["postal_code"]}], "formatted_address": "738 Pasir Ris Drive 10, Block 738, Singapore 510738", "geometry": {"bounds": {"northeast": {"lat": 1.379298, "lng": 103.9369141}, "southwest": {"lat": 1.378771, "lng": 103.936359}}, "location": {"lat": 1.379196, "lng": 103.9366504}, "location_type": "ROOFTOP", "viewport": {"northeast": {"lat": 1.380383480291502, "lng": 103.9379855302915}, "southwest": {"lat": 1.377685519708498, "lng": 103.9352875697085}}}, "place_id": "ChIJ6WVkkZU92jERVWjIcRHGXZ0", "types": ["premise"]}