{"address_components": [{"long_name": "Block 687", "short_name": "Block 687", "types": ["premise"]}, {"long_name": "687", "short_name": "687", "types": ["street_number"]}, {"long_name": "Jurong West Central 1", "short_name": "Jurong West Central 1", "types": ["route"]}, {"long_name": "Jurong West", "short_name": "Jurong West", "types": ["neighborhood", "political"]}, {"long_name": "Singapore", "short_name": "Singapore", "types": ["locality", "political"]}, {"long_name": "Singapore", "short_name": "SG", "types": ["country", "political"]}, {"long_name": "640687", "short_name": "640687", "types": ["postal_code"]}], "formatted_address": "687 Jurong West Central 1, Block 687, Singapore 640687", "geometry": {"bounds": {"northeast": {"lat": 1.341937, "lng": 103.705996}, "southwest": {"lat": 1.341408, "lng": 103.705382}}, "location": {"lat": 1.3416104, "lng": 103.7056588}, "location_type": "ROOFTOP", "viewport": {"northeast": {"lat": 1.343021480291502, "lng": 103.7070379802915}, "southwest": {"lat": 1.340323519708498, "lng": 103.7043400197085}}}, "place_id": "ChIJTxpZq5QP2jERWh5lgkBeHog", "types": ["premise"]}