{"address_components": [{"long_name": "Block 792", "short_name": "Block 792", "types": ["premise"]}, {"long_name": "792", "short_name": "792", "types": ["street_number"]}, {"long_name": "Woodlands Avenue 6", "short_name": "Woodlands Ave 6", "types": ["route"]}, {"long_name": "Woodlands", "short_name": "Woodlands", "types": ["neighborhood", "political"]}, {"long_name": "Singapore", "short_name": "Singapore", "types": ["locality", "political"]}, {"long_name": "Singapore", "short_name": "SG", "types": ["country", "political"]}, {"long_name": "730792", "short_name": "730792", "types": ["postal_code"]}], "formatted_address": "792 Woodlands Ave 6, Block 792, Singapore 730792", "geometry": {"bounds": {"northeast": {"lat": 1.442404, "lng": 103.8025201}, "southwest": {"lat": 1.441951, "lng": 103.8019369}}, "location": {"lat": 1.4422141, "lng": 103.8021781}, "location_type": "ROOFTOP", "viewport": {"northeast": {"lat": 1.443526480291502, "lng": 103.8035774802915}, "southwest": {"lat": 1.440828519708498, "lng": 103.8008795197085}}}, "place_id": "ChIJu1-pT3QT2jER09HcSz7LfY4", "types": ["premise"]}