{"address_components": [{"long_name": "Block 164", "short_name": "Block 164", "types": ["premise"]}, {"long_name": "164", "short_name": "164", "types": ["street_number"]}, {"long_name": "Bishan Street 13", "short_name": "Bishan Street 13", "types": ["route"]}, {"long_name": "Bishan", "short_name": "Bishan", "types": ["neighborhood", "political"]}, {"long_name": "Singapore", "short_name": "Singapore", "types": ["locality", "political"]}, {"long_name": "Singapore", "short_name": "SG", "types": ["country", "political"]}, {"long_name": "570164", "short_name": "570164", "types": ["postal_code"]}], "formatted_address": "164 Bishan Street 13, Block 164, Singapore 570164", "geometry": {"bounds": {"northeast": {"lat": 1.3488398, "lng": 103.8563628}, "southwest": {"lat": 1.34838, "lng": 103.8558118}}, "location": {"lat": 1.3484712, "lng": 103.8560915}, "location_type": "ROOFTOP", "viewport": {"northeast": {"lat": 1.349958880291502, "lng": 103.8574362802915}, "southwest": {"lat": 1.347260919708498, "lng": 103.8547383197085}}}, "place_id": "ChIJM1x8dBIX2jER_qKQYuWvd-E", "types": ["premise"]}