{"address_components": [{"long_name": "Block 306", "short_name": "Block 306", "types": ["premise"]}, {"long_name": "306", "short_name": "306", "types": ["street_number"]}, {"long_name": "Shunfu Road", "short_name": "Shunfu Rd", "types": ["route"]}, {"long_name": "Bishan", "short_name": "Bishan", "types": ["neighborhood", "political"]}, {"long_name": "Singapore", "short_name": "Singapore", "types": ["locality", "political"]}, {"long_name": "Singapore", "short_name": "SG", "types": ["country", "political"]}, {"long_name": "570306", "short_name": "570306", "types": ["postal_code"]}], "formatted_address": "306 Shunfu Rd, Block 306, Singapore 570306", "geometry": {"bounds": {"northeast": {"lat": 1.350593, "lng": 103.8394989}, "southwest": {"lat": 1.3500394, "lng": 103.8391608}}, "location": {"lat": 1.350332, "lng": 103.8393366}, "location_type": "ROOFTOP", "viewport": {"northeast": {"lat": 1.351665180291502, "lng": 103.8406788302915}, "southwest": {"lat": 1.348967219708498, "lng": 103.8379808697085}}}, "place_id": "ChIJOTwyBzwX2jERxH-PGdeNDRo", "types": ["premise"]}