{"address_components": [{"long_name": "Block 10B", "short_name": "Block 10B", "types": ["premise"]}, {"long_name": "10B", "short_name": "10B", "types": ["street_number"]}, {"long_name": "Lorong 7 Toa Payoh", "short_name": "Lor 7 Toa Payoh", "types": ["route"]}, {"long_name": "Toa Payoh", "short_name": "Toa Payoh", "types": ["neighborhood", "political"]}, {"long_name": "Singapore", "short_name": "Singapore", "types": ["locality", "political"]}, {"long_name": "Singapore", "short_name": "SG", "types": ["country", "political"]}, {"long_name": "312010", "short_name": "312010", "types": ["postal_code"]}], "formatted_address": "10B Lor 7 Toa Payoh, Block 10B, Singapore 312010", "geometry": {"bounds": {"northeast": {"lat": 1.3373103, "lng": 103.858413}, "southwest": {"lat": 1.3370424, "lng": 103.8581679}}, "location": {"lat": 1.3372225, "lng": 103.8583157}, "location_type": "ROOFTOP", "viewport": {"northeast": {"lat": 1.338525330291502, "lng": 103.8596394302915}, "southwest": {"lat": 1.335827369708498, "lng": 103.8569414697085}}}, "place_id": "ChIJh2rPQ3AX2jER40Q9mg7vAig", "types": ["premise"]}