{"address_components": [{"long_name": "Block 427", "short_name": "Block 427", "types": ["premise"]}, {"long_name": "427", "short_name": "427", "types": ["street_number"]}, {"long_name": "Serangoon Central", "short_name": "Serangoon Central", "types": ["route"]}, {"long_name": "Serangoon", "short_name": "Serangoon", "types": ["neighborhood", "political"]}, {"long_name": "Singapore", "short_name": "Singapore", "types": ["locality", "political"]}, {"long_name": "Singapore", "short_name": "SG", "types": ["country", "political"]}, {"long_name": "550427", "short_name": "550427", "types": ["postal_code"]}], "formatted_address": "427 Serangoon Central, Block 427, Singapore 550427", "geometry": {"bounds": {"northeast": {"lat": 1.3482401, "lng": 103.8754843}, "southwest": {"lat": 1.3476873, "lng": 103.8749508}}, "location": {"lat": 1.3478539, "lng": 103.8751112}, "location_type": "ROOFTOP", "viewport": {"northeast": {"lat": 1.349312680291502, "lng": 103.8765665302915}, "southwest": {"lat": 1.346614719708498, "lng": 103.8738685697085}}}, "place_id": "ChIJY6VzyKMX2jERJz4qAJK_nk4", "types": ["premise"]}