{"address_components": [{"long_name": "Block 744", "short_name": "Block 744", "types": ["premise"]}, {"long_name": "744", "short_name": "744", "types": ["street_number"]}, {"long_name": "Pasir Ris Street 71", "short_name": "Pasir Ris Street 71", "types": ["route"]}, {"long_name": "Pasir Ris", "short_name": "Pasir Ris", "types": ["neighborhood", "political"]}, {"long_name": "Singapore", "short_name": "Singapore", "types": ["locality", "political"]}, {"long_name": "Singapore", "short_name": "SG", "types": ["country", "political"]}, {"long_name": "510744", "short_name": "510744", "types": ["postal_code"]}], "formatted_address": "744 Pasir Ris Street 71, Block 744, Singapore 510744", "geometry": {"bounds": {"northeast": {"lat": 1.3778664, "lng": 103.9353358}, "southwest": {"lat": 1.3774604, "lng": 103.9350357}}, "location": {"lat": 1.3776116, "lng": 103.9351774}, "location_type": "ROOFTOP", "viewport": {"northeast": {"lat": 1.379012380291502, "lng": 103.9365347302915}, "southwest": {"lat": 1.376314419708498, "lng": 103.9338367697085}}}, "place_id": "ChIJ8zsN1pU92jER1xwzfmGdWCw", "types": ["premise"]}