{"address_components": [{"long_name": "Block 130", "short_name": "Block 130", "types": ["premise"]}, {"long_name": "130", "short_name": "130", "types": ["street_number"]}, {"long_name": "Choa Chu Kang Avenue 1", "short_name": "Choa Chu Kang Ave 1", "types": ["route"]}, {"long_name": "Choa Chu Kang", "short_name": "Choa Chu Kang", "types": ["neighborhood", "political"]}, {"long_name": "Singapore", "short_name": "Singapore", "types": ["locality", "political"]}, {"long_name": "Singapore", "short_name": "SG", "types": ["country", "political"]}, {"long_name": "680130", "short_name": "680130", "types": ["postal_code"]}], "formatted_address": "130 Choa Chu Kang Ave 1, Block 130, Singapore 680130", "geometry": {"bounds": {"northeast": {"lat": 1.3818906, "lng": 103.7506474}, "southwest": {"lat": 1.3811836, "lng": 103.750056}}, "location": {"lat": 1.3814737, "lng": 103.7504134}, "location_type": "ROOFTOP", "viewport": {"northeast": {"lat": 1.382886080291502, "lng": 103.7517006802915}, "southwest": {"lat": 1.380188119708498, "lng": 103.7490027197085}}}, "place_id": "ChIJhbujXMAR2jERCYjGQhgLr-E", "types": ["premise"]}