{"address_components": [{"long_name": "327A", "short_name": "327A", "types": ["street_number"]}, {"long_name": "Anchorvale Road", "short_name": "Anchorvale Rd", "types": ["route"]}, {"long_name": "Sengkang", "short_name": "Sengkang", "types": ["neighborhood", "political"]}, {"long_name": "Singapore", "short_name": "Singapore", "types": ["locality", "political"]}, {"long_name": "Singapore", "short_name": "SG", "types": ["country", "political"]}, {"long_name": "540327", "short_name": "540327", "types": ["postal_code"]}], "formatted_address": "327A Anchorvale Rd, Singapore 540327", "geometry": {"bounds": {"northeast": {"lat": 1.3954726, "lng": 103.8889325}, "southwest": {"lat": 1.3951616, "lng": 103.8885242}}, "location": {"lat": 1.3953106, "lng": 103.888708}, "location_type": "ROOFTOP", "viewport": {"northeast": {"lat": 1.396666080291502, "lng": 103.8900773302915}, "southwest": {"lat": 1.393968119708498, "lng": 103.8873793697085}}}, "place_id": "ChIJYanyDHMW2jERrn-Y3BLCSMo", "types": ["establishment", "premise"]}