{"address_components": [{"long_name": "Block 135", "short_name": "Block 135", "types": ["premise"]}, {"long_name": "135", "short_name": "135", "types": ["street_number"]}, {"long_name": "Bedok Reservoir Road", "short_name": "Bedok Reservoir Rd", "types": ["route"]}, {"long_name": "Bedok", "short_name": "Bedok", "types": ["neighborhood", "political"]}, {"long_name": "Singapore", "short_name": "Singapore", "types": ["locality", "political"]}, {"long_name": "Singapore", "short_name": "SG", "types": ["country", "political"]}, {"long_name": "470135", "short_name": "470135", "types": ["postal_code"]}], "formatted_address": "135 Bedok Reservoir Rd, Block 135, Singapore 470135", "geometry": {"bounds": {"northeast": {"lat": 1.3334428, "lng": 103.9128121}, "southwest": {"lat": 1.3329979, "lng": 103.91207}}, "location": {"lat": 1.3331404, "lng": 103.9122693}, "location_type": "ROOFTOP", "viewport": {"northeast": {"lat": 1.334569330291502, "lng": 103.9137900302915}, "southwest": {"lat": 1.331871369708498, "lng": 103.9110920697085}}}, "place_id": "ChIJDapZp_0X2jERZdNC524vFWM", "types": ["premise"]}