{"address_components": [{"long_name": "Block 350", "short_name": "Block 350", "types": ["premise"]}, {"long_name": "350", "short_name": "350", "types": ["street_number"]}, {"long_name": "Clementi Avenue 2", "short_name": "Clementi Ave 2", "types": ["route"]}, {"long_name": "Clementi", "short_name": "Clementi", "types": ["neighborhood", "political"]}, {"long_name": "Singapore", "short_name": "Singapore", "types": ["locality", "political"]}, {"long_name": "Singapore", "short_name": "SG", "types": ["country", "political"]}, {"long_name": "120350", "short_name": "120350", "types": ["postal_code"]}], "formatted_address": "350 Clementi Ave 2, Block 350, Singapore 120350", "geometry": {"bounds": {"northeast": {"lat": 1.315922, "lng": 103.7705528}, "southwest": {"lat": 1.3153531, "lng": 103.7698362}}, "location": {"lat": 1.3156443, "lng": 103.7702386}, "location_type": "ROOFTOP", "viewport": {"northeast": {"lat": 1.316986530291502, "lng": 103.7715434802915}, "southwest": {"lat": 1.314288569708498, "lng": 103.7688455197085}}}, "place_id": "ChIJwTCe0Iga2jERUIBrXe93NtQ", "types": ["premise"]}