{"address_components": [{"long_name": "Block 824", "short_name": "Block 824", "types": ["premise"]}, {"long_name": "824", "short_name": "824", "types": ["street_number"]}, {"long_name": "Jurong West Street 81", "short_name": "Jurong West Street 81", "types": ["route"]}, {"long_name": "Jurong West", "short_name": "Jurong West", "types": ["neighborhood", "political"]}, {"long_name": "Singapore", "short_name": "Singapore", "types": ["locality", "political"]}, {"long_name": "Singapore", "short_name": "SG", "types": ["country", "political"]}, {"long_name": "640824", "short_name": "640824", "types": ["postal_code"]}], "formatted_address": "824 Jurong West Street 81, Block 824, Singapore 640824", "geometry": {"bounds": {"northeast": {"lat": 1.3466376, "lng": 103.6947047}, "southwest": {"lat": 1.3463089, "lng": 103.6936806}}, "location": {"lat": 1.3465198, "lng": 103.6938984}, "location_type": "ROOFTOP", "viewport": {"northeast": {"lat": 1.347822230291502, "lng": 103.6955416302915}, "southwest": {"lat": 1.345124269708498, "lng": 103.6928436697085}}}, "place_id": "ChIJ0V1Pq6IP2jERnFZffbL6mxo", "types": ["premise"]}