{"address_components": [{"long_name": "Block 151", "short_name": "Block 151", "types": ["premise"]}, {"long_name": "151", "short_name": "151", "types": ["street_number"]}, {"long_name": "Woodlands Street 13", "short_name": "Woodlands Street 13", "types": ["route"]}, {"long_name": "Woodlands", "short_name": "Woodlands", "types": ["neighborhood", "political"]}, {"long_name": "Singapore", "short_name": "Singapore", "types": ["locality", "political"]}, {"long_name": "Singapore", "short_name": "SG", "types": ["country", "political"]}, {"long_name": "730151", "short_name": "730151", "types": ["postal_code"]}], "formatted_address": "151 Woodlands Street 13, Block 151, Singapore 730151", "geometry": {"bounds": {"northeast": {"lat": 1.4355164, "lng": 103.774622}, "southwest": {"lat": 1.4353341, "lng": 103.7737695}}, "location": {"lat": 1.4353947, "lng": 103.7742222}, "location_type": "ROOFTOP", "viewport": {"northeast": {"lat": 1.436774230291502, "lng": 103.7755447302915}, "southwest": {"lat": 1.434076269708498, "lng": 103.7728467697085}}}, "place_id": "ChIJE9pUu1QS2jERLVfa-uADbsQ", "types": ["premise"]}