{"address_components": [{"long_name": "Block 926", "short_name": "Block 926", "types": ["premise"]}, {"long_name": "926", "short_name": "926", "types": ["street_number"]}, {"long_name": "Jurong West Street 92", "short_name": "Jurong West Street 92", "types": ["route"]}, {"long_name": "Jurong West", "short_name": "Jurong West", "types": ["neighborhood", "political"]}, {"long_name": "Singapore", "short_name": "Singapore", "types": ["locality", "political"]}, {"long_name": "Singapore", "short_name": "SG", "types": ["country", "political"]}, {"long_name": "640926", "short_name": "640926", "types": ["postal_code"]}], "formatted_address": "926 Jurong West Street 92, Block 926, Singapore 640926", "geometry": {"bounds": {"northeast": {"lat": 1.3405958, "lng": 103.6894902}, "southwest": {"lat": 1.3403724, "lng": 103.6887648}}, "location": {"lat": 1.3404958, "lng": 103.6891455}, "location_type": "ROOFTOP", "viewport": {"northeast": {"lat": 1.341833080291502, "lng": 103.6904764802915}, "southwest": {"lat": 1.339135119708498, "lng": 103.6877785197085}}}, "place_id": "ChIJNebq7ZsP2jERIeW07q9kWso", "types": ["premise"]}