{"address_components": [{"long_name": "Block 269", "short_name": "Block 269", "types": ["premise"]}, {"long_name": "269", "short_name": "269", "types": ["street_number"]}, {"long_name": "Yishun Street 22", "short_name": "Yishun Street 22", "types": ["route"]}, {"long_name": "Yishun", "short_name": "Yishun", "types": ["neighborhood", "political"]}, {"long_name": "Singapore", "short_name": "Singapore", "types": ["locality", "political"]}, {"long_name": "Singapore", "short_name": "SG", "types": ["country", "political"]}, {"long_name": "760269", "short_name": "760269", "types": ["postal_code"]}], "formatted_address": "269 Yishun Street 22, Block 269, Singapore 760269", "geometry": {"bounds": {"northeast": {"lat": 1.4375266, "lng": 103.8407541}, "southwest": {"lat": 1.4368886, "lng": 103.8398312}}, "location": {"lat": 1.437116, "lng": 103.8403296}, "location_type": "ROOFTOP", "viewport": {"northeast": {"lat": 1.438556580291502, "lng": 103.8416416302915}, "southwest": {"lat": 1.435858619708498, "lng": 103.8389436697085}}}, "place_id": "ChIJHxCpmWEU2jERbG5IAK7OifI", "types": ["premise"]}