{"address_components": [{"long_name": "447A", "short_name": "447A", "types": ["street_number"]}, {"long_name": "Jalan Kayu", "short_name": "Jln Kayu", "types": ["route"]}, {"long_name": "Sengkang", "short_name": "Sengkang", "types": ["neighborhood", "political"]}, {"long_name": "Singapore", "short_name": "Singapore", "types": ["locality", "political"]}, {"long_name": "Singapore", "short_name": "SG", "types": ["country", "political"]}, {"long_name": "791447", "short_name": "791447", "types": ["postal_code"]}], "formatted_address": "447A Jln Kayu, Singapore 791447", "geometry": {"bounds": {"northeast": {"lat": 1.3923652, "lng": 103.8726735}, "southwest": {"lat": 1.3920511, "lng": 103.8723493}}, "location": {"lat": 1.3922492, "lng": 103.8725797}, "location_type": "ROOFTOP", "viewport": {"northeast": {"lat": 1.393557130291502, "lng": 103.8738603802915}, "southwest": {"lat": 1.390859169708498, "lng": 103.8711624197085}}}, "place_id": "ChIJowG2tXwW2jERxRHvcmKymSA", "types": ["premise"]}