{"address_components": [{"long_name": "Block 608", "short_name": "Block 608", "types": ["premise"]}, {"long_name": "608", "short_name": "608", "types": ["street_number"]}, {"long_name": "Jurong West Street 65", "short_name": "Jurong West Street 65", "types": ["route"]}, {"long_name": "Jurong West", "short_name": "Jurong West", "types": ["neighborhood", "political"]}, {"long_name": "Singapore", "short_name": "Singapore", "types": ["locality", "political"]}, {"long_name": "Singapore", "short_name": "SG", "types": ["country", "political"]}, {"long_name": "640608", "short_name": "640608", "types": ["postal_code"]}], "formatted_address": "608 Jurong West Street 65, Block 608, Singapore 640608", "geometry": {"bounds": {"northeast": {"lat": 1.3383914, "lng": 103.70046}, "southwest": {"lat": 1.338066, "lng": 103.7000441}}, "location": {"lat": 1.3382374, "lng": 103.7002735}, "location_type": "ROOFTOP", "viewport": {"northeast": {"lat": 1.339577680291502, "lng": 103.7016010302915}, "southwest": {"lat": 1.336879719708498, "lng": 103.6989030697085}}}, "place_id": "ChIJSW_4IJIP2jER-cm76Q447R0", "types": ["premise"]}