{"address_components": [{"long_name": "Block 108", "short_name": "Block 108", "types": ["premise"]}, {"long_name": "108", "short_name": "108", "types": ["street_number"]}, {"long_name": "Bedok North Road", "short_name": "Bedok North Rd", "types": ["route"]}, {"long_name": "Bedok", "short_name": "Bedok", "types": ["neighborhood", "political"]}, {"long_name": "Singapore", "short_name": "Singapore", "types": ["locality", "political"]}, {"long_name": "Singapore", "short_name": "SG", "types": ["country", "political"]}, {"long_name": "460108", "short_name": "460108", "types": ["postal_code"]}], "formatted_address": "108 Bedok North Rd, Block 108, Singapore 460108", "geometry": {"bounds": {"northeast": {"lat": 1.3328783, "lng": 103.9366327}, "southwest": {"lat": 1.3325691, "lng": 103.9357658}}, "location": {"lat": 1.3327098, "lng": 103.9361971}, "location_type": "ROOFTOP", "viewport": {"northeast": {"lat": 1.334072680291502, "lng": 103.9375482302915}, "southwest": {"lat": 1.331374719708498, "lng": 103.9348502697085}}}, "place_id": "ChIJBbHAtUk92jERasOq-OG5LI8", "types": ["premise"]}