{"address_components": [{"long_name": "Block 530", "short_name": "Block 530", "types": ["premise"]}, {"long_name": "530", "short_name": "530", "types": ["street_number"]}, {"long_name": "Bukit Batok Street 51", "short_name": "Bukit Batok Street 51", "types": ["route"]}, {"long_name": "Bukit Batok", "short_name": "Bukit Batok", "types": ["neighborhood", "political"]}, {"long_name": "Singapore", "short_name": "Singapore", "types": ["locality", "political"]}, {"long_name": "Singapore", "short_name": "SG", "types": ["country", "political"]}, {"long_name": "650530", "short_name": "650530", "types": ["postal_code"]}], "formatted_address": "530 Bukit Batok Street 51, Block 530, Singapore 650530", "geometry": {"bounds": {"northeast": {"lat": 1.3565197, "lng": 103.7511216}, "southwest": {"lat": 1.3557917, "lng": 103.7509716}}, "location": {"lat": 1.3561849, "lng": 103.7510471}, "location_type": "ROOFTOP", "viewport": {"northeast": {"lat": 1.357504680291502, "lng": 103.7523955802915}, "southwest": {"lat": 1.354806719708498, "lng": 103.7496976197085}}}, "place_id": "ChIJMasu6jcQ2jERf87Lz0zXMMI", "types": ["premise"]}