{"address_components": [{"long_name": "Block 452", "short_name": "Block 452", "types": ["premise"]}, {"long_name": "452", "short_name": "452", "types": ["street_number"]}, {"long_name": "Tampines Street 42", "short_name": "Tampines Street 42", "types": ["route"]}, {"long_name": "Tampines", "short_name": "Tampines", "types": ["neighborhood", "political"]}, {"long_name": "Singapore", "short_name": "Singapore", "types": ["locality", "political"]}, {"long_name": "Singapore", "short_name": "SG", "types": ["country", "political"]}, {"long_name": "520452", "short_name": "520452", "types": ["postal_code"]}], "formatted_address": "452 Tampines Street 42, Block 452, Singapore 520452", "geometry": {"bounds": {"northeast": {"lat": 1.3571363, "lng": 103.9546834}, "southwest": {"lat": 1.3565314, "lng": 103.9545474}}, "location": {"lat": 1.3568279, "lng": 103.9545991}, "location_type": "ROOFTOP", "viewport": {"northeast": {"lat": 1.358182830291502, "lng": 103.9559643802915}, "southwest": {"lat": 1.355484869708498, "lng": 103.9532664197085}}}, "place_id": "ChIJMeMvegQ92jERrVKfodtwcEM", "types": ["premise"]}