{"address_components": [{"long_name": "Block 683B", "short_name": "Block 683B", "types": ["premise"]}, {"long_name": "683B", "short_name": "683B", "types": ["street_number"]}, {"long_name": "Jurong West Central 1", "short_name": "Jurong West Central 1", "types": ["route"]}, {"long_name": "Jurong West", "short_name": "Jurong West", "types": ["neighborhood", "political"]}, {"long_name": "Singapore", "short_name": "Singapore", "types": ["locality", "political"]}, {"long_name": "Singapore", "short_name": "SG", "types": ["country", "political"]}, {"long_name": "642683", "short_name": "642683", "types": ["postal_code"]}], "formatted_address": "683B Jurong West Central 1, Block 683B, Singapore 642683", "geometry": {"bounds": {"northeast": {"lat": 1.34317, "lng": 103.705031}, "southwest": {"lat": 1.342833, "lng": 103.7046639}}, "location": {"lat": 1.34297, "lng": 103.7048897}, "location_type": "ROOFTOP", "viewport": {"northeast": {"lat": 1.344350480291502, "lng": 103.7061964302915}, "southwest": {"lat": 1.341652519708498, "lng": 103.7034984697085}}}, "place_id": "ChIJPcaqxZQP2jER_IxydTuM5aU", "types": ["premise"]}