{"address_components": [{"long_name": "Block 115", "short_name": "Block 115", "types": ["premise"]}, {"long_name": "115", "short_name": "115", "types": ["street_number"]}, {"long_name": "Bukit Purmei Road", "short_name": "Bukit Purmei Rd", "types": ["route"]}, {"long_name": "Bukit Merah", "short_name": "Bukit Merah", "types": ["neighborhood", "political"]}, {"long_name": "Singapore", "short_name": "Singapore", "types": ["locality", "political"]}, {"long_name": "Singapore", "short_name": "SG", "types": ["country", "political"]}, {"long_name": "090115", "short_name": "090115", "types": ["postal_code"]}], "formatted_address": "115 Bukit Purmei Rd, Block 115, Singapore 090115", "geometry": {"bounds": {"northeast": {"lat": 1.2756385, "lng": 103.8274605}, "southwest": {"lat": 1.2750505, "lng": 103.8265665}}, "location": {"lat": 1.2754806, "lng": 103.8269273}, "location_type": "ROOFTOP", "viewport": {"northeast": {"lat": 1.276693480291502, "lng": 103.8283624802915}, "southwest": {"lat": 1.273995519708498, "lng": 103.8256645197085}}}, "place_id": "ChIJscsG_WMZ2jERDKxL6SJOm44", "types": ["premise"]}