{"address_components": [{"long_name": "Block 516", "short_name": "Block 516", "types": ["premise"]}, {"long_name": "516", "short_name": "516", "types": ["street_number"]}, {"long_name": "Pasir Ris Street 52", "short_name": "Pasir Ris Street 52", "types": ["route"]}, {"long_name": "Pasir Ris", "short_name": "Pasir Ris", "types": ["neighborhood", "political"]}, {"long_name": "Singapore", "short_name": "Singapore", "types": ["locality", "political"]}, {"long_name": "Singapore", "short_name": "SG", "types": ["country", "political"]}, {"long_name": "510516", "short_name": "510516", "types": ["postal_code"]}], "formatted_address": "516 Pasir Ris Street 52, Block 516, Singapore 510516", "geometry": {"bounds": {"northeast": {"lat": 1.3744771, "lng": 103.9436079}, "southwest": {"lat": 1.373881, "lng": 103.942757}}, "location": {"lat": 1.3741036, "lng": 103.9430862}, "location_type": "ROOFTOP", "viewport": {"northeast": {"lat": 1.375528030291502, "lng": 103.9445314302915}, "southwest": {"lat": 1.372830069708498, "lng": 103.9418334697085}}}, "place_id": "ChIJvWQhnrw92jERecQBkuuqHN4", "types": ["premise"]}