{"address_components": [{"long_name": "Block 606", "short_name": "Block 606", "types": ["premise"]}, {"long_name": "606", "short_name": "606", "types": ["street_number"]}, {"long_name": "Bedok Reservoir Road", "short_name": "Bedok Reservoir Rd", "types": ["route"]}, {"long_name": "Bedok", "short_name": "Bedok", "types": ["neighborhood", "political"]}, {"long_name": "Singapore", "short_name": "Singapore", "types": ["locality", "political"]}, {"long_name": "Singapore", "short_name": "SG", "types": ["country", "political"]}, {"long_name": "470606", "short_name": "470606", "types": ["postal_code"]}], "formatted_address": "606 Bedok Reservoir Rd, Block 606, Singapore 470606", "geometry": {"bounds": {"northeast": {"lat": 1.331741, "lng": 103.9138803}, "southwest": {"lat": 1.331046, "lng": 103.9135644}}, "location": {"lat": 1.331668, "lng": 103.91381}, "location_type": "ROOFTOP", "viewport": {"northeast": {"lat": 1.332742480291502, "lng": 103.9150713302915}, "southwest": {"lat": 1.330044519708498, "lng": 103.9123733697085}}}, "place_id": "ChIJcYbQ-v0X2jERkMXkG7ytDUk", "types": ["premise"]}