{"address_components": [{"long_name": "Block 102", "short_name": "Block 102", "types": ["premise"]}, {"long_name": "102", "short_name": "102", "types": ["street_number"]}, {"long_name": "Bukit Batok West Avenue 6", "short_name": "Bukit Batok West Ave 6", "types": ["route"]}, {"long_name": "Bukit Batok", "short_name": "Bukit Batok", "types": ["neighborhood", "political"]}, {"long_name": "Singapore", "short_name": "Singapore", "types": ["locality", "political"]}, {"long_name": "Singapore", "short_name": "SG", "types": ["country", "political"]}, {"long_name": "650102", "short_name": "650102", "types": ["postal_code"]}], "formatted_address": "102 Bukit Batok West Ave 6, Block 102, Singapore 650102", "geometry": {"bounds": {"northeast": {"lat": 1.3478381, "lng": 103.7476419}, "southwest": {"lat": 1.3472517, "lng": 103.7470899}}, "location": {"lat": 1.3477138, "lng": 103.7475197}, "location_type": "ROOFTOP", "viewport": {"northeast": {"lat": 1.348893880291502, "lng": 103.7487148802915}, "southwest": {"lat": 1.346195919708498, "lng": 103.7460169197085}}}, "place_id": "ChIJ_aJLbz4Q2jERDWCnPYWFbEc", "types": ["premise"]}