{"address_components": [{"long_name": "Block 436", "short_name": "Block 436", "types": ["premise"]}, {"long_name": "436", "short_name": "436", "types": ["street_number"]}, {"long_name": "Tampines Street 43", "short_name": "Tampines Street 43", "types": ["route"]}, {"long_name": "Tampines", "short_name": "Tampines", "types": ["neighborhood", "political"]}, {"long_name": "Singapore", "short_name": "Singapore", "types": ["locality", "political"]}, {"long_name": "Singapore", "short_name": "SG", "types": ["country", "political"]}, {"long_name": "520436", "short_name": "520436", "types": ["postal_code"]}], "formatted_address": "436 Tampines Street 43, Block 436, Singapore 520436", "geometry": {"bounds": {"northeast": {"lat": 1.3597108, "lng": 103.9519703}, "southwest": {"lat": 1.3595286, "lng": 103.9512153}}, "location": {"lat": 1.3596274, "lng": 103.9516074}, "location_type": "ROOFTOP", "viewport": {"northeast": {"lat": 1.360968680291502, "lng": 103.9529417802915}, "southwest": {"lat": 1.358270719708498, "lng": 103.9502438197085}}}, "place_id": "ChIJufcrZAY92jERXiNlgsF8p8A", "types": ["premise"]}