{"address_components": [{"long_name": "196B", "short_name": "196B", "types": ["street_number"]}, {"long_name": "Boon Lay Drive", "short_name": "Boon Lay Dr", "types": ["route"]}, {"long_name": "Jurong West", "short_name": "Jurong West", "types": ["neighborhood", "political"]}, {"long_name": "Singapore", "short_name": "Singapore", "types": ["locality", "political"]}, {"long_name": "Singapore", "short_name": "SG", "types": ["country", "political"]}, {"long_name": "642196", "short_name": "642196", "types": ["postal_code"]}], "formatted_address": "196B Boon Lay Dr, Singapore 642196", "geometry": {"bounds": {"northeast": {"lat": 1.3431784, "lng": 103.7145104}, "southwest": {"lat": 1.3426533, "lng": 103.7137815}}, "location": {"lat": 1.34299, "lng": 103.7142104}, "location_type": "ROOFTOP", "viewport": {"northeast": {"lat": 1.344264830291502, "lng": 103.7154949302915}, "southwest": {"lat": 1.341566869708498, "lng": 103.7127969697085}}}, "place_id": "ChIJc7BjHOkP2jERwmJC6Cb6Cig", "types": ["premise"]}