{"address_components": [{"long_name": "Block 244", "short_name": "Block 244", "types": ["premise"]}, {"long_name": "244", "short_name": "244", "types": ["street_number"]}, {"long_name": "Simei Street 5", "short_name": "Simei Street 5", "types": ["route"]}, {"long_name": "Tampines", "short_name": "Tampines", "types": ["neighborhood", "political"]}, {"long_name": "Singapore", "short_name": "Singapore", "types": ["locality", "political"]}, {"long_name": "Singapore", "short_name": "SG", "types": ["country", "political"]}, {"long_name": "520244", "short_name": "520244", "types": ["postal_code"]}], "formatted_address": "244 Simei Street 5, Block 244, Singapore 520244", "geometry": {"bounds": {"northeast": {"lat": 1.3442106, "lng": 103.9548431}, "southwest": {"lat": 1.3435735, "lng": 103.954177}}, "location": {"lat": 1.343836, "lng": 103.9545537}, "location_type": "ROOFTOP", "viewport": {"northeast": {"lat": 1.345241030291502, "lng": 103.9558590302915}, "southwest": {"lat": 1.342543069708498, "lng": 103.9531610697085}}}, "place_id": "ChIJ40baGiI92jER_w-tJrb3nuQ", "types": ["premise"]}