{"address_components": [{"long_name": "Block 450", "short_name": "Block 450", "types": ["premise"]}, {"long_name": "450", "short_name": "450", "types": ["street_number"]}, {"long_name": "Pasir Ris Drive 6", "short_name": "Pasir Ris Drive 6", "types": ["route"]}, {"long_name": "Pasir Ris", "short_name": "Pasir Ris", "types": ["neighborhood", "political"]}, {"long_name": "Singapore", "short_name": "Singapore", "types": ["locality", "political"]}, {"long_name": "Singapore", "short_name": "SG", "types": ["country", "political"]}, {"long_name": "510450", "short_name": "510450", "types": ["postal_code"]}], "formatted_address": "450 Pasir Ris Drive 6, Block 450, Singapore 510450", "geometry": {"bounds": {"northeast": {"lat": 1.3713379, "lng": 103.9583419}, "southwest": {"lat": 1.3711019, "lng": 103.957716}}, "location": {"lat": 1.3711584, "lng": 103.958044}, "location_type": "ROOFTOP", "viewport": {"northeast": {"lat": 1.372568880291502, "lng": 103.9593779302915}, "southwest": {"lat": 1.369870919708498, "lng": 103.9566799697085}}}, "place_id": "ChIJq0qRCa092jERgG3sbdRdkkE", "types": ["premise"]}