{"address_components": [{"long_name": "Block 394", "short_name": "Block 394", "types": ["premise"]}, {"long_name": "394", "short_name": "394", "types": ["street_number"]}, {"long_name": "Tampines Avenue 7", "short_name": "Tampines Ave 7", "types": ["route"]}, {"long_name": "Tampines", "short_name": "Tampines", "types": ["neighborhood", "political"]}, {"long_name": "Singapore", "short_name": "Singapore", "types": ["locality", "political"]}, {"long_name": "Singapore", "short_name": "SG", "types": ["country", "political"]}, {"long_name": "520394", "short_name": "520394", "types": ["postal_code"]}], "formatted_address": "394 Tampines Ave 7, Block 394, Singapore 520394", "geometry": {"bounds": {"northeast": {"lat": 1.3553589, "lng": 103.9562671}, "southwest": {"lat": 1.355081, "lng": 103.9556711}}, "location": {"lat": 1.3551361, "lng": 103.9559589}, "location_type": "ROOFTOP", "viewport": {"northeast": {"lat": 1.356568930291502, "lng": 103.9573180802915}, "southwest": {"lat": 1.353870969708498, "lng": 103.9546201197085}}}, "place_id": "ChIJ14fqaQM92jER-DLEcuNxyK0", "types": ["premise"]}