{"address_components": [{"long_name": "Block 623", "short_name": "Block 623", "types": ["premise"]}, {"long_name": "623", "short_name": "623", "types": ["street_number"]}, {"long_name": "Bedok Reservoir Road", "short_name": "Bedok Reservoir Rd", "types": ["route"]}, {"long_name": "Bedok", "short_name": "Bedok", "types": ["neighborhood", "political"]}, {"long_name": "Singapore", "short_name": "Singapore", "types": ["locality", "political"]}, {"long_name": "Singapore", "short_name": "SG", "types": ["country", "political"]}, {"long_name": "470623", "short_name": "470623", "types": ["postal_code"]}], "formatted_address": "623 Bedok Reservoir Rd, Block 623, Singapore 470623", "geometry": {"bounds": {"northeast": {"lat": 1.33379, "lng": 103.917177}, "southwest": {"lat": 1.333498, "lng": 103.9163149}}, "location": {"lat": 1.3336266, "lng": 103.9168007}, "location_type": "ROOFTOP", "viewport": {"northeast": {"lat": 1.334992980291502, "lng": 103.9180949302915}, "southwest": {"lat": 1.332295019708498, "lng": 103.9153969697085}}}, "place_id": "ChIJnS6nr1c92jER5XYJmgJECtY", "types": ["premise"]}