{"address_components": [{"long_name": "Block 108", "short_name": "Block 108", "types": ["premise"]}, {"long_name": "108", "short_name": "108", "types": ["street_number"]}, {"long_name": "Jurong East Street 13", "short_name": "Jurong East Street 13", "types": ["route"]}, {"long_name": "Jurong East", "short_name": "Jurong East", "types": ["neighborhood", "political"]}, {"long_name": "Singapore", "short_name": "Singapore", "types": ["locality", "political"]}, {"long_name": "Singapore", "short_name": "SG", "types": ["country", "political"]}, {"long_name": "600108", "short_name": "600108", "types": ["postal_code"]}], "formatted_address": "108 Jurong East Street 13, Block 108, Singapore 600108", "geometry": {"bounds": {"northeast": {"lat": 1.3386159, "lng": 103.737442}, "southwest": {"lat": 1.338221, "lng": 103.7366821}}, "location": {"lat": 1.3382997, "lng": 103.737085}, "location_type": "ROOFTOP", "viewport": {"northeast": {"lat": 1.339767430291502, "lng": 103.7384110302915}, "southwest": {"lat": 1.337069469708498, "lng": 103.7357130697085}}}, "place_id": "ChIJFdUBBRsQ2jERhSQPENmyt2g", "types": ["premise"]}