{"address_components": [{"long_name": "Block 328", "short_name": "Block 328", "types": ["premise"]}, {"long_name": "328", "short_name": "328", "types": ["street_number"]}, {"long_name": "Sembawang Crescent", "short_name": "Sembawang Cres", "types": ["route"]}, {"long_name": "Sembawang", "short_name": "Sembawang", "types": ["neighborhood", "political"]}, {"long_name": "Singapore", "short_name": "Singapore", "types": ["locality", "political"]}, {"long_name": "Singapore", "short_name": "SG", "types": ["country", "political"]}, {"long_name": "750328", "short_name": "750328", "types": ["postal_code"]}], "formatted_address": "328 Sembawang Cres, Block 328, Singapore 750328", "geometry": {"bounds": {"northeast": {"lat": 1.4457176, "lng": 103.8196668}, "southwest": {"lat": 1.445342, "lng": 103.8192019}}, "location": {"lat": 1.445538, "lng": 103.8195883}, "location_type": "ROOFTOP", "viewport": {"northeast": {"lat": 1.446878780291502, "lng": 103.8207833302915}, "southwest": {"lat": 1.444180819708498, "lng": 103.8180853697085}}}, "place_id": "ChIJM_TpsH0T2jERTCQMWpQW0dg", "types": ["premise"]}