{"address_components": [{"long_name": "Block 474", "short_name": "Block 474", "types": ["premise"]}, {"long_name": "474", "short_name": "474", "types": ["street_number"]}, {"long_name": "Choa Chu Kang Avenue 3", "short_name": "Choa Chu Kang Ave 3", "types": ["route"]}, {"long_name": "Choa Chu Kang", "short_name": "Choa Chu Kang", "types": ["neighborhood", "political"]}, {"long_name": "Singapore", "short_name": "Singapore", "types": ["locality", "political"]}, {"long_name": "Singapore", "short_name": "SG", "types": ["country", "political"]}, {"long_name": "680474", "short_name": "680474", "types": ["postal_code"]}], "formatted_address": "474 Choa Chu Kang Ave 3, Block 474, Singapore 680474", "geometry": {"bounds": {"northeast": {"lat": 1.37899, "lng": 103.7387666}, "southwest": {"lat": 1.3784321, "lng": 103.7381223}}, "location": {"lat": 1.3787572, "lng": 103.7386464}, "location_type": "ROOFTOP", "viewport": {"northeast": {"lat": 1.380060030291502, "lng": 103.7397934302915}, "southwest": {"lat": 1.377362069708498, "lng": 103.7370954697085}}}, "place_id": "ChIJ-0eSYtsR2jERSE3pNavMuYM", "types": ["premise"]}