{"address_components": [{"long_name": "470A", "short_name": "470A", "types": ["street_number"]}, {"long_name": "Fernvale Link", "short_name": "Fernvale Link", "types": ["route"]}, {"long_name": "Sengkang", "short_name": "Sengkang", "types": ["neighborhood", "political"]}, {"long_name": "Singapore", "short_name": "Singapore", "types": ["locality", "political"]}, {"long_name": "Singapore", "short_name": "SG", "types": ["country", "political"]}, {"long_name": "791470", "short_name": "791470", "types": ["postal_code"]}], "formatted_address": "470A Fernvale Link, Singapore 791470", "geometry": {"bounds": {"northeast": {"lat": 1.396618, "lng": 103.8795743}, "southwest": {"lat": 1.39632, "lng": 103.8791218}}, "location": {"lat": 1.3963872, "lng": 103.8794633}, "location_type": "ROOFTOP", "viewport": {"northeast": {"lat": 1.397817980291502, "lng": 103.8806970302915}, "southwest": {"lat": 1.395120019708498, "lng": 103.8779990697085}}}, "place_id": "ChIJ7X8E_3kW2jERAYloB9D_g1s", "types": ["premise"]}