{"address_components": [{"long_name": "Block 528", "short_name": "Block 528", "types": ["premise"]}, {"long_name": "528", "short_name": "528", "types": ["street_number"]}, {"long_name": "Bedok North Street 3", "short_name": "Bedok North Street 3", "types": ["route"]}, {"long_name": "Bedok", "short_name": "Bedok", "types": ["neighborhood", "political"]}, {"long_name": "Singapore", "short_name": "Singapore", "types": ["locality", "political"]}, {"long_name": "Singapore", "short_name": "SG", "types": ["country", "political"]}, {"long_name": "460528", "short_name": "460528", "types": ["postal_code"]}], "formatted_address": "528 Bedok North Street 3, Block 528, Singapore 460528", "geometry": {"bounds": {"northeast": {"lat": 1.3350322, "lng": 103.9279641}, "southwest": {"lat": 1.3343354, "lng": 103.92751}}, "location": {"lat": 1.3348078, "lng": 103.9276769}, "location_type": "ROOFTOP", "viewport": {"northeast": {"lat": 1.336032780291502, "lng": 103.9290860302915}, "southwest": {"lat": 1.333334819708498, "lng": 103.9263880697085}}}, "place_id": "ChIJo5dPkk892jERpSpAhoYVMR8", "types": ["premise"]}