{"address_components": [{"long_name": "Block 645", "short_name": "Block 645", "types": ["premise"]}, {"long_name": "645", "short_name": "645", "types": ["street_number"]}, {"long_name": "Jurong West Street 61", "short_name": "Jurong West Street 61", "types": ["route"]}, {"long_name": "Jurong West", "short_name": "Jurong West", "types": ["neighborhood", "political"]}, {"long_name": "Singapore", "short_name": "Singapore", "types": ["locality", "political"]}, {"long_name": "Singapore", "short_name": "SG", "types": ["country", "political"]}, {"long_name": "640645", "short_name": "640645", "types": ["postal_code"]}], "formatted_address": "645 Jurong West Street 61, Block 645, Singapore 640645", "geometry": {"bounds": {"northeast": {"lat": 1.3394776, "lng": 103.6967803}, "southwest": {"lat": 1.3388445, "lng": 103.6961254}}, "location": {"lat": 1.3392815, "lng": 103.696565}, "location_type": "ROOFTOP", "viewport": {"northeast": {"lat": 1.340510030291502, "lng": 103.6978018302915}, "southwest": {"lat": 1.337812069708498, "lng": 103.6951038697085}}}, "place_id": "ChIJibLYV5AP2jERls9KlraN3NI", "types": ["premise"]}