{"address_components": [{"long_name": "Block 879", "short_name": "Block 879", "types": ["premise"]}, {"long_name": "879", "short_name": "879", "types": ["street_number"]}, {"long_name": "Woodlands Street 82", "short_name": "Woodlands Street 82", "types": ["route"]}, {"long_name": "Woodlands", "short_name": "Woodlands", "types": ["neighborhood", "political"]}, {"long_name": "Singapore", "short_name": "Singapore", "types": ["locality", "political"]}, {"long_name": "Singapore", "short_name": "SG", "types": ["country", "political"]}, {"long_name": "730879", "short_name": "730879", "types": ["postal_code"]}], "formatted_address": "879 Woodlands Street 82, Block 879, Singapore 730879", "geometry": {"bounds": {"northeast": {"lat": 1.445112, "lng": 103.792607}, "southwest": {"lat": 1.444752, "lng": 103.7918971}}, "location": {"lat": 1.4449182, "lng": 103.7922627}, "location_type": "ROOFTOP", "viewport": {"northeast": {"lat": 1.446280980291502, "lng": 103.7936010302915}, "southwest": {"lat": 1.443583019708498, "lng": 103.7909030697085}}}, "place_id": "ChIJeWAipA4T2jERhOnlBphCihY", "types": ["premise"]}