{"address_components": [{"long_name": "Block 864A", "short_name": "Block 864A", "types": ["premise"]}, {"long_name": "864A", "short_name": "864A", "types": ["street_number"]}, {"long_name": "Tampines Street 83", "short_name": "Tampines Street 83", "types": ["route"]}, {"long_name": "Tampines", "short_name": "Tampines", "types": ["neighborhood", "political"]}, {"long_name": "Singapore", "short_name": "Singapore", "types": ["locality", "political"]}, {"long_name": "Singapore", "short_name": "SG", "types": ["country", "political"]}, {"long_name": "521864", "short_name": "521864", "types": ["postal_code"]}], "formatted_address": "864A Tampines Street 83, Block 864A, Singapore 521864", "geometry": {"bounds": {"northeast": {"lat": 1.3548804, "lng": 103.9360416}, "southwest": {"lat": 1.3544983, "lng": 103.9354315}}, "location": {"lat": 1.3546692, "lng": 103.9357439}, "location_type": "ROOFTOP", "viewport": {"northeast": {"lat": 1.356038330291502, "lng": 103.9370855302915}, "southwest": {"lat": 1.353340369708498, "lng": 103.9343875697085}}}, "place_id": "ChIJKVsJmnI92jERyKlElGKkKAg", "types": ["premise"]}