{"address_components": [{"long_name": "Block 702", "short_name": "Block 702", "types": ["premise"]}, {"long_name": "702", "short_name": "702", "types": ["street_number"]}, {"long_name": "Choa Chu Kang Street 53", "short_name": "Choa Chu Kang Street 53", "types": ["route"]}, {"long_name": "Choa Chu Kang", "short_name": "Choa Chu Kang", "types": ["neighborhood", "political"]}, {"long_name": "Singapore", "short_name": "Singapore", "types": ["locality", "political"]}, {"long_name": "Singapore", "short_name": "SG", "types": ["country", "political"]}, {"long_name": "680702", "short_name": "680702", "types": ["postal_code"]}], "formatted_address": "702 Choa Chu Kang Street 53, Block 702, Singapore 680702", "geometry": {"bounds": {"northeast": {"lat": 1.39187, "lng": 103.7457011}, "southwest": {"lat": 1.391251, "lng": 103.745284}}, "location": {"lat": 1.3916223, "lng": 103.7453444}, "location_type": "ROOFTOP", "viewport": {"northeast": {"lat": 1.392909480291502, "lng": 103.7468415302915}, "southwest": {"lat": 1.390211519708498, "lng": 103.7441435697085}}}, "place_id": "ChIJaQlJbe4R2jERennF-7JcKAE", "types": ["premise"]}