{"address_components": [{"long_name": "Block 711", "short_name": "Block 711", "types": ["premise"]}, {"long_name": "711", "short_name": "711", "types": ["street_number"]}, {"long_name": "Bedok Reservoir Road", "short_name": "Bedok Reservoir Rd", "types": ["route"]}, {"long_name": "Bedok", "short_name": "Bedok", "types": ["neighborhood", "political"]}, {"long_name": "Singapore", "short_name": "Singapore", "types": ["locality", "political"]}, {"long_name": "Singapore", "short_name": "SG", "types": ["country", "political"]}, {"long_name": "470711", "short_name": "470711", "types": ["postal_code"]}], "formatted_address": "711 Bedok Reservoir Rd, Block 711, Singapore 470711", "geometry": {"bounds": {"northeast": {"lat": 1.33622, "lng": 103.9240759}, "southwest": {"lat": 1.335835, "lng": 103.9232269}}, "location": {"lat": 1.3360022, "lng": 103.9235982}, "location_type": "ROOFTOP", "viewport": {"northeast": {"lat": 1.337376480291502, "lng": 103.9250003802915}, "southwest": {"lat": 1.334678519708498, "lng": 103.9223024197085}}}, "place_id": "ChIJrw9_hVo92jERd7gHew73rdc", "types": ["premise"]}