{"address_components": [{"long_name": "Block 142", "short_name": "Block 142", "types": ["premise"]}, {"long_name": "142", "short_name": "142", "types": ["street_number"]}, {"long_name": "Bedok Reservoir Road", "short_name": "Bedok Reservoir Rd", "types": ["route"]}, {"long_name": "Bedok", "short_name": "Bedok", "types": ["neighborhood", "political"]}, {"long_name": "Singapore", "short_name": "Singapore", "types": ["locality", "political"]}, {"long_name": "Singapore", "short_name": "SG", "types": ["country", "political"]}, {"long_name": "470142", "short_name": "470142", "types": ["postal_code"]}], "formatted_address": "142 Bedok Reservoir Rd, Block 142, Singapore 470142", "geometry": {"bounds": {"northeast": {"lat": 1.3359106, "lng": 103.9137143}, "southwest": {"lat": 1.3354342, "lng": 103.9127542}}, "location": {"lat": 1.3357141, "lng": 103.9132888}, "location_type": "ROOFTOP", "viewport": {"northeast": {"lat": 1.337021380291502, "lng": 103.9145832302915}, "southwest": {"lat": 1.334323419708498, "lng": 103.9118852697085}}}, "place_id": "ChIJey-StOIX2jERd-riygZx3dM", "types": ["premise"]}