{"address_components": [{"long_name": "Block 326", "short_name": "Block 326", "types": ["premise"]}, {"long_name": "326", "short_name": "326", "types": ["street_number"]}, {"long_name": "Ang Mo Kio Avenue 3", "short_name": "Ang Mo Kio Ave 3", "types": ["route"]}, {"long_name": "Ang Mo Kio", "short_name": "Ang Mo Kio", "types": ["neighborhood", "political"]}, {"long_name": "Singapore", "short_name": "Singapore", "types": ["locality", "political"]}, {"long_name": "Singapore", "short_name": "SG", "types": ["country", "political"]}, {"long_name": "560326", "short_name": "560326", "types": ["postal_code"]}], "formatted_address": "326 Ang Mo Kio Ave 3, Block 326, Singapore 560326", "geometry": {"bounds": {"northeast": {"lat": 1.3671051, "lng": 103.8482898}, "southwest": {"lat": 1.3669746, "lng": 103.8474519}}, "location": {"lat": 1.3670491, "lng": 103.847848}, "location_type": "ROOFTOP", "viewport": {"northeast": {"lat": 1.368388830291502, "lng": 103.8492198302915}, "southwest": {"lat": 1.365690869708498, "lng": 103.8465218697085}}}, "place_id": "ChIJydOnHeEW2jERkn3YyZOPAEU", "types": ["premise"]}