{"address_components": [{"long_name": "Block 686B", "short_name": "Block 686B", "types": ["premise"]}, {"long_name": "686B", "short_name": "686B", "types": ["street_number"]}, {"long_name": "Woodlands Drive 73", "short_name": "Woodlands Drive 73", "types": ["route"]}, {"long_name": "Woodlands", "short_name": "Woodlands", "types": ["neighborhood", "political"]}, {"long_name": "Singapore", "short_name": "Singapore", "types": ["locality", "political"]}, {"long_name": "Singapore", "short_name": "SG", "types": ["country", "political"]}, {"long_name": "732686", "short_name": "732686", "types": ["postal_code"]}], "formatted_address": "686B Woodlands Drive 73, Block 686B, Singapore 732686", "geometry": {"bounds": {"northeast": {"lat": 1.4427394, "lng": 103.8065818}, "southwest": {"lat": 1.4423277, "lng": 103.8057965}}, "location": {"lat": 1.4426114, "lng": 103.8061852}, "location_type": "ROOFTOP", "viewport": {"northeast": {"lat": 1.443882530291502, "lng": 103.8075381302915}, "southwest": {"lat": 1.441184569708498, "lng": 103.8048401697085}}}, "place_id": "ChIJMTPV6HYT2jERKwUP9UaKELM", "types": ["premise"]}