{"address_components": [{"long_name": "54", "short_name": "54", "types": ["street_number"]}, {"long_name": "Havelock Road", "short_name": "Havelock Rd", "types": ["route"]}, {"long_name": "Bukit Merah", "short_name": "Bukit Merah", "types": ["neighborhood", "political"]}, {"long_name": "Singapore", "short_name": "Singapore", "types": ["locality", "political"]}, {"long_name": "Singapore", "short_name": "SG", "types": ["country", "political"]}, {"long_name": "161054", "short_name": "161054", "types": ["postal_code"]}], "formatted_address": "54 Havelock Rd, Singapore 161054", "geometry": {"bounds": {"northeast": {"lat": 1.2894821, "lng": 103.8293781}, "southwest": {"lat": 1.2892017, "lng": 103.829072}}, "location": {"lat": 1.2893349, "lng": 103.8292114}, "location_type": "ROOFTOP", "viewport": {"northeast": {"lat": 1.290690880291502, "lng": 103.8305740302915}, "southwest": {"lat": 1.287992919708498, "lng": 103.8278760697085}}}, "place_id": "ChIJOfsidIIZ2jERzjc_sSU7288", "types": ["premise"]}