{"address_components": [{"long_name": "Block 203", "short_name": "Block 203", "types": ["premise"]}, {"long_name": "203", "short_name": "203", "types": ["street_number"]}, {"long_name": "Petir Road", "short_name": "Petir Rd", "types": ["route"]}, {"long_name": "Bukit Panjang", "short_name": "Bukit Panjang", "types": ["neighborhood", "political"]}, {"long_name": "Singapore", "short_name": "Singapore", "types": ["locality", "political"]}, {"long_name": "Singapore", "short_name": "SG", "types": ["country", "political"]}, {"long_name": "670203", "short_name": "670203", "types": ["postal_code"]}], "formatted_address": "203 Petir Rd, Block 203, Singapore 670203", "geometry": {"bounds": {"northeast": {"lat": 1.3734942, "lng": 103.77582}, "southwest": {"lat": 1.3721855, "lng": 103.7753533}}, "location": {"lat": 1.3728221, "lng": 103.7756708}, "location_type": "ROOFTOP", "viewport": {"northeast": {"lat": 1.374188830291502, "lng": 103.7769356302915}, "southwest": {"lat": 1.371490869708498, "lng": 103.7742376697085}}}, "place_id": "ChIJXwVC9AcR2jERxYPNLvkP6Oc", "types": ["premise"]}