{"address_components": [{"long_name": "Block 316", "short_name": "Block 316", "types": ["premise"]}, {"long_name": "316", "short_name": "316", "types": ["street_number"]}, {"long_name": "Bukit Batok Street 32", "short_name": "Bukit Batok Street 32", "types": ["route"]}, {"long_name": "Bukit Batok", "short_name": "Bukit Batok", "types": ["neighborhood", "political"]}, {"long_name": "Singapore", "short_name": "Singapore", "types": ["locality", "political"]}, {"long_name": "Singapore", "short_name": "SG", "types": ["country", "political"]}, {"long_name": "650316", "short_name": "650316", "types": ["postal_code"]}], "formatted_address": "316 Bukit Batok Street 32, Block 316, Singapore 650316", "geometry": {"bounds": {"northeast": {"lat": 1.3606801, "lng": 103.7475135}, "southwest": {"lat": 1.3605551, "lng": 103.7465757}}, "location": {"lat": 1.3606049, "lng": 103.7469737}, "location_type": "ROOFTOP", "viewport": {"northeast": {"lat": 1.361966580291502, "lng": 103.7483935802915}, "southwest": {"lat": 1.359268619708498, "lng": 103.7456956197085}}}, "place_id": "ChIJN8UiEDQQ2jER9hTU7qrX-Zg", "types": ["premise"]}