{"address_components": [{"long_name": "Block 272D", "short_name": "Block 272D", "types": ["premise"]}, {"long_name": "272D", "short_name": "272D", "types": ["street_number"]}, {"long_name": "Jurong West Street 24", "short_name": "Jurong West Street 24", "types": ["route"]}, {"long_name": "Jurong West", "short_name": "Jurong West", "types": ["neighborhood", "political"]}, {"long_name": "Singapore", "short_name": "Singapore", "types": ["locality", "political"]}, {"long_name": "Singapore", "short_name": "SG", "types": ["country", "political"]}, {"long_name": "644272", "short_name": "644272", "types": ["postal_code"]}], "formatted_address": "272D Jurong West Street 24, Block 272D, Singapore 644272", "geometry": {"bounds": {"northeast": {"lat": 1.3513918, "lng": 103.7046913}, "southwest": {"lat": 1.3509898, "lng": 103.7043253}}, "location": {"lat": 1.3511113, "lng": 103.7045311}, "location_type": "ROOFTOP", "viewport": {"northeast": {"lat": 1.352539780291502, "lng": 103.7058572802915}, "southwest": {"lat": 1.349841819708498, "lng": 103.7031593197085}}}, "place_id": "ChIJ3Yn5trgP2jER8LqT57_6Kag", "types": ["premise"]}