{"address_components": [{"long_name": "Block 5", "short_name": "Block 5", "types": ["premise"]}, {"long_name": "5", "short_name": "5", "types": ["street_number"]}, {"long_name": "Delta Avenue", "short_name": "Delta Ave", "types": ["route"]}, {"long_name": "Bukit Merah", "short_name": "Bukit Merah", "types": ["neighborhood", "political"]}, {"long_name": "Singapore", "short_name": "Singapore", "types": ["locality", "political"]}, {"long_name": "Singapore", "short_name": "SG", "types": ["country", "political"]}, {"long_name": "160005", "short_name": "160005", "types": ["postal_code"]}], "formatted_address": "5 Delta Ave, Block 5, Singapore 160005", "geometry": {"bounds": {"northeast": {"lat": 1.2923883, "lng": 103.8281762}, "southwest": {"lat": 1.2922233, "lng": 103.8270303}}, "location": {"lat": 1.292287, "lng": 103.827649}, "location_type": "ROOFTOP", "viewport": {"northeast": {"lat": 1.293654780291502, "lng": 103.8289522302915}, "southwest": {"lat": 1.290956819708498, "lng": 103.8262542697085}}}, "place_id": "ChIJD0SN2IMZ2jERaDYnEdW1f2o", "types": ["premise"]}