{"address_components": [{"long_name": "Block 250", "short_name": "Block 250", "types": ["premise"]}, {"long_name": "250", "short_name": "250", "types": ["street_number"]}, {"long_name": "Yishun Avenue 9", "short_name": "Yishun Ave 9", "types": ["route"]}, {"long_name": "Yishun", "short_name": "Yishun", "types": ["neighborhood", "political"]}, {"long_name": "Singapore", "short_name": "Singapore", "types": ["locality", "political"]}, {"long_name": "Singapore", "short_name": "SG", "types": ["country", "political"]}, {"long_name": "760250", "short_name": "760250", "types": ["postal_code"]}], "formatted_address": "250 Yishun Ave 9, Block 250, Singapore 760250", "geometry": {"bounds": {"northeast": {"lat": 1.436023, "lng": 103.842105}, "southwest": {"lat": 1.435163, "lng": 103.841069}}, "location": {"lat": 1.4355122, "lng": 103.8415751}, "location_type": "ROOFTOP", "viewport": {"northeast": {"lat": 1.436941980291502, "lng": 103.8429359802915}, "southwest": {"lat": 1.434244019708498, "lng": 103.8402380197085}}}, "place_id": "ChIJ-fj8IWEU2jERFv_b6_wFo7A", "types": ["premise"]}