{"address_components": [{"long_name": "Block 251", "short_name": "Block 251", "types": ["premise"]}, {"long_name": "251", "short_name": "251", "types": ["street_number"]}, {"long_name": "Bangkit Road", "short_name": "Bangkit Rd", "types": ["route"]}, {"long_name": "Bukit Panjang", "short_name": "Bukit Panjang", "types": ["neighborhood", "political"]}, {"long_name": "Singapore", "short_name": "Singapore", "types": ["locality", "political"]}, {"long_name": "Singapore", "short_name": "SG", "types": ["country", "political"]}, {"long_name": "670251", "short_name": "670251", "types": ["postal_code"]}], "formatted_address": "251 Bangkit Rd, Block 251, Singapore 670251", "geometry": {"bounds": {"northeast": {"lat": 1.380399, "lng": 103.774373}, "southwest": {"lat": 1.38027, "lng": 103.773437}}, "location": {"lat": 1.3803091, "lng": 103.7738601}, "location_type": "ROOFTOP", "viewport": {"northeast": {"lat": 1.381683480291502, "lng": 103.7752539802915}, "southwest": {"lat": 1.378985519708498, "lng": 103.7725560197085}}}, "partial_match": true, "place_id": "ChIJt9dBjaAR2jERj_z0XESGheQ", "types": ["premise"]}