{"address_components": [{"long_name": "Block 150", "short_name": "Block 150", "types": ["premise"]}, {"long_name": "150", "short_name": "150", "types": ["street_number"]}, {"long_name": "Woodlands Street 13", "short_name": "Woodlands Street 13", "types": ["route"]}, {"long_name": "Woodlands", "short_name": "Woodlands", "types": ["neighborhood", "political"]}, {"long_name": "Singapore", "short_name": "Singapore", "types": ["locality", "political"]}, {"long_name": "Singapore", "short_name": "SG", "types": ["country", "political"]}, {"long_name": "730150", "short_name": "730150", "types": ["postal_code"]}], "formatted_address": "150 Woodlands Street 13, Block 150, Singapore 730150", "geometry": {"bounds": {"northeast": {"lat": 1.4356413, "lng": 103.7737481}, "southwest": {"lat": 1.4349832, "lng": 103.773601}}, "location": {"lat": 1.4353246, "lng": 103.773679}, "location_type": "ROOFTOP", "viewport": {"northeast": {"lat": 1.436661230291502, "lng": 103.7750235302915}, "southwest": {"lat": 1.433963269708498, "lng": 103.7723255697085}}}, "place_id": "ChIJRRZPmFQS2jERhjxf9xpr9FM", "types": ["premise"]}