{"address_components": [{"long_name": "Block 711", "short_name": "Block 711", "types": ["premise"]}, {"long_name": "711", "short_name": "711", "types": ["street_number"]}, {"long_name": "Hougang Avenue 2", "short_name": "Hougang Ave 2", "types": ["route"]}, {"long_name": "Hougang", "short_name": "Hougang", "types": ["neighborhood", "political"]}, {"long_name": "Singapore", "short_name": "Singapore", "types": ["locality", "political"]}, {"long_name": "Singapore", "short_name": "SG", "types": ["country", "political"]}, {"long_name": "530711", "short_name": "530711", "types": ["postal_code"]}], "formatted_address": "711 Hougang Ave 2, Block 711, Singapore 530711", "geometry": {"bounds": {"northeast": {"lat": 1.366448, "lng": 103.8882269}, "southwest": {"lat": 1.3661911, "lng": 103.887301}}, "location": {"lat": 1.3663744, "lng": 103.8878019}, "location_type": "ROOFTOP", "viewport": {"northeast": {"lat": 1.367668530291502, "lng": 103.8891129302915}, "southwest": {"lat": 1.364970569708498, "lng": 103.8864149697085}}}, "place_id": "ChIJmS-qqUsW2jER_uk7fQRbZmE", "types": ["premise"]}