{"address_components": [{"long_name": "Block 104", "short_name": "Block 104", "types": ["premise"]}, {"long_name": "104", "short_name": "104", "types": ["street_number"]}, {"long_name": "Henderson Crescent", "short_name": "Henderson Cres", "types": ["route"]}, {"long_name": "Bukit Merah", "short_name": "Bukit Merah", "types": ["neighborhood", "political"]}, {"long_name": "Singapore", "short_name": "Singapore", "types": ["locality", "political"]}, {"long_name": "Singapore", "short_name": "SG", "types": ["country", "political"]}, {"long_name": "150104", "short_name": "150104", "types": ["postal_code"]}], "formatted_address": "104 Henderson Cres, Block 104, Singapore 150104", "geometry": {"bounds": {"northeast": {"lat": 1.289473, "lng": 103.8218239}, "southwest": {"lat": 1.2893411, "lng": 103.8210509}}, "location": {"lat": 1.2894146, "lng": 103.8214223}, "location_type": "ROOFTOP", "viewport": {"northeast": {"lat": 1.290756030291502, "lng": 103.8227863802915}, "southwest": {"lat": 1.288058069708498, "lng": 103.8200884197085}}}, "place_id": "ChIJtxuzqyoa2jERyEBStdJuJsw", "types": ["premise"]}