{"address_components": [{"long_name": "Block 381", "short_name": "Block 381", "types": ["premise"]}, {"long_name": "381", "short_name": "381", "types": ["street_number"]}, {"long_name": "Clementi Avenue 5", "short_name": "Clementi Ave 5", "types": ["route"]}, {"long_name": "Clementi", "short_name": "Clementi", "types": ["neighborhood", "political"]}, {"long_name": "Singapore", "short_name": "Singapore", "types": ["locality", "political"]}, {"long_name": "Singapore", "short_name": "SG", "types": ["country", "political"]}, {"long_name": "120381", "short_name": "120381", "types": ["postal_code"]}], "formatted_address": "381 Clementi Ave 5, Block 381, Singapore 120381", "geometry": {"bounds": {"northeast": {"lat": 1.318772, "lng": 103.768425}, "southwest": {"lat": 1.3183511, "lng": 103.7675911}}, "location": {"lat": 1.3185204, "lng": 103.7679754}, "location_type": "ROOFTOP", "viewport": {"northeast": {"lat": 1.319910530291502, "lng": 103.7693570302915}, "southwest": {"lat": 1.317212569708498, "lng": 103.7666590697085}}}, "place_id": "ChIJB17KlIUa2jERR9A3zIfdRa4", "types": ["premise"]}