{"address_components": [{"long_name": "Block 722", "short_name": "Block 722", "types": ["premise"]}, {"long_name": "722", "short_name": "722", "types": ["street_number"]}, {"long_name": "Tampines Street 72", "short_name": "Tampines Street 72", "types": ["route"]}, {"long_name": "Tampines", "short_name": "Tampines", "types": ["neighborhood", "political"]}, {"long_name": "Singapore", "short_name": "Singapore", "types": ["locality", "political"]}, {"long_name": "Singapore", "short_name": "SG", "types": ["country", "political"]}, {"long_name": "520722", "short_name": "520722", "types": ["postal_code"]}], "formatted_address": "722 Tampines Street 72, Block 722, Singapore 520722", "geometry": {"bounds": {"northeast": {"lat": 1.3601202, "lng": 103.9359811}, "southwest": {"lat": 1.3598342, "lng": 103.9354841}}, "location": {"lat": 1.3599405, "lng": 103.9357439}, "location_type": "ROOFTOP", "viewport": {"northeast": {"lat": 1.361326180291502, "lng": 103.9370815802915}, "southwest": {"lat": 1.358628219708498, "lng": 103.9343836197085}}}, "place_id": "ChIJffHK7HQ92jER4uhdHHAwAMg", "types": ["premise"]}