{"address_components": [{"long_name": "Block 315", "short_name": "Block 315", "types": ["premise"]}, {"long_name": "315", "short_name": "315", "types": ["street_number"]}, {"long_name": "Bukit Batok Street 32", "short_name": "Bukit Batok Street 32", "types": ["route"]}, {"long_name": "Bukit Batok", "short_name": "Bukit Batok", "types": ["neighborhood", "political"]}, {"long_name": "Singapore", "short_name": "Singapore", "types": ["locality", "political"]}, {"long_name": "Singapore", "short_name": "SG", "types": ["country", "political"]}, {"long_name": "650315", "short_name": "650315", "types": ["postal_code"]}], "formatted_address": "315 Bukit Batok Street 32, Block 315, Singapore 650315", "geometry": {"bounds": {"northeast": {"lat": 1.360681, "lng": 103.747065}, "southwest": {"lat": 1.3597331, "lng": 103.74606}}, "location": {"lat": 1.3599469, "lng": 103.7467021}, "location_type": "ROOFTOP", "viewport": {"northeast": {"lat": 1.361556030291502, "lng": 103.7479114802915}, "southwest": {"lat": 1.358858069708498, "lng": 103.7452135197085}}}, "place_id": "ChIJSbrKBjQQ2jERo57sBfu5X5A", "types": ["premise"]}