{"address_components": [{"long_name": "Block 423", "short_name": "Block 423", "types": ["premise"]}, {"long_name": "423", "short_name": "423", "types": ["street_number"]}, {"long_name": "Tampines Street 41", "short_name": "Tampines Street 41", "types": ["route"]}, {"long_name": "Tampines", "short_name": "Tampines", "types": ["neighborhood", "political"]}, {"long_name": "Singapore", "short_name": "Singapore", "types": ["locality", "political"]}, {"long_name": "Singapore", "short_name": "SG", "types": ["country", "political"]}, {"long_name": "520423", "short_name": "520423", "types": ["postal_code"]}], "formatted_address": "423 Tampines Street 41, Block 423, Singapore 520423", "geometry": {"bounds": {"northeast": {"lat": 1.3572176, "lng": 103.9480815}, "southwest": {"lat": 1.3570547, "lng": 103.9471372}}, "location": {"lat": 1.3571596, "lng": 103.9479813}, "location_type": "ROOFTOP", "viewport": {"northeast": {"lat": 1.358485130291502, "lng": 103.9489583302915}, "southwest": {"lat": 1.355787169708498, "lng": 103.9462603697085}}}, "place_id": "ChIJmbBSEg892jER6cLVIA8uOJs", "types": ["premise"]}