{"address_components": [{"long_name": "Block 113", "short_name": "Block 113", "types": ["premise"]}, {"long_name": "113", "short_name": "113", "types": ["street_number"]}, {"long_name": "Potong Pasir Avenue 1", "short_name": "Potong Pasir Ave 1", "types": ["route"]}, {"long_name": "Toa Payoh", "short_name": "Toa Payoh", "types": ["neighborhood", "political"]}, {"long_name": "Singapore", "short_name": "Singapore", "types": ["locality", "political"]}, {"long_name": "Singapore", "short_name": "SG", "types": ["country", "political"]}, {"long_name": "350113", "short_name": "350113", "types": ["postal_code"]}], "formatted_address": "113 Potong Pasir Ave 1, Block 113, Singapore 350113", "geometry": {"bounds": {"northeast": {"lat": 1.3364812, "lng": 103.8638635}, "southwest": {"lat": 1.3358882, "lng": 103.863328}}, "location": {"lat": 1.3362015, "lng": 103.863436}, "location_type": "ROOFTOP", "viewport": {"northeast": {"lat": 1.337533680291502, "lng": 103.8649447302915}, "southwest": {"lat": 1.334835719708498, "lng": 103.8622467697085}}}, "place_id": "ChIJMXwPXXcX2jER3X9hWiRDGwE", "types": ["premise"]}