{"address_components": [{"long_name": "Block 608", "short_name": "Block 608", "types": ["premise"]}, {"long_name": "608", "short_name": "608", "types": ["street_number"]}, {"long_name": "Choa Chu Kang Street 62", "short_name": "Choa Chu Kang Street 62", "types": ["route"]}, {"long_name": "Choa Chu Kang", "short_name": "Choa Chu Kang", "types": ["neighborhood", "political"]}, {"long_name": "Singapore", "short_name": "Singapore", "types": ["locality", "political"]}, {"long_name": "Singapore", "short_name": "SG", "types": ["country", "political"]}, {"long_name": "680608", "short_name": "680608", "types": ["postal_code"]}], "formatted_address": "608 Choa Chu Kang Street 62, Block 608, Singapore 680608", "geometry": {"bounds": {"northeast": {"lat": 1.3989313, "lng": 103.745059}, "southwest": {"lat": 1.3983278, "lng": 103.7442751}}, "location": {"lat": 1.3984471, "lng": 103.7446203}, "location_type": "ROOFTOP", "viewport": {"northeast": {"lat": 1.399978530291502, "lng": 103.7460160302915}, "southwest": {"lat": 1.397280569708498, "lng": 103.7433180697085}}}, "place_id": "ChIJLy5w6vYR2jERyd19LfBrbvg", "types": ["premise"]}