{"address_components": [{"long_name": "Block 573", "short_name": "Block 573", "types": ["premise"]}, {"long_name": "573", "short_name": "573", "types": ["street_number"]}, {"long_name": "Pasir Ris Street 53", "short_name": "Pasir Ris Street 53", "types": ["route"]}, {"long_name": "Pasir Ris", "short_name": "Pasir Ris", "types": ["neighborhood", "political"]}, {"long_name": "Singapore", "short_name": "Singapore", "types": ["locality", "political"]}, {"long_name": "Singapore", "short_name": "SG", "types": ["country", "political"]}, {"long_name": "510573", "short_name": "510573", "types": ["postal_code"]}], "formatted_address": "573 Pasir Ris Street 53, Block 573, Singapore 510573", "geometry": {"bounds": {"northeast": {"lat": 1.3741172, "lng": 103.9460197}, "southwest": {"lat": 1.3738152, "lng": 103.9456707}}, "location": {"lat": 1.3740136, "lng": 103.9458964}, "location_type": "ROOFTOP", "viewport": {"northeast": {"lat": 1.375315180291502, "lng": 103.9471941802915}, "southwest": {"lat": 1.372617219708498, "lng": 103.9444962197085}}}, "place_id": "ChIJdzIDIrs92jERp-Ji9DdLL2o", "types": ["premise"]}