{"address_components": [{"long_name": "Block 561", "short_name": "Block 561", "types": ["premise"]}, {"long_name": "561", "short_name": "561", "types": ["street_number"]}, {"long_name": "Pasir Ris Street 51", "short_name": "Pasir Ris Street 51", "types": ["route"]}, {"long_name": "Pasir Ris", "short_name": "Pasir Ris", "types": ["neighborhood", "political"]}, {"long_name": "Singapore", "short_name": "Singapore", "types": ["locality", "political"]}, {"long_name": "Singapore", "short_name": "SG", "types": ["country", "political"]}, {"long_name": "510561", "short_name": "510561", "types": ["postal_code"]}], "formatted_address": "561 Pasir Ris Street 51, Block 561, Singapore 510561", "geometry": {"bounds": {"northeast": {"lat": 1.3677393, "lng": 103.9512178}, "southwest": {"lat": 1.3668258, "lng": 103.9499203}}, "location": {"lat": 1.3670285, "lng": 103.9506103}, "location_type": "ROOFTOP", "viewport": {"northeast": {"lat": 1.368631530291502, "lng": 103.9519180302915}, "southwest": {"lat": 1.365933569708498, "lng": 103.9492200697085}}}, "place_id": "ChIJO14ux6g92jERT1bJxaK_Hdo", "types": ["premise"]}