{"address_components": [{"long_name": "119", "short_name": "119", "types": ["street_number"]}, {"long_name": "McNair Road", "short_name": "McNair Rd", "types": ["route"]}, {"long_name": "Kallang", "short_name": "Kallang", "types": ["neighborhood", "political"]}, {"long_name": "Singapore", "short_name": "Singapore", "types": ["locality", "political"]}, {"long_name": "Singapore", "short_name": "SG", "types": ["country", "political"]}, {"long_name": "320119", "short_name": "320119", "types": ["postal_code"]}], "formatted_address": "119 McNair Rd, Singapore 320119", "geometry": {"bounds": {"northeast": {"lat": 1.3199869, "lng": 103.857386}, "southwest": {"lat": 1.3195479, "lng": 103.856808}}, "location": {"lat": 1.3198457, "lng": 103.857088}, "location_type": "ROOFTOP", "viewport": {"northeast": {"lat": 1.321116380291502, "lng": 103.8584459802915}, "southwest": {"lat": 1.318418419708498, "lng": 103.8557480197085}}}, "place_id": "ChIJQy_WhdAZ2jERHK9l1nSEa7Q", "types": ["premise"]}