{"address_components": [{"long_name": "Block 162", "short_name": "Block 162", "types": ["premise"]}, {"long_name": "162", "short_name": "162", "types": ["street_number"]}, {"long_name": "Bukit Batok Street 11", "short_name": "Bukit Batok Street 11", "types": ["route"]}, {"long_name": "Bukit Batok", "short_name": "Bukit Batok", "types": ["neighborhood", "political"]}, {"long_name": "Singapore", "short_name": "Singapore", "types": ["locality", "political"]}, {"long_name": "Singapore", "short_name": "SG", "types": ["country", "political"]}, {"long_name": "650162", "short_name": "650162", "types": ["postal_code"]}], "formatted_address": "162 Bukit Batok Street 11, Block 162, Singapore 650162", "geometry": {"bounds": {"northeast": {"lat": 1.3481822, "lng": 103.7421526}, "southwest": {"lat": 1.3476213, "lng": 103.7415717}}, "location": {"lat": 1.3479668, "lng": 103.7417267}, "location_type": "ROOFTOP", "viewport": {"northeast": {"lat": 1.349250730291502, "lng": 103.7432111302915}, "southwest": {"lat": 1.346552769708498, "lng": 103.7405131697085}}}, "place_id": "ChIJMf8jIj0Q2jERtxCLYrin0Ug", "types": ["premise"]}