{"address_components": [{"long_name": "Block 517", "short_name": "Block 517", "types": ["premise"]}, {"long_name": "517", "short_name": "517", "types": ["street_number"]}, {"long_name": "Woodlands Drive 14", "short_name": "Woodlands Drive 14", "types": ["route"]}, {"long_name": "Woodlands", "short_name": "Woodlands", "types": ["neighborhood", "political"]}, {"long_name": "Singapore", "short_name": "Singapore", "types": ["locality", "political"]}, {"long_name": "Singapore", "short_name": "SG", "types": ["country", "political"]}, {"long_name": "730517", "short_name": "730517", "types": ["postal_code"]}], "formatted_address": "517 Woodlands Drive 14, Block 517, Singapore 730517", "geometry": {"bounds": {"northeast": {"lat": 1.43408, "lng": 103.7920129}, "southwest": {"lat": 1.4336771, "lng": 103.7912579}}, "location": {"lat": 1.4338194, "lng": 103.7916968}, "location_type": "ROOFTOP", "viewport": {"northeast": {"lat": 1.435227530291502, "lng": 103.7929843802915}, "southwest": {"lat": 1.432529569708498, "lng": 103.7902864197085}}}, "place_id": "ChIJkT5cEaQT2jER7x0YOgSjAkY", "types": ["premise"]}