{"address_components": [{"long_name": "Block 746", "short_name": "Block 746", "types": ["premise"]}, {"long_name": "746", "short_name": "746", "types": ["street_number"]}, {"long_name": "Jurong West Street 73", "short_name": "Jurong West Street 73", "types": ["route"]}, {"long_name": "Jurong West", "short_name": "Jurong West", "types": ["neighborhood", "political"]}, {"long_name": "Singapore", "short_name": "Singapore", "types": ["locality", "political"]}, {"long_name": "Singapore", "short_name": "SG", "types": ["country", "political"]}, {"long_name": "640746", "short_name": "640746", "types": ["postal_code"]}], "formatted_address": "746 Jurong West Street 73, Block 746, Singapore 640746", "geometry": {"bounds": {"northeast": {"lat": 1.3475233, "lng": 103.6983505}, "southwest": {"lat": 1.3473032, "lng": 103.6974907}}, "location": {"lat": 1.3474125, "lng": 103.697925}, "location_type": "ROOFTOP", "viewport": {"northeast": {"lat": 1.348762230291502, "lng": 103.6992695802915}, "southwest": {"lat": 1.346064269708498, "lng": 103.6965716197085}}}, "place_id": "ChIJK4Ebvb0P2jERUwfqPkZL56E", "types": ["premise"]}