{"address_components": [{"long_name": "Block 166", "short_name": "Block 166", "types": ["premise"]}, {"long_name": "166", "short_name": "166", "types": ["street_number"]}, {"long_name": "Tampines Street 12", "short_name": "Tampines Street 12", "types": ["route"]}, {"long_name": "Tampines", "short_name": "Tampines", "types": ["neighborhood", "political"]}, {"long_name": "Singapore", "short_name": "Singapore", "types": ["locality", "political"]}, {"long_name": "Singapore", "short_name": "SG", "types": ["country", "political"]}, {"long_name": "521166", "short_name": "521166", "types": ["postal_code"]}], "formatted_address": "166 Tampines Street 12, Block 166, Singapore 521166", "geometry": {"bounds": {"northeast": {"lat": 1.3491827, "lng": 103.9471965}, "southwest": {"lat": 1.3485787, "lng": 103.9456406}}, "location": {"lat": 1.3488236, "lng": 103.9464403}, "location_type": "ROOFTOP", "viewport": {"northeast": {"lat": 1.350229680291502, "lng": 103.9477675302915}, "southwest": {"lat": 1.347531719708498, "lng": 103.9450695697085}}}, "place_id": "ChIJzYw1KBc92jERs-hRfIvkBQs", "types": ["premise"]}