{"address_components": [{"long_name": "459", "short_name": "459", "types": ["street_number"]}, {"long_name": "Segar Road", "short_name": "Segar Rd", "types": ["route"]}, {"long_name": "Bukit Panjang", "short_name": "Bukit Panjang", "types": ["neighborhood", "political"]}, {"long_name": "Singapore", "short_name": "Singapore", "types": ["locality", "political"]}, {"long_name": "Singapore", "short_name": "SG", "types": ["country", "political"]}], "formatted_address": "459 Segar Rd, Singapore", "geometry": {"bounds": {"northeast": {"lat": 1.3879688, "lng": 103.7719904}, "southwest": {"lat": 1.3875509, "lng": 103.7714879}}, "location": {"lat": 1.3877258, "lng": 103.7717778}, "location_type": "ROOFTOP", "viewport": {"northeast": {"lat": 1.389108830291502, "lng": 103.7730881302915}, "southwest": {"lat": 1.386410869708498, "lng": 103.7703901697085}}}, "place_id": "ChIJ4QVfnZ4R2jERq5xU_noP5wA", "types": ["premise"]}