{"address_components": [{"long_name": "Block 161", "short_name": "Block 161", "types": ["premise"]}, {"long_name": "161", "short_name": "161", "types": ["street_number"]}, {"long_name": "Simei Road", "short_name": "Simei Rd", "types": ["route"]}, {"long_name": "Tampines", "short_name": "Tampines", "types": ["neighborhood", "political"]}, {"long_name": "Singapore", "short_name": "Singapore", "types": ["locality", "political"]}, {"long_name": "Singapore", "short_name": "SG", "types": ["country", "political"]}, {"long_name": "520161", "short_name": "520161", "types": ["postal_code"]}], "formatted_address": "161 Simei Rd, Block 161, Singapore 520161", "geometry": {"bounds": {"northeast": {"lat": 1.3457847, "lng": 103.9604443}, "southwest": {"lat": 1.3453108, "lng": 103.9599044}}, "location": {"lat": 1.3453764, "lng": 103.9602198}, "location_type": "ROOFTOP", "viewport": {"northeast": {"lat": 1.346896730291502, "lng": 103.9615233302915}, "southwest": {"lat": 1.344198769708498, "lng": 103.9588253697085}}}, "place_id": "ChIJpd4A5h892jER2MmXTA-YyNQ", "types": ["premise"]}