{"address_components": [{"long_name": "Block 493D", "short_name": "Block 493D", "types": ["premise"]}, {"long_name": "493D", "short_name": "493D", "types": ["street_number"]}, {"long_name": "Tampines Street 43", "short_name": "Tampines Street 43", "types": ["route"]}, {"long_name": "Tampines", "short_name": "Tampines", "types": ["neighborhood", "political"]}, {"long_name": "Singapore", "short_name": "Singapore", "types": ["locality", "political"]}, {"long_name": "Singapore", "short_name": "SG", "types": ["country", "political"]}, {"long_name": "523493", "short_name": "523493", "types": ["postal_code"]}], "formatted_address": "493D Tampines Street 43, Block 493D, Singapore 523493", "geometry": {"bounds": {"northeast": {"lat": 1.3630373, "lng": 103.9521808}, "southwest": {"lat": 1.3618055, "lng": 103.9511204}}, "location": {"lat": 1.3623906, "lng": 103.9517208}, "location_type": "ROOFTOP", "viewport": {"northeast": {"lat": 1.363770380291502, "lng": 103.9529995802915}, "southwest": {"lat": 1.361072419708498, "lng": 103.9503016197085}}}, "place_id": "ChIJ89NImAc92jERlBbXYbIXPVY", "types": ["premise"]}