{"address_components": [{"long_name": "232", "short_name": "232", "types": ["street_number"]}, {"long_name": "Compassvale Walk", "short_name": "Compassvale Walk", "types": ["route"]}, {"long_name": "Sengkang", "short_name": "Sengkang", "types": ["neighborhood", "political"]}, {"long_name": "Singapore", "short_name": "Singapore", "types": ["locality", "political"]}, {"long_name": "Singapore", "short_name": "SG", "types": ["country", "political"]}, {"long_name": "540232", "short_name": "540232", "types": ["postal_code"]}], "formatted_address": "232 Compassvale Walk, Singapore 540232", "geometry": {"bounds": {"northeast": {"lat": 1.3907504, "lng": 103.9013564}, "southwest": {"lat": 1.3900471, "lng": 103.9006373}}, "location": {"lat": 1.3905107, "lng": 103.9008053}, "location_type": "ROOFTOP", "viewport": {"northeast": {"lat": 1.391747730291502, "lng": 103.9023458302915}, "southwest": {"lat": 1.389049769708498, "lng": 103.8996478697085}}}, "place_id": "ChIJ_70bRhAW2jER07Rj7wC-ZbM", "types": ["premise"]}