{"address_components": [{"long_name": "Block 764", "short_name": "Block 764", "types": ["premise"]}, {"long_name": "764", "short_name": "764", "types": ["street_number"]}, {"long_name": "Woodlands Circle", "short_name": "Woodlands Cir", "types": ["route"]}, {"long_name": "Woodlands", "short_name": "Woodlands", "types": ["neighborhood", "political"]}, {"long_name": "Singapore", "short_name": "Singapore", "types": ["locality", "political"]}, {"long_name": "Singapore", "short_name": "SG", "types": ["country", "political"]}, {"long_name": "730764", "short_name": "730764", "types": ["postal_code"]}], "formatted_address": "764 Woodlands Cir, Block 764, Singapore 730764", "geometry": {"bounds": {"northeast": {"lat": 1.445382, "lng": 103.797147}, "southwest": {"lat": 1.445043, "lng": 103.79643}}, "location": {"lat": 1.4451644, "lng": 103.7969487}, "location_type": "ROOFTOP", "viewport": {"northeast": {"lat": 1.446561480291502, "lng": 103.7981374802915}, "southwest": {"lat": 1.443863519708498, "lng": 103.7954395197085}}}, "place_id": "ChIJoS7clAwT2jERQ1FL1-3fcjI", "types": ["premise"]}