{"address_components": [{"long_name": "Block 126", "short_name": "Block 126", "types": ["premise"]}, {"long_name": "126", "short_name": "126", "types": ["street_number"]}, {"long_name": "Pending Road", "short_name": "Pending Rd", "types": ["route"]}, {"long_name": "Bukit Panjang", "short_name": "Bukit Panjang", "types": ["neighborhood", "political"]}, {"long_name": "Singapore", "short_name": "Singapore", "types": ["locality", "political"]}, {"long_name": "Singapore", "short_name": "SG", "types": ["country", "political"]}, {"long_name": "670126", "short_name": "670126", "types": ["postal_code"]}], "formatted_address": "126 Pending Rd, Block 126, Singapore 670126", "geometry": {"bounds": {"northeast": {"lat": 1.3766199, "lng": 103.7703622}, "southwest": {"lat": 1.3760033, "lng": 103.7694592}}, "location": {"lat": 1.3763748, "lng": 103.769786}, "location_type": "ROOFTOP", "viewport": {"northeast": {"lat": 1.377660580291502, "lng": 103.7712596802915}, "southwest": {"lat": 1.374962619708498, "lng": 103.7685617197085}}}, "place_id": "ChIJ4aInh6YR2jERWNV_YzYP9L0", "types": ["premise"]}