{"address_components": [{"long_name": "Block 104", "short_name": "Block 104", "types": ["premise"]}, {"long_name": "104", "short_name": "104", "types": ["street_number"]}, {"long_name": "Woodlands Street 13", "short_name": "Woodlands Street 13", "types": ["route"]}, {"long_name": "Woodlands", "short_name": "Woodlands", "types": ["neighborhood", "political"]}, {"long_name": "Singapore", "short_name": "Singapore", "types": ["locality", "political"]}, {"long_name": "Singapore", "short_name": "SG", "types": ["country", "political"]}, {"long_name": "730104", "short_name": "730104", "types": ["postal_code"]}], "formatted_address": "104 Woodlands Street 13, Block 104, Singapore 730104", "geometry": {"bounds": {"northeast": {"lat": 1.4365535, "lng": 103.7820077}, "southwest": {"lat": 1.4363995, "lng": 103.7811618}}, "location": {"lat": 1.4364506, "lng": 103.7815558}, "location_type": "ROOFTOP", "viewport": {"northeast": {"lat": 1.437825480291502, "lng": 103.7829337302915}, "southwest": {"lat": 1.435127519708498, "lng": 103.7802357697085}}}, "place_id": "ChIJXSmTZKkT2jERO_1xYniZkJY", "types": ["premise"]}