{"address_components": [{"long_name": "Block 112", "short_name": "Block 112", "types": ["premise"]}, {"long_name": "112", "short_name": "112", "types": ["street_number"]}, {"long_name": "Pending Road", "short_name": "Pending Rd", "types": ["route"]}, {"long_name": "Bukit Panjang", "short_name": "Bukit Panjang", "types": ["neighborhood", "political"]}, {"long_name": "Singapore", "short_name": "Singapore", "types": ["locality", "political"]}, {"long_name": "Singapore", "short_name": "SG", "types": ["country", "political"]}, {"long_name": "670112", "short_name": "670112", "types": ["postal_code"]}], "formatted_address": "112 Pending Rd, Block 112, Singapore 670112", "geometry": {"bounds": {"northeast": {"lat": 1.3787858, "lng": 103.768925}, "southwest": {"lat": 1.3783001, "lng": 103.7685104}}, "location": {"lat": 1.3785618, "lng": 103.7687223}, "location_type": "ROOFTOP", "viewport": {"northeast": {"lat": 1.379891930291502, "lng": 103.7700666802915}, "southwest": {"lat": 1.377193969708498, "lng": 103.7673687197085}}}, "place_id": "ChIJiXQCCKQR2jERCHGrnFKXovI", "types": ["premise"]}