{"address_components": [{"long_name": "Block 482", "short_name": "Block 482", "types": ["premise"]}, {"long_name": "482", "short_name": "482", "types": ["street_number"]}, {"long_name": "Segar Road", "short_name": "Segar Rd", "types": ["route"]}, {"long_name": "Bukit Panjang", "short_name": "Bukit Panjang", "types": ["neighborhood", "political"]}, {"long_name": "Singapore", "short_name": "Singapore", "types": ["locality", "political"]}, {"long_name": "Singapore", "short_name": "SG", "types": ["country", "political"]}, {"long_name": "670482", "short_name": "670482", "types": ["postal_code"]}], "formatted_address": "482 Segar Rd, Block 482, Singapore 670482", "geometry": {"bounds": {"northeast": {"lat": 1.3893428, "lng": 103.772355}, "southwest": {"lat": 1.3890716, "lng": 103.772079}}, "location": {"lat": 1.3891895, "lng": 103.7722305}, "location_type": "ROOFTOP", "viewport": {"northeast": {"lat": 1.390556180291502, "lng": 103.7735659802915}, "southwest": {"lat": 1.387858219708498, "lng": 103.7708680197085}}}, "place_id": "ChIJ-dr7SpwR2jEReUAb16_od4c", "types": ["premise"]}