{"address_components": [{"long_name": "Block 345", "short_name": "Block 345", "types": ["premise"]}, {"long_name": "345", "short_name": "345", "types": ["street_number"]}, {"long_name": "Bukit Batok Street 34", "short_name": "Bukit Batok Street 34", "types": ["route"]}, {"long_name": "Bukit Batok", "short_name": "Bukit Batok", "types": ["neighborhood", "political"]}, {"long_name": "Singapore", "short_name": "Singapore", "types": ["locality", "political"]}, {"long_name": "Singapore", "short_name": "SG", "types": ["country", "political"]}, {"long_name": "650345", "short_name": "650345", "types": ["postal_code"]}], "formatted_address": "345 Bukit Batok Street 34, Block 345, Singapore 650345", "geometry": {"bounds": {"northeast": {"lat": 1.362906, "lng": 103.7511771}, "southwest": {"lat": 1.362755, "lng": 103.750451}}, "location": {"lat": 1.3628539, "lng": 103.750866}, "location_type": "ROOFTOP", "viewport": {"northeast": {"lat": 1.364179480291502, "lng": 103.7521630302915}, "southwest": {"lat": 1.361481519708498, "lng": 103.7494650697085}}}, "place_id": "ChIJORR_bTUQ2jER0wKTJoCnBX8", "types": ["premise"]}