{"address_components": [{"long_name": "Block 276A", "short_name": "Block 276A", "types": ["premise"]}, {"long_name": "276A", "short_name": "276A", "types": ["street_number"]}, {"long_name": "Jurong West Street 25", "short_name": "Jurong West Street 25", "types": ["route"]}, {"long_name": "Jurong West", "short_name": "Jurong West", "types": ["neighborhood", "political"]}, {"long_name": "Singapore", "short_name": "Singapore", "types": ["locality", "political"]}, {"long_name": "Singapore", "short_name": "SG", "types": ["country", "political"]}, {"long_name": "641276", "short_name": "641276", "types": ["postal_code"]}], "formatted_address": "276A Jurong West Street 25, Block 276A, Singapore 641276", "geometry": {"bounds": {"northeast": {"lat": 1.353329, "lng": 103.7039501}, "southwest": {"lat": 1.3530981, "lng": 103.703205}}, "location": {"lat": 1.3532353, "lng": 103.7035324}, "location_type": "ROOFTOP", "viewport": {"northeast": {"lat": 1.354562530291502, "lng": 103.7049265302915}, "southwest": {"lat": 1.351864569708498, "lng": 103.7022285697085}}}, "place_id": "ChIJ5wmKV7gP2jERo96reHVREIU", "types": ["premise"]}