{"address_components": [{"long_name": "Block 109", "short_name": "Block 109", "types": ["premise"]}, {"long_name": "109", "short_name": "109", "types": ["street_number"]}, {"long_name": "Whampoa Road", "short_name": "Whampoa Rd", "types": ["route"]}, {"long_name": "Novena", "short_name": "Novena", "types": ["neighborhood", "political"]}, {"long_name": "Singapore", "short_name": "Singapore", "types": ["locality", "political"]}, {"long_name": "Singapore", "short_name": "SG", "types": ["country", "political"]}, {"long_name": "321109", "short_name": "321109", "types": ["postal_code"]}], "formatted_address": "109 Whampoa Rd, Block 109, Singapore 321109", "geometry": {"bounds": {"northeast": {"lat": 1.3273852, "lng": 103.8558764}, "southwest": {"lat": 1.3268332, "lng": 103.8554535}}, "location": {"lat": 1.3271195, "lng": 103.8557037}, "location_type": "ROOFTOP", "viewport": {"northeast": {"lat": 1.328458180291502, "lng": 103.8570139302915}, "southwest": {"lat": 1.325760219708498, "lng": 103.8543159697085}}}, "place_id": "ChIJZUYjpWIX2jERO-481LRZ4y8", "types": ["premise"]}