{"address_components": [{"long_name": "Block 531", "short_name": "Block 531", "types": ["premise"]}, {"long_name": "531", "short_name": "531", "types": ["street_number"]}, {"long_name": "Bukit Batok Street 51", "short_name": "Bukit Batok Street 51", "types": ["route"]}, {"long_name": "Bukit Batok", "short_name": "Bukit Batok", "types": ["neighborhood", "political"]}, {"long_name": "Singapore", "short_name": "Singapore", "types": ["locality", "political"]}, {"long_name": "Singapore", "short_name": "SG", "types": ["country", "political"]}, {"long_name": "650531", "short_name": "650531", "types": ["postal_code"]}], "formatted_address": "531 Bukit Batok Street 51, Block 531, Singapore 650531", "geometry": {"bounds": {"northeast": {"lat": 1.3565691, "lng": 103.750675}, "southwest": {"lat": 1.356261, "lng": 103.7498829}}, "location": {"lat": 1.3563356, "lng": 103.7503229}, "location_type": "ROOFTOP", "viewport": {"northeast": {"lat": 1.357764030291502, "lng": 103.7516279302915}, "southwest": {"lat": 1.355066069708498, "lng": 103.7489299697085}}}, "place_id": "ChIJqSYIvjcQ2jERhPg3qqIFrE8", "types": ["premise"]}