{"address_components": [{"long_name": "Block 24", "short_name": "Block 24", "types": ["premise"]}, {"long_name": "24", "short_name": "24", "types": ["street_number"]}, {"long_name": "Hougang Avenue 3", "short_name": "Hougang Ave 3", "types": ["route"]}, {"long_name": "Hougang", "short_name": "Hougang", "types": ["neighborhood", "political"]}, {"long_name": "Singapore", "short_name": "Singapore", "types": ["locality", "political"]}, {"long_name": "Singapore", "short_name": "SG", "types": ["country", "political"]}, {"long_name": "530024", "short_name": "530024", "types": ["postal_code"]}], "formatted_address": "24 Hougang Ave 3, Block 24, Singapore 530024", "geometry": {"bounds": {"northeast": {"lat": 1.365906, "lng": 103.89231}, "southwest": {"lat": 1.3651591, "lng": 103.8915391}}, "location": {"lat": 1.365526, "lng": 103.8919475}, "location_type": "ROOFTOP", "viewport": {"northeast": {"lat": 1.366881530291502, "lng": 103.8932735302915}, "southwest": {"lat": 1.364183569708498, "lng": 103.8905755697085}}}, "place_id": "ChIJZ9ipejUW2jERwyPj7-8f9t4", "types": ["premise"]}