{"address_components": [{"long_name": "Block 487", "short_name": "Block 487", "types": ["premise"]}, {"long_name": "487", "short_name": "487", "types": ["street_number"]}, {"long_name": "Pasir Ris Drive 4", "short_name": "Pasir Ris Drive 4", "types": ["route"]}, {"long_name": "Pasir Ris", "short_name": "Pasir Ris", "types": ["neighborhood", "political"]}, {"long_name": "Singapore", "short_name": "Singapore", "types": ["locality", "political"]}, {"long_name": "Singapore", "short_name": "SG", "types": ["country", "political"]}, {"long_name": "510487", "short_name": "510487", "types": ["postal_code"]}], "formatted_address": "487 Pasir Ris Drive 4, Block 487, Singapore 510487", "geometry": {"bounds": {"northeast": {"lat": 1.3750446, "lng": 103.9610624}, "southwest": {"lat": 1.3735147, "lng": 103.9600868}}, "location": {"lat": 1.3744025, "lng": 103.9605371}, "location_type": "ROOFTOP", "viewport": {"northeast": {"lat": 1.375628630291502, "lng": 103.9619235802915}, "southwest": {"lat": 1.372930669708498, "lng": 103.9592256197085}}}, "place_id": "ChIJpT9R1LI92jER7HPjWNDwQw4", "types": ["premise"]}