{"address_components": [{"long_name": "Block 462", "short_name": "Block 462", "types": ["premise"]}, {"long_name": "462", "short_name": "462", "types": ["street_number"]}, {"long_name": "Choa Chu Kang Avenue 4", "short_name": "Choa Chu Kang Ave 4", "types": ["route"]}, {"long_name": "Choa Chu Kang", "short_name": "Choa Chu Kang", "types": ["neighborhood", "political"]}, {"long_name": "Singapore", "short_name": "Singapore", "types": ["locality", "political"]}, {"long_name": "Singapore", "short_name": "SG", "types": ["country", "political"]}, {"long_name": "680462", "short_name": "680462", "types": ["postal_code"]}], "formatted_address": "462 Choa Chu Kang Ave 4, Block 462, Singapore 680462", "geometry": {"bounds": {"northeast": {"lat": 1.3778244, "lng": 103.7353423}, "southwest": {"lat": 1.3773869, "lng": 103.7350327}}, "location": {"lat": 1.3776044, "lng": 103.7352069}, "location_type": "ROOFTOP", "viewport": {"northeast": {"lat": 1.378954630291502, "lng": 103.7365364802915}, "southwest": {"lat": 1.376256669708498, "lng": 103.7338385197085}}}, "place_id": "ChIJneXv3dsR2jER2nnm32h0ZT0", "types": ["premise"]}