{"address_components": [{"long_name": "Block 359", "short_name": "Block 359", "types": ["premise"]}, {"long_name": "359", "short_name": "359", "types": ["street_number"]}, {"long_name": "Clementi Avenue 2", "short_name": "Clementi Ave 2", "types": ["route"]}, {"long_name": "Clementi", "short_name": "Clementi", "types": ["neighborhood", "political"]}, {"long_name": "Singapore", "short_name": "Singapore", "types": ["locality", "political"]}, {"long_name": "Singapore", "short_name": "SG", "types": ["country", "political"]}, {"long_name": "120359", "short_name": "120359", "types": ["postal_code"]}], "formatted_address": "359 Clementi Ave 2, Block 359, Singapore 120359", "geometry": {"bounds": {"northeast": {"lat": 1.3136123, "lng": 103.770176}, "southwest": {"lat": 1.3133515, "lng": 103.769525}}, "location": {"lat": 1.3134596, "lng": 103.7698766}, "location_type": "ROOFTOP", "viewport": {"northeast": {"lat": 1.314830880291502, "lng": 103.7711994802915}, "southwest": {"lat": 1.312132919708498, "lng": 103.7685015197085}}}, "place_id": "ChIJDWEdUoka2jER8QXJtXX3n_s", "types": ["premise"]}