{"address_components": [{"long_name": "Block 244", "short_name": "Block 244", "types": ["premise"]}, {"long_name": "244", "short_name": "244", "types": ["street_number"]}, {"long_name": "Bukit Panjang Ring Road", "short_name": "Bukit Panjang Ring Rd", "types": ["route"]}, {"long_name": "Bukit Panjang", "short_name": "Bukit Panjang", "types": ["neighborhood", "political"]}, {"long_name": "Singapore", "short_name": "Singapore", "types": ["locality", "political"]}, {"long_name": "Singapore", "short_name": "SG", "types": ["country", "political"]}, {"long_name": "670244", "short_name": "670244", "types": ["postal_code"]}], "formatted_address": "244 Bukit Panjang Ring Rd, Block 244, Singapore 670244", "geometry": {"bounds": {"northeast": {"lat": 1.380998, "lng": 103.772197}, "southwest": {"lat": 1.3807259, "lng": 103.771484}}, "location": {"lat": 1.3809057, "lng": 103.7721399}, "location_type": "ROOFTOP", "viewport": {"northeast": {"lat": 1.382210930291502, "lng": 103.7731894802915}, "southwest": {"lat": 1.379512969708498, "lng": 103.7704915197085}}}, "place_id": "ChIJR2B-B6ER2jERd8ElBtY8_3A", "types": ["premise"]}