{"address_components": [{"long_name": "Block 979B", "short_name": "Block 979B", "types": ["premise"]}, {"long_name": "979B", "short_name": "979B", "types": ["street_number"]}, {"long_name": "Buangkok Crescent", "short_name": "Buangkok Cres", "types": ["route"]}, {"long_name": "Hougang", "short_name": "Hougang", "types": ["neighborhood", "political"]}, {"long_name": "Singapore", "short_name": "Singapore", "types": ["locality", "political"]}, {"long_name": "Singapore", "short_name": "SG", "types": ["country", "political"]}, {"long_name": "532979", "short_name": "532979", "types": ["postal_code"]}], "formatted_address": "979B Buangkok Cres, Block 979B, Singapore 532979", "geometry": {"bounds": {"northeast": {"lat": 1.3796402, "lng": 103.8795734}, "southwest": {"lat": 1.3794662, "lng": 103.8790643}}, "location": {"lat": 1.3795331, "lng": 103.8792821}, "location_type": "ROOFTOP", "viewport": {"northeast": {"lat": 1.380902180291502, "lng": 103.8806678302915}, "southwest": {"lat": 1.378204219708498, "lng": 103.8779698697085}}}, "place_id": "ChIJ4c_AzVwW2jER_7Rh-WyKVis", "types": ["premise"]}