{"address_components": [{"long_name": "Block 167", "short_name": "Block 167", "types": ["premise"]}, {"long_name": "167", "short_name": "167", "types": ["street_number"]}, {"long_name": "Petir Road", "short_name": "Petir Rd", "types": ["route"]}, {"long_name": "Bukit Panjang", "short_name": "Bukit Panjang", "types": ["neighborhood", "political"]}, {"long_name": "Singapore", "short_name": "Singapore", "types": ["locality", "political"]}, {"long_name": "Singapore", "short_name": "SG", "types": ["country", "political"]}, {"long_name": "670167", "short_name": "670167", "types": ["postal_code"]}], "formatted_address": "167 Petir Rd, Block 167, Singapore 670167", "geometry": {"bounds": {"northeast": {"lat": 1.3778969, "lng": 103.7652208}, "southwest": {"lat": 1.3773139, "lng": 103.764645}}, "location": {"lat": 1.3774298, "lng": 103.7648974}, "location_type": "ROOFTOP", "viewport": {"northeast": {"lat": 1.378954380291502, "lng": 103.7662818802915}, "southwest": {"lat": 1.376256419708498, "lng": 103.7635839197085}}}, "place_id": "ChIJWZJXvqQR2jERGAtLuDsQbps", "types": ["premise"]}