{"address_components": [{"long_name": "Block 302", "short_name": "Block 302", "types": ["premise"]}, {"long_name": "302", "short_name": "302", "types": ["street_number"]}, {"long_name": "Tampines Street 32", "short_name": "Tampines Street 32", "types": ["route"]}, {"long_name": "Tampines", "short_name": "Tampines", "types": ["neighborhood", "political"]}, {"long_name": "Singapore", "short_name": "Singapore", "types": ["locality", "political"]}, {"long_name": "Singapore", "short_name": "SG", "types": ["country", "political"]}, {"long_name": "520302", "short_name": "520302", "types": ["postal_code"]}], "formatted_address": "302 Tampines Street 32, Block 302, Singapore 520302", "geometry": {"bounds": {"northeast": {"lat": 1.3529454, "lng": 103.9554632}, "southwest": {"lat": 1.3520375, "lng": 103.9549464}}, "location": {"lat": 1.3525057, "lng": 103.955143}, "location_type": "ROOFTOP", "viewport": {"northeast": {"lat": 1.353840430291502, "lng": 103.9565537802915}, "southwest": {"lat": 1.351142469708498, "lng": 103.9538558197085}}}, "place_id": "ChIJ35jXnRw92jERdwBIMUewiBQ", "types": ["premise"]}