{"address_components": [{"long_name": "Block 772", "short_name": "Block 772", "types": ["premise"]}, {"long_name": "772", "short_name": "772", "types": ["street_number"]}, {"long_name": "Pasir Ris Street 71", "short_name": "Pasir Ris Street 71", "types": ["route"]}, {"long_name": "Pasir Ris", "short_name": "Pasir Ris", "types": ["neighborhood", "political"]}, {"long_name": "Singapore", "short_name": "Singapore", "types": ["locality", "political"]}, {"long_name": "Singapore", "short_name": "SG", "types": ["country", "political"]}, {"long_name": "510772", "short_name": "510772", "types": ["postal_code"]}], "formatted_address": "772 Pasir Ris Street 71, Block 772, Singapore 510772", "geometry": {"bounds": {"northeast": {"lat": 1.3755751, "lng": 103.9370707}, "southwest": {"lat": 1.3752291, "lng": 103.9366067}}, "location": {"lat": 1.3753309, "lng": 103.9368543}, "location_type": "ROOFTOP", "viewport": {"northeast": {"lat": 1.376751080291502, "lng": 103.9381876802915}, "southwest": {"lat": 1.374053119708498, "lng": 103.9354897197085}}}, "place_id": "ChIJqTrSM5Y92jERADs7p7QAcT8", "types": ["premise"]}