{"address_components": [{"long_name": "Block 370", "short_name": "Block 370", "types": ["premise"]}, {"long_name": "370", "short_name": "370", "types": ["street_number"]}, {"long_name": "Bukit Batok Street 31", "short_name": "Bukit Batok Street 31", "types": ["route"]}, {"long_name": "Bukit Batok", "short_name": "Bukit Batok", "types": ["neighborhood", "political"]}, {"long_name": "Singapore", "short_name": "Singapore", "types": ["locality", "political"]}, {"long_name": "Singapore", "short_name": "SG", "types": ["country", "political"]}, {"long_name": "650370", "short_name": "650370", "types": ["postal_code"]}], "formatted_address": "370 Bukit Batok Street 31, Block 370, Singapore 650370", "geometry": {"bounds": {"northeast": {"lat": 1.3602174, "lng": 103.750102}, "southwest": {"lat": 1.3599142, "lng": 103.7490688}}, "location": {"lat": 1.3600039, "lng": 103.7495082}, "location_type": "ROOFTOP", "viewport": {"northeast": {"lat": 1.361414780291502, "lng": 103.7509343802915}, "southwest": {"lat": 1.358716819708498, "lng": 103.7482364197085}}}, "place_id": "ChIJZRJ71jUQ2jERSpro_qCRqos", "types": ["premise"]}