{"address_components": [{"long_name": "Block 43", "short_name": "Block 43", "types": ["premise"]}, {"long_name": "43", "short_name": "43", "types": ["street_number"]}, {"long_name": "Lorong 5 Toa Payoh", "short_name": "Lrg. 5 Toa Payoh", "types": ["route"]}, {"long_name": "Toa Payoh", "short_name": "Toa Payoh", "types": ["neighborhood", "political"]}, {"long_name": "Singapore", "short_name": "Singapore", "types": ["locality", "political"]}, {"long_name": "Singapore", "short_name": "SG", "types": ["country", "political"]}, {"long_name": "310043", "short_name": "310043", "types": ["postal_code"]}], "formatted_address": "43 Lrg. 5 Toa Payoh, Block 43, Singapore 310043", "geometry": {"bounds": {"northeast": {"lat": 1.3360922, "lng": 103.8545292}, "southwest": {"lat": 1.3355413, "lng": 103.8541352}}, "location": {"lat": 1.3356688, "lng": 103.8544609}, "location_type": "ROOFTOP", "viewport": {"northeast": {"lat": 1.337165730291502, "lng": 103.8556811802915}, "southwest": {"lat": 1.334467769708498, "lng": 103.8529832197085}}}, "place_id": "ChIJY7ukYmUX2jERCBh7k4mrnDk", "types": ["premise"]}