{"address_components": [{"long_name": "Block 227", "short_name": "Block 227", "types": ["premise"]}, {"long_name": "227", "short_name": "227", "types": ["street_number"]}, {"long_name": "Choa Chu Kang Central", "short_name": "Choa Chu Kang Central", "types": ["route"]}, {"long_name": "Choa Chu Kang", "short_name": "Choa Chu Kang", "types": ["neighborhood", "political"]}, {"long_name": "Singapore", "short_name": "Singapore", "types": ["locality", "political"]}, {"long_name": "Singapore", "short_name": "SG", "types": ["country", "political"]}, {"long_name": "680227", "short_name": "680227", "types": ["postal_code"]}], "formatted_address": "227 Choa Chu Kang Central, Block 227, Singapore 680227", "geometry": {"bounds": {"northeast": {"lat": 1.3813682, "lng": 103.746093}, "southwest": {"lat": 1.3808174, "lng": 103.7455991}}, "location": {"lat": 1.3812072, "lng": 103.7458875}, "location_type": "ROOFTOP", "viewport": {"northeast": {"lat": 1.382441780291502, "lng": 103.7471950302915}, "southwest": {"lat": 1.379743819708498, "lng": 103.7444970697085}}}, "place_id": "ChIJlxa_LMIR2jERb4ngihxSgg0", "types": ["premise"]}