{"address_components": [{"long_name": "Block 134", "short_name": "Block 134", "types": ["premise"]}, {"long_name": "134", "short_name": "134", "types": ["street_number"]}, {"long_name": "Potong Pasir Avenue 3", "short_name": "Potong Pasir Ave 3", "types": ["route"]}, {"long_name": "Toa Payoh", "short_name": "Toa Payoh", "types": ["neighborhood", "political"]}, {"long_name": "Singapore", "short_name": "Singapore", "types": ["locality", "political"]}, {"long_name": "Singapore", "short_name": "SG", "types": ["country", "political"]}, {"long_name": "350134", "short_name": "350134", "types": ["postal_code"]}], "formatted_address": "134 Potong Pasir Ave 3, Block 134, Singapore 350134", "geometry": {"bounds": {"northeast": {"lat": 1.3347932, "lng": 103.8666286}, "southwest": {"lat": 1.3342472, "lng": 103.8659674}}, "location": {"lat": 1.3345026, "lng": 103.8663286}, "location_type": "ROOFTOP", "viewport": {"northeast": {"lat": 1.335869180291502, "lng": 103.8676469802915}, "southwest": {"lat": 1.333171219708498, "lng": 103.8649490197085}}}, "place_id": "ChIJUbS-QHgX2jER5TuVp2Cgrc0", "types": ["premise"]}