{"address_components": [{"long_name": "652", "short_name": "652", "types": ["street_number"]}, {"long_name": "Senja Link", "short_name": "Senja Link", "types": ["route"]}, {"long_name": "Bukit Panjang", "short_name": "Bukit Panjang", "types": ["neighborhood", "political"]}, {"long_name": "Singapore", "short_name": "Singapore", "types": ["locality", "political"]}, {"long_name": "Singapore", "short_name": "SG", "types": ["country", "political"]}, {"long_name": "670652", "short_name": "670652", "types": ["postal_code"]}], "formatted_address": "652 Senja Link, Singapore 670652", "geometry": {"bounds": {"northeast": {"lat": 1.3876079, "lng": 103.7639747}, "southwest": {"lat": 1.3871915, "lng": 103.763539}}, "location": {"lat": 1.3873342, "lng": 103.76363}, "location_type": "ROOFTOP", "viewport": {"northeast": {"lat": 1.388748680291502, "lng": 103.7651058302915}, "southwest": {"lat": 1.386050719708498, "lng": 103.7624078697085}}}, "place_id": "ChIJE1mo4pkR2jERRTUb7bKb62c", "types": ["premise"]}