{"address_components": [{"long_name": "Block 613", "short_name": "Block 613", "types": ["premise"]}, {"long_name": "613", "short_name": "613", "types": ["street_number"]}, {"long_name": "Clementi West Street 1", "short_name": "Clementi West Street 1", "types": ["route"]}, {"long_name": "Clementi", "short_name": "Clementi", "types": ["neighborhood", "political"]}, {"long_name": "Singapore", "short_name": "Singapore", "types": ["locality", "political"]}, {"long_name": "Singapore", "short_name": "SG", "types": ["country", "political"]}, {"long_name": "120613", "short_name": "120613", "types": ["postal_code"]}], "formatted_address": "613 Clementi West Street 1, Block 613, Singapore 120613", "geometry": {"bounds": {"northeast": {"lat": 1.303867, "lng": 103.768277}, "southwest": {"lat": 1.3029519, "lng": 103.767322}}, "location": {"lat": 1.303666, "lng": 103.7677038}, "location_type": "ROOFTOP", "viewport": {"northeast": {"lat": 1.304758430291502, "lng": 103.7691484802915}, "southwest": {"lat": 1.302060469708498, "lng": 103.7664505197085}}}, "place_id": "ChIJzx-oYfEa2jER8cYBkRgKY-E", "types": ["premise"]}