{"address_components": [{"long_name": "Block 407", "short_name": "Block 407", "types": ["premise"]}, {"long_name": "407", "short_name": "407", "types": ["street_number"]}, {"long_name": "Bukit Batok West Avenue 4", "short_name": "Bukit Batok West Ave 4", "types": ["route"]}, {"long_name": "Bukit Batok", "short_name": "Bukit Batok", "types": ["neighborhood", "political"]}, {"long_name": "Singapore", "short_name": "Singapore", "types": ["locality", "political"]}, {"long_name": "Singapore", "short_name": "SG", "types": ["country", "political"]}, {"long_name": "650407", "short_name": "650407", "types": ["postal_code"]}], "formatted_address": "407 Bukit Batok West Ave 4, Block 407, Singapore 650407", "geometry": {"bounds": {"northeast": {"lat": 1.364892, "lng": 103.746157}, "southwest": {"lat": 1.3647299, "lng": 103.745426}}, "location": {"lat": 1.3647887, "lng": 103.745797}, "location_type": "ROOFTOP", "viewport": {"northeast": {"lat": 1.366159930291502, "lng": 103.7471404802915}, "southwest": {"lat": 1.363461969708498, "lng": 103.7444425197085}}}, "place_id": "ChIJd79IrMwR2jER9Gh0VSammSg", "types": ["premise"]}