{"address_components": [{"long_name": "Block 980D", "short_name": "Block 980D", "types": ["premise"]}, {"long_name": "980D", "short_name": "980D", "types": ["street_number"]}, {"long_name": "Buangkok Crescent", "short_name": "Buangkok Cres", "types": ["route"]}, {"long_name": "Hougang", "short_name": "Hougang", "types": ["neighborhood", "political"]}, {"long_name": "Singapore", "short_name": "Singapore", "types": ["locality", "political"]}, {"long_name": "Singapore", "short_name": "SG", "types": ["country", "political"]}, {"long_name": "536980", "short_name": "536980", "types": ["postal_code"]}], "formatted_address": "980D Buangkok Cres, Block 980D, Singapore 536980", "geometry": {"bounds": {"northeast": {"lat": 1.3806504, "lng": 103.8812243}, "southwest": {"lat": 1.3802787, "lng": 103.8807775}}, "location": {"lat": 1.3804415, "lng": 103.8809583}, "location_type": "ROOFTOP", "viewport": {"northeast": {"lat": 1.381813530291502, "lng": 103.8823498802915}, "southwest": {"lat": 1.379115569708498, "lng": 103.8796519197085}}}, "place_id": "ChIJDQ6g4EIW2jERx3Xvkg-EOnM", "types": ["premise"]}