{"address_components": [{"long_name": "Block 363", "short_name": "Block 363", "types": ["premise"]}, {"long_name": "363", "short_name": "363", "types": ["street_number"]}, {"long_name": "Woodlands Avenue 5", "short_name": "Woodlands Ave 5", "types": ["route"]}, {"long_name": "Woodlands", "short_name": "Woodlands", "types": ["neighborhood", "political"]}, {"long_name": "Singapore", "short_name": "Singapore", "types": ["locality", "political"]}, {"long_name": "Singapore", "short_name": "SG", "types": ["country", "political"]}, {"long_name": "730363", "short_name": "730363", "types": ["postal_code"]}], "formatted_address": "363 Woodlands Ave 5, Block 363, Singapore 730363", "geometry": {"bounds": {"northeast": {"lat": 1.4341146, "lng": 103.7863625}, "southwest": {"lat": 1.4338016, "lng": 103.7855515}}, "location": {"lat": 1.4339295, "lng": 103.7857208}, "location_type": "ROOFTOP", "viewport": {"northeast": {"lat": 1.435307080291502, "lng": 103.7873059802915}, "southwest": {"lat": 1.432609119708498, "lng": 103.7846080197085}}}, "place_id": "ChIJTzkTRK8T2jERAnXrLI1396o", "types": ["premise"]}