{"address_components": [{"long_name": "Block 117", "short_name": "Block 117", "types": ["premise"]}, {"long_name": "117", "short_name": "117", "types": ["street_number"]}, {"long_name": "Serangoon North Avenue 1", "short_name": "Serangoon North Ave 1", "types": ["route"]}, {"long_name": "Serangoon", "short_name": "Serangoon", "types": ["neighborhood", "political"]}, {"long_name": "Singapore", "short_name": "Singapore", "types": ["locality", "political"]}, {"long_name": "Singapore", "short_name": "SG", "types": ["country", "political"]}, {"long_name": "550117", "short_name": "550117", "types": ["postal_code"]}], "formatted_address": "117 Serangoon North Ave 1, Block 117, Singapore 550117", "geometry": {"bounds": {"northeast": {"lat": 1.3681571, "lng": 103.871188}, "southwest": {"lat": 1.3677942, "lng": 103.8703308}}, "location": {"lat": 1.3679354, "lng": 103.8706782}, "location_type": "ROOFTOP", "viewport": {"northeast": {"lat": 1.369324630291502, "lng": 103.8721083802915}, "southwest": {"lat": 1.366626669708498, "lng": 103.8694104197085}}}, "place_id": "ChIJ8YyC0lUW2jERFYykkVg2EGs", "types": ["premise"]}