{"address_components": [{"long_name": "Block 242", "short_name": "Block 242", "types": ["premise"]}, {"long_name": "242", "short_name": "242", "types": ["street_number"]}, {"long_name": "Bukit Batok East Avenue 5", "short_name": "Bukit Batok East Ave 5", "types": ["route"]}, {"long_name": "Bukit Batok", "short_name": "Bukit Batok", "types": ["neighborhood", "political"]}, {"long_name": "Singapore", "short_name": "Singapore", "types": ["locality", "political"]}, {"long_name": "Singapore", "short_name": "SG", "types": ["country", "political"]}, {"long_name": "650242", "short_name": "650242", "types": ["postal_code"]}], "formatted_address": "242 Bukit Batok East Ave 5, Block 242, Singapore 650242", "geometry": {"bounds": {"northeast": {"lat": 1.3510727, "lng": 103.7562394}, "southwest": {"lat": 1.3505497, "lng": 103.7556823}}, "location": {"lat": 1.350743, "lng": 103.7557576}, "location_type": "ROOFTOP", "viewport": {"northeast": {"lat": 1.352160180291502, "lng": 103.7573098302915}, "southwest": {"lat": 1.349462219708498, "lng": 103.7546118697085}}}, "place_id": "ChIJSR6azkYQ2jERT6KJuqGRLMQ", "types": ["premise"]}