{"address_components": [{"long_name": "Block 17", "short_name": "Block 17", "types": ["premise"]}, {"long_name": "17", "short_name": "17", "types": ["street_number"]}, {"long_name": "Toh Yi Drive", "short_name": "Toh Yi Dr", "types": ["route"]}, {"long_name": "Bukit Timah", "short_name": "Bukit Timah", "types": ["neighborhood", "political"]}, {"long_name": "Singapore", "short_name": "Singapore", "types": ["locality", "political"]}, {"long_name": "Singapore", "short_name": "SG", "types": ["country", "political"]}, {"long_name": "590017", "short_name": "590017", "types": ["postal_code"]}], "formatted_address": "17 Toh Yi Dr, Block 17, Singapore 590017", "geometry": {"bounds": {"northeast": {"lat": 1.339879, "lng": 103.7730551}, "southwest": {"lat": 1.339542, "lng": 103.7721239}}, "location": {"lat": 1.3398004, "lng": 103.7724115}, "location_type": "ROOFTOP", "viewport": {"northeast": {"lat": 1.341059480291502, "lng": 103.7739384802915}, "southwest": {"lat": 1.338361519708498, "lng": 103.7712405197085}}}, "place_id": "ChIJl-9RSmIQ2jERy50hNruJIe8", "types": ["premise"]}