{"address_components": [{"long_name": "Block 105", "short_name": "Block 105", "types": ["premise"]}, {"long_name": "105", "short_name": "105", "types": ["street_number"]}, {"long_name": "Potong Pasir Avenue 1", "short_name": "Potong Pasir Ave 1", "types": ["route"]}, {"long_name": "Toa Payoh", "short_name": "Toa Payoh", "types": ["neighborhood", "political"]}, {"long_name": "Singapore", "short_name": "Singapore", "types": ["locality", "political"]}, {"long_name": "Singapore", "short_name": "SG", "types": ["country", "political"]}, {"long_name": "350105", "short_name": "350105", "types": ["postal_code"]}], "formatted_address": "105 Potong Pasir Ave 1, Block 105, Singapore 350105", "geometry": {"bounds": {"northeast": {"lat": 1.3348855, "lng": 103.8690851}, "southwest": {"lat": 1.334084, "lng": 103.8683525}}, "location": {"lat": 1.3344885, "lng": 103.8687748}, "location_type": "ROOFTOP", "viewport": {"northeast": {"lat": 1.335833730291502, "lng": 103.8700677802915}, "southwest": {"lat": 1.333135769708498, "lng": 103.8673698197085}}}, "place_id": "ChIJiZVOmIIX2jERY9qtL39SVMA", "types": ["premise"]}