{"address_components": [{"long_name": "Block 968", "short_name": "Block 968", "types": ["premise"]}, {"long_name": "968", "short_name": "968", "types": ["street_number"]}, {"long_name": "Hougang Avenue 9", "short_name": "Hougang Avenue 9", "types": ["route"]}, {"long_name": "Hougang", "short_name": "Hougang", "types": ["neighborhood", "political"]}, {"long_name": "Singapore", "short_name": "Singapore", "types": ["locality", "political"]}, {"long_name": "Singapore", "short_name": "SG", "types": ["country", "political"]}, {"long_name": "530968", "short_name": "530968", "types": ["postal_code"]}], "formatted_address": "968 Hougang Avenue 9, Block 968, Singapore 530968", "geometry": {"bounds": {"northeast": {"lat": 1.3787841, "lng": 103.878908}, "southwest": {"lat": 1.378536, "lng": 103.8781049}}, "location": {"lat": 1.3787367, "lng": 103.8784692}, "location_type": "ROOFTOP", "viewport": {"northeast": {"lat": 1.380009030291502, "lng": 103.8798554302915}, "southwest": {"lat": 1.377311069708498, "lng": 103.8771574697085}}}, "place_id": "ChIJOzp4vFwW2jERSkU3FBoA8SA", "types": ["premise"]}