{"address_components": [{"long_name": "Block 357", "short_name": "Block 357", "types": ["premise"]}, {"long_name": "357", "short_name": "357", "types": ["street_number"]}, {"long_name": "Admiralty Drive", "short_name": "Admiralty Dr", "types": ["route"]}, {"long_name": "Sembawang", "short_name": "Sembawang", "types": ["neighborhood", "political"]}, {"long_name": "Singapore", "short_name": "Singapore", "types": ["locality", "political"]}, {"long_name": "Singapore", "short_name": "SG", "types": ["country", "political"]}, {"long_name": "750357", "short_name": "750357", "types": ["postal_code"]}], "formatted_address": "357 Admiralty Dr, Block 357, Singapore 750357", "geometry": {"bounds": {"northeast": {"lat": 1.4501239, "lng": 103.8166965}, "southwest": {"lat": 1.4496547, "lng": 103.8162396}}, "location": {"lat": 1.4499623, "lng": 103.8164186}, "location_type": "ROOFTOP", "viewport": {"northeast": {"lat": 1.451238280291502, "lng": 103.8178170302915}, "southwest": {"lat": 1.448540319708498, "lng": 103.8151190697085}}}, "place_id": "ChIJ6z_mZ2MT2jERc557TkSSQkA", "types": ["premise"]}