{"address_components": [{"long_name": "Block 21", "short_name": "Block 21", "types": ["premise"]}, {"long_name": "21", "short_name": "21", "types": ["street_number"]}, {"long_name": "Jalan Membina", "short_name": "Jln Membina", "types": ["route"]}, {"long_name": "Bukit Merah", "short_name": "Bukit Merah", "types": ["neighborhood", "political"]}, {"long_name": "Singapore", "short_name": "Singapore", "types": ["locality", "political"]}, {"long_name": "Singapore", "short_name": "SG", "types": ["country", "political"]}, {"long_name": "163021", "short_name": "163021", "types": ["postal_code"]}], "formatted_address": "21 Jln Membina, Block 21, Singapore 163021", "geometry": {"bounds": {"northeast": {"lat": 1.2853441, "lng": 103.8261025}, "southwest": {"lat": 1.2849861, "lng": 103.8255366}}, "location": {"lat": 1.2851341, "lng": 103.8258441}, "location_type": "ROOFTOP", "viewport": {"northeast": {"lat": 1.286514080291502, "lng": 103.8271685302915}, "southwest": {"lat": 1.283816119708498, "lng": 103.8244705697085}}}, "place_id": "ChIJf-1ml34Z2jERMJBkRd_GF7g", "types": ["premise"]}