{"address_components": [{"long_name": "Block 651", "short_name": "Block 651", "types": ["premise"]}, {"long_name": "651", "short_name": "651", "types": ["street_number"]}, {"long_name": "Jalan Tenaga", "short_name": "Jln Tenaga", "types": ["route"]}, {"long_name": "Bedok", "short_name": "Bedok", "types": ["neighborhood", "political"]}, {"long_name": "Singapore", "short_name": "Singapore", "types": ["locality", "political"]}, {"long_name": "Singapore", "short_name": "SG", "types": ["country", "political"]}, {"long_name": "410651", "short_name": "410651", "types": ["postal_code"]}], "formatted_address": "651 Jln Tenaga, Block 651, Singapore 410651", "geometry": {"bounds": {"northeast": {"lat": 1.3324032, "lng": 103.9076895}, "southwest": {"lat": 1.3318593, "lng": 103.9069796}}, "location": {"lat": 1.3322173, "lng": 103.9073754}, "location_type": "ROOFTOP", "viewport": {"northeast": {"lat": 1.333480230291502, "lng": 103.9086835302915}, "southwest": {"lat": 1.330782269708498, "lng": 103.9059855697085}}}, "place_id": "ChIJMaD9lPsX2jEReMVxBTMClwc", "types": ["premise"]}