{"address_components": [{"long_name": "Block 329", "short_name": "Block 329", "types": ["premise"]}, {"long_name": "329", "short_name": "329", "types": ["street_number"]}, {"long_name": "Sembawang Close", "short_name": "Sembawang Cl", "types": ["route"]}, {"long_name": "Sembawang", "short_name": "Sembawang", "types": ["neighborhood", "political"]}, {"long_name": "Singapore", "short_name": "Singapore", "types": ["locality", "political"]}, {"long_name": "Singapore", "short_name": "SG", "types": ["country", "political"]}, {"long_name": "750329", "short_name": "750329", "types": ["postal_code"]}], "formatted_address": "329 Sembawang Cl, Block 329, Singapore 750329", "geometry": {"bounds": {"northeast": {"lat": 1.4464549, "lng": 103.8179837}, "southwest": {"lat": 1.4460149, "lng": 103.8173936}}, "location": {"lat": 1.4463021, "lng": 103.8177091}, "location_type": "ROOFTOP", "viewport": {"northeast": {"lat": 1.447583880291502, "lng": 103.8190376302915}, "southwest": {"lat": 1.444885919708498, "lng": 103.8163396697085}}}, "place_id": "ChIJ6cRIX3wT2jERZiYqYaJ44Kc", "types": ["premise"]}