{"address_components": [{"long_name": "Block 112", "short_name": "Block 112", "types": ["premise"]}, {"long_name": "112", "short_name": "112", "types": ["street_number"]}, {"long_name": "Aljunied Crescent", "short_name": "Aljunied Cres", "types": ["route"]}, {"long_name": "Geylang", "short_name": "Geylang", "types": ["neighborhood", "political"]}, {"long_name": "Singapore", "short_name": "Singapore", "types": ["locality", "political"]}, {"long_name": "Singapore", "short_name": "SG", "types": ["country", "political"]}, {"long_name": "380112", "short_name": "380112", "types": ["postal_code"]}], "formatted_address": "112 Aljunied Cres, Block 112, Singapore 380112", "geometry": {"bounds": {"northeast": {"lat": 1.3205483, "lng": 103.8854868}, "southwest": {"lat": 1.3202686, "lng": 103.884728}}, "location": {"lat": 1.3203815, "lng": 103.8851348}, "location_type": "ROOFTOP", "viewport": {"northeast": {"lat": 1.321757430291502, "lng": 103.8864563802915}, "southwest": {"lat": 1.319059469708498, "lng": 103.8837584197085}}}, "place_id": "ChIJDyGxdCQY2jERpbA1yvxQ5YY", "types": ["premise"]}