{"address_components": [{"long_name": "Block 708", "short_name": "Block 708", "types": ["premise"]}, {"long_name": "708", "short_name": "708", "types": ["street_number"]}, {"long_name": "Hougang Avenue 2", "short_name": "Hougang Ave 2", "types": ["route"]}, {"long_name": "Hougang", "short_name": "Hougang", "types": ["neighborhood", "political"]}, {"long_name": "Singapore", "short_name": "Singapore", "types": ["locality", "political"]}, {"long_name": "Singapore", "short_name": "SG", "types": ["country", "political"]}, {"long_name": "530708", "short_name": "530708", "types": ["postal_code"]}], "formatted_address": "708 Hougang Ave 2, Block 708, Singapore 530708", "geometry": {"bounds": {"northeast": {"lat": 1.366814, "lng": 103.8894665}, "southwest": {"lat": 1.3664579, "lng": 103.8887456}}, "location": {"lat": 1.3667326, "lng": 103.8891611}, "location_type": "ROOFTOP", "viewport": {"northeast": {"lat": 1.367984930291502, "lng": 103.8904550302915}, "southwest": {"lat": 1.365286969708498, "lng": 103.8877570697085}}}, "place_id": "ChIJX7WPWkoW2jERlKR_xNSP96o", "types": ["premise"]}