{"address_components": [{"long_name": "Block 786", "short_name": "Block 786", "types": ["premise"]}, {"long_name": "786", "short_name": "786", "types": ["street_number"]}, {"long_name": "Choa Chu Kang Drive", "short_name": "Choa Chu Kang Dr", "types": ["route"]}, {"long_name": "Choa Chu Kang", "short_name": "Choa Chu Kang", "types": ["neighborhood", "political"]}, {"long_name": "Singapore", "short_name": "Singapore", "types": ["locality", "political"]}, {"long_name": "Singapore", "short_name": "SG", "types": ["country", "political"]}, {"long_name": "680786", "short_name": "680786", "types": ["postal_code"]}], "formatted_address": "786 Choa Chu Kang Dr, Block 786, Singapore 680786", "geometry": {"bounds": {"northeast": {"lat": 1.3954013, "lng": 103.748721}, "southwest": {"lat": 1.3949352, "lng": 103.7482481}}, "location": {"lat": 1.395123, "lng": 103.748603}, "location_type": "ROOFTOP", "viewport": {"northeast": {"lat": 1.396517230291502, "lng": 103.7498335302915}, "southwest": {"lat": 1.393819269708498, "lng": 103.7471355697085}}}, "place_id": "ChIJuYiWsvMR2jERWdrO1dT4ctk", "types": ["premise"]}