{"address_components": [{"long_name": "Block 621", "short_name": "Block 621", "types": ["premise"]}, {"long_name": "621", "short_name": "621", "types": ["street_number"]}, {"long_name": "Jurong West Street 65", "short_name": "Jurong West Street 65", "types": ["route"]}, {"long_name": "Jurong West", "short_name": "Jurong West", "types": ["neighborhood", "political"]}, {"long_name": "Singapore", "short_name": "Singapore", "types": ["locality", "political"]}, {"long_name": "Singapore", "short_name": "SG", "types": ["country", "political"]}, {"long_name": "640621", "short_name": "640621", "types": ["postal_code"]}], "formatted_address": "621 Jurong West Street 65, Block 621, Singapore 640621", "geometry": {"bounds": {"northeast": {"lat": 1.3411453, "lng": 103.6997357}, "southwest": {"lat": 1.3407572, "lng": 103.6992008}}, "location": {"lat": 1.3408761, "lng": 103.6995509}, "location_type": "ROOFTOP", "viewport": {"northeast": {"lat": 1.342300230291502, "lng": 103.7008172302915}, "southwest": {"lat": 1.339602269708498, "lng": 103.6981192697085}}}, "place_id": "ChIJT15HUZEP2jERY6i-froOi1w", "types": ["premise"]}