{"address_components": [{"long_name": "Block 539", "short_name": "Block 539", "types": ["premise"]}, {"long_name": "539", "short_name": "539", "types": ["street_number"]}, {"long_name": "Bukit Batok Street 52", "short_name": "Bukit Batok Street 52", "types": ["route"]}, {"long_name": "Bukit Batok", "short_name": "Bukit Batok", "types": ["neighborhood", "political"]}, {"long_name": "Singapore", "short_name": "Singapore", "types": ["locality", "political"]}, {"long_name": "Singapore", "short_name": "SG", "types": ["country", "political"]}, {"long_name": "650539", "short_name": "650539", "types": ["postal_code"]}], "formatted_address": "539 Bukit Batok Street 52, Block 539, Singapore 650539", "geometry": {"bounds": {"northeast": {"lat": 1.3548544, "lng": 103.7512768}, "southwest": {"lat": 1.3547175, "lng": 103.7505047}}, "location": {"lat": 1.3547939, "lng": 103.750866}, "location_type": "ROOFTOP", "viewport": {"northeast": {"lat": 1.356134930291502, "lng": 103.7522397302915}, "southwest": {"lat": 1.353436969708498, "lng": 103.7495417697085}}}, "place_id": "ChIJjZnrGDgQ2jERnVqHPct-klU", "types": ["premise"]}