{"address_components": [{"long_name": "Block 481", "short_name": "Block 481", "types": ["premise"]}, {"long_name": "481", "short_name": "481", "types": ["street_number"]}, {"long_name": "Segar Road", "short_name": "Segar Rd", "types": ["route"]}, {"long_name": "Bukit Panjang", "short_name": "Bukit Panjang", "types": ["neighborhood", "political"]}, {"long_name": "Singapore", "short_name": "Singapore", "types": ["locality", "political"]}, {"long_name": "Singapore", "short_name": "SG", "types": ["country", "political"]}, {"long_name": "670481", "short_name": "670481", "types": ["postal_code"]}], "formatted_address": "481 Segar Rd, Block 481, Singapore 670481", "geometry": {"bounds": {"northeast": {"lat": 1.389533, "lng": 103.772332}, "southwest": {"lat": 1.3892541, "lng": 103.77191}}, "location": {"lat": 1.3894105, "lng": 103.7720494}, "location_type": "ROOFTOP", "viewport": {"northeast": {"lat": 1.390742530291502, "lng": 103.7734699802915}, "southwest": {"lat": 1.388044569708498, "lng": 103.7707720197085}}}, "place_id": "ChIJA09xTJwR2jERPfINbZgar7A", "types": ["premise"]}