{"address_components": [{"long_name": "Block 339", "short_name": "Block 339", "types": ["premise"]}, {"long_name": "339", "short_name": "339", "types": ["street_number"]}, {"long_name": "Bukit Batok Street 34", "short_name": "Bukit Batok Street 34", "types": ["route"]}, {"long_name": "Bukit Batok", "short_name": "Bukit Batok", "types": ["neighborhood", "political"]}, {"long_name": "Singapore", "short_name": "Singapore", "types": ["locality", "political"]}, {"long_name": "Singapore", "short_name": "SG", "types": ["country", "political"]}, {"long_name": "650339", "short_name": "650339", "types": ["postal_code"]}], "formatted_address": "339 Bukit Batok Street 34, Block 339, Singapore 650339", "geometry": {"bounds": {"northeast": {"lat": 1.3632629, "lng": 103.7510082}, "southwest": {"lat": 1.3631059, "lng": 103.7500691}}, "location": {"lat": 1.3631512, "lng": 103.7501419}, "location_type": "ROOFTOP", "viewport": {"northeast": {"lat": 1.364533380291502, "lng": 103.7518876302915}, "southwest": {"lat": 1.361835419708498, "lng": 103.7491896697085}}}, "place_id": "ChIJ3Uu6FDUQ2jERJwu6YMjzWWU", "types": ["premise"]}