{"address_components": [{"long_name": "Block 351", "short_name": "Block 351", "types": ["premise"]}, {"long_name": "351", "short_name": "351", "types": ["street_number"]}, {"long_name": "Ubi Avenue 1", "short_name": "Ubi Ave 1", "types": ["route"]}, {"long_name": "Geylang", "short_name": "Geylang", "types": ["neighborhood", "political"]}, {"long_name": "Singapore", "short_name": "Singapore", "types": ["locality", "political"]}, {"long_name": "Singapore", "short_name": "SG", "types": ["country", "political"]}, {"long_name": "400351", "short_name": "400351", "types": ["postal_code"]}], "formatted_address": "351 Ubi Ave 1, Block 351, Singapore 400351", "geometry": {"bounds": {"northeast": {"lat": 1.3257294, "lng": 103.9011626}, "southwest": {"lat": 1.3254059, "lng": 103.9002796}}, "location": {"lat": 1.3255966, "lng": 103.90076}, "location_type": "ROOFTOP", "viewport": {"northeast": {"lat": 1.326916630291502, "lng": 103.9020700802915}, "southwest": {"lat": 1.324218669708498, "lng": 103.8993721197085}}}, "place_id": "ChIJm6Qrbh0Y2jER6vMm6P_8OMY", "types": ["premise"]}