{"address_components": [{"long_name": "Block 507", "short_name": "Block 507", "types": ["premise"]}, {"long_name": "507", "short_name": "507", "types": ["street_number"]}, {"long_name": "Jelapang Road", "short_name": "Jelapang Rd", "types": ["route"]}, {"long_name": "Bukit Panjang", "short_name": "Bukit Panjang", "types": ["neighborhood", "political"]}, {"long_name": "Singapore", "short_name": "Singapore", "types": ["locality", "political"]}, {"long_name": "Singapore", "short_name": "SG", "types": ["country", "political"]}, {"long_name": "670507", "short_name": "670507", "types": ["postal_code"]}], "formatted_address": "507 Jelapang Rd, Block 507, Singapore 670507", "geometry": {"bounds": {"northeast": {"lat": 1.3869635, "lng": 103.768292}, "southwest": {"lat": 1.3864315, "lng": 103.7677011}}, "location": {"lat": 1.386594, "lng": 103.7679075}, "location_type": "ROOFTOP", "viewport": {"northeast": {"lat": 1.388046480291502, "lng": 103.7693455302915}, "southwest": {"lat": 1.385348519708498, "lng": 103.7666475697085}}}, "place_id": "ChIJ_ftuFZkR2jERrWY6KV2A7c8", "types": ["premise"]}