{"address_components": [{"long_name": "Block 865", "short_name": "Block 865", "types": ["premise"]}, {"long_name": "865", "short_name": "865", "types": ["street_number"]}, {"long_name": "Yishun Street 81", "short_name": "Yishun Street 81", "types": ["route"]}, {"long_name": "Yishun", "short_name": "Yishun", "types": ["neighborhood", "political"]}, {"long_name": "Singapore", "short_name": "Singapore", "types": ["locality", "political"]}, {"long_name": "Singapore", "short_name": "SG", "types": ["country", "political"]}, {"long_name": "760865", "short_name": "760865", "types": ["postal_code"]}], "formatted_address": "865 Yishun Street 81, Block 865, Singapore 760865", "geometry": {"bounds": {"northeast": {"lat": 1.4144677, "lng": 103.8387025}, "southwest": {"lat": 1.4137416, "lng": 103.8379614}}, "location": {"lat": 1.414164, "lng": 103.838518}, "location_type": "ROOFTOP", "viewport": {"northeast": {"lat": 1.415453630291502, "lng": 103.8396809302915}, "southwest": {"lat": 1.412755669708498, "lng": 103.8369829697085}}}, "place_id": "ChIJvb0zOhEU2jERebO8XwTSSKc", "types": ["premise"]}