{"address_components": [{"long_name": "Block 709", "short_name": "Block 709", "types": ["premise"]}, {"long_name": "709", "short_name": "709", "types": ["street_number"]}, {"long_name": "Clementi West Street 2", "short_name": "Clementi West Street 2", "types": ["route"]}, {"long_name": "Clementi", "short_name": "Clementi", "types": ["neighborhood", "political"]}, {"long_name": "Singapore", "short_name": "Singapore", "types": ["locality", "political"]}, {"long_name": "Singapore", "short_name": "SG", "types": ["country", "political"]}, {"long_name": "120709", "short_name": "120709", "types": ["postal_code"]}], "formatted_address": "709 Clementi West Street 2, Block 709, Singapore 120709", "geometry": {"bounds": {"northeast": {"lat": 1.3055738, "lng": 103.7624535}, "southwest": {"lat": 1.3050709, "lng": 103.7614906}}, "location": {"lat": 1.3053075, "lng": 103.7620004}, "location_type": "ROOFTOP", "viewport": {"northeast": {"lat": 1.306671330291502, "lng": 103.7633210302915}, "southwest": {"lat": 1.303973369708498, "lng": 103.7606230697085}}}, "place_id": "ChIJ1adJo-0a2jERdGGtFrclqEo", "types": ["premise"]}