{"address_components": [{"long_name": "Block 761", "short_name": "Block 761", "types": ["premise"]}, {"long_name": "761", "short_name": "761", "types": ["street_number"]}, {"long_name": "Pasir Ris Street 71", "short_name": "Pasir Ris Street 71", "types": ["route"]}, {"long_name": "Pasir Ris", "short_name": "Pasir Ris", "types": ["neighborhood", "political"]}, {"long_name": "Singapore", "short_name": "Singapore", "types": ["locality", "political"]}, {"long_name": "Singapore", "short_name": "SG", "types": ["country", "political"]}, {"long_name": "510761", "short_name": "510761", "types": ["postal_code"]}], "formatted_address": "761 Pasir Ris Street 71, Block 761, Singapore 510761", "geometry": {"bounds": {"northeast": {"lat": 1.3765956, "lng": 103.9340414}, "southwest": {"lat": 1.3760325, "lng": 103.9337546}}, "location": {"lat": 1.3764287, "lng": 103.9339311}, "location_type": "ROOFTOP", "viewport": {"northeast": {"lat": 1.377663030291502, "lng": 103.9352469802915}, "southwest": {"lat": 1.374965069708498, "lng": 103.9325490197085}}}, "place_id": "ChIJDzTE7JY92jERw3ZzOSNUN7Y", "types": ["premise"]}