{"address_components": [{"long_name": "Block 767", "short_name": "Block 767", "types": ["premise"]}, {"long_name": "767", "short_name": "767", "types": ["street_number"]}, {"long_name": "Woodlands Circle", "short_name": "Woodlands Cir", "types": ["route"]}, {"long_name": "Woodlands", "short_name": "Woodlands", "types": ["neighborhood", "political"]}, {"long_name": "Singapore", "short_name": "Singapore", "types": ["locality", "political"]}, {"long_name": "Singapore", "short_name": "SG", "types": ["country", "political"]}, {"long_name": "730767", "short_name": "730767", "types": ["postal_code"]}], "formatted_address": "767 Woodlands Cir, Block 767, Singapore 730767", "geometry": {"bounds": {"northeast": {"lat": 1.446477, "lng": 103.797697}, "southwest": {"lat": 1.4460131, "lng": 103.797124}}, "location": {"lat": 1.4462623, "lng": 103.797492}, "location_type": "ROOFTOP", "viewport": {"northeast": {"lat": 1.447594030291502, "lng": 103.7987594802915}, "southwest": {"lat": 1.444896069708498, "lng": 103.7960615197085}}}, "place_id": "ChIJ-Sg62QwT2jERqGc8ptijcgM", "types": ["premise"]}