{"address_components": [{"long_name": "Block 152", "short_name": "Block 152", "types": ["premise"]}, {"long_name": "152", "short_name": "152", "types": ["street_number"]}, {"long_name": "Yung Ho Road", "short_name": "Yung Ho Rd", "types": ["route"]}, {"long_name": "Jurong West", "short_name": "Jurong West", "types": ["neighborhood", "political"]}, {"long_name": "Singapore", "short_name": "Singapore", "types": ["locality", "political"]}, {"long_name": "Singapore", "short_name": "SG", "types": ["country", "political"]}, {"long_name": "610152", "short_name": "610152", "types": ["postal_code"]}], "formatted_address": "152 Yung Ho Rd, Block 152, Singapore 610152", "geometry": {"bounds": {"northeast": {"lat": 1.3279168, "lng": 103.7208928}, "southwest": {"lat": 1.3269115, "lng": 103.7201881}}, "location": {"lat": 1.3274286, "lng": 103.7202737}, "location_type": "ROOFTOP", "viewport": {"northeast": {"lat": 1.328763130291502, "lng": 103.7218894302915}, "southwest": {"lat": 1.326065169708498, "lng": 103.7191914697085}}}, "place_id": "ChIJCfOhgfgP2jERs3101gQJRJc", "types": ["premise"]}