{"address_components": [{"long_name": "Block 478", "short_name": "Block 478", "types": ["premise"]}, {"long_name": "478", "short_name": "478", "types": ["street_number"]}, {"long_name": "Segar Road", "short_name": "Segar Rd", "types": ["route"]}, {"long_name": "Bukit Panjang", "short_name": "Bukit Panjang", "types": ["neighborhood", "political"]}, {"long_name": "Singapore", "short_name": "Singapore", "types": ["locality", "political"]}, {"long_name": "Singapore", "short_name": "SG", "types": ["country", "political"]}, {"long_name": "670478", "short_name": "670478", "types": ["postal_code"]}], "formatted_address": "478 Segar Rd, Block 478, Singapore 670478", "geometry": {"bounds": {"northeast": {"lat": 1.389754, "lng": 103.77308}, "southwest": {"lat": 1.389399, "lng": 103.7726942}}, "location": {"lat": 1.3896256, "lng": 103.7728642}, "location_type": "ROOFTOP", "viewport": {"northeast": {"lat": 1.390925480291502, "lng": 103.7742360802915}, "southwest": {"lat": 1.388227519708498, "lng": 103.7715381197085}}}, "place_id": "ChIJQ5a2sZ0R2jERzbhUwmhc0qs", "types": ["premise"]}