{"address_components": [{"long_name": "Block 512", "short_name": "Block 512", "types": ["premise"]}, {"long_name": "512", "short_name": "512", "types": ["street_number"]}, {"long_name": "Hougang Avenue 10", "short_name": "Hougang Ave 10", "types": ["route"]}, {"long_name": "Hougang", "short_name": "Hougang", "types": ["neighborhood", "political"]}, {"long_name": "Singapore", "short_name": "Singapore", "types": ["locality", "political"]}, {"long_name": "Singapore", "short_name": "SG", "types": ["country", "political"]}, {"long_name": "530512", "short_name": "530512", "types": ["postal_code"]}], "formatted_address": "512 Hougang Ave 10, Block 512, Singapore 530512", "geometry": {"bounds": {"northeast": {"lat": 1.3717248, "lng": 103.8892645}, "southwest": {"lat": 1.3710786, "lng": 103.8883462}}, "location": {"lat": 1.3713494, "lng": 103.8887986}, "location_type": "ROOFTOP", "viewport": {"northeast": {"lat": 1.372750680291502, "lng": 103.8901543302915}, "southwest": {"lat": 1.370052719708498, "lng": 103.8874563697085}}}, "place_id": "ChIJo95-UEgW2jERCaU9vyId3L0", "types": ["premise"]}