{"address_components": [{"long_name": "Block 124", "short_name": "Block 124", "types": ["premise"]}, {"long_name": "124", "short_name": "124", "types": ["street_number"]}, {"long_name": "Bishan Street 12", "short_name": "Bishan Street 12", "types": ["route"]}, {"long_name": "Bishan", "short_name": "Bishan", "types": ["neighborhood", "political"]}, {"long_name": "Singapore", "short_name": "Singapore", "types": ["locality", "political"]}, {"long_name": "Singapore", "short_name": "SG", "types": ["country", "political"]}, {"long_name": "570124", "short_name": "570124", "types": ["postal_code"]}], "formatted_address": "124 Bishan Street 12, Block 124, Singapore 570124", "geometry": {"bounds": {"northeast": {"lat": 1.3467827, "lng": 103.8516274}, "southwest": {"lat": 1.3463137, "lng": 103.8508974}}, "location": {"lat": 1.3463772, "lng": 103.8510185}, "location_type": "ROOFTOP", "viewport": {"northeast": {"lat": 1.347897180291502, "lng": 103.8526113802915}, "southwest": {"lat": 1.345199219708498, "lng": 103.8499134197085}}}, "place_id": "ChIJOcS3ZxMX2jERwjHEJVB7Vl4", "types": ["premise"]}