{"address_components": [{"long_name": "311A", "short_name": "311A", "types": ["street_number"]}, {"long_name": "Clementi Avenue 4", "short_name": "Clementi Ave 4", "types": ["route"]}, {"long_name": "Clementi", "short_name": "Clementi", "types": ["neighborhood", "political"]}, {"long_name": "Singapore", "short_name": "Singapore", "types": ["locality", "political"]}, {"long_name": "Singapore", "short_name": "SG", "types": ["country", "political"]}, {"long_name": "121311", "short_name": "121311", "types": ["postal_code"]}], "formatted_address": "311A Clementi Ave 4, Singapore 121311", "geometry": {"bounds": {"northeast": {"lat": 1.3192142, "lng": 103.7658889}, "southwest": {"lat": 1.3188392, "lng": 103.7654148}}, "location": {"lat": 1.3190461, "lng": 103.7656216}, "location_type": "ROOFTOP", "viewport": {"northeast": {"lat": 1.320375680291502, "lng": 103.7670008302915}, "southwest": {"lat": 1.317677719708498, "lng": 103.7643028697085}}}, "place_id": "ChIJvULfbIUa2jER14iU2lIXV6g", "types": ["premise"]}