{"address_components": [{"long_name": "55", "short_name": "55", "types": ["street_number"]}, {"long_name": "Havelock Road", "short_name": "Havelock Rd", "types": ["route"]}, {"long_name": "Bukit Merah", "short_name": "Bukit Merah", "types": ["neighborhood", "political"]}, {"long_name": "Singapore", "short_name": "Singapore", "types": ["locality", "political"]}, {"long_name": "Singapore", "short_name": "SG", "types": ["country", "political"]}, {"long_name": "161055", "short_name": "161055", "types": ["postal_code"]}], "formatted_address": "55 Havelock Rd, Singapore 161055", "geometry": {"bounds": {"northeast": {"lat": 1.290263, "lng": 103.8294218}, "southwest": {"lat": 1.2899087, "lng": 103.8291207}}, "location": {"lat": 1.2901025, "lng": 103.8292566}, "location_type": "ROOFTOP", "viewport": {"northeast": {"lat": 1.291434830291502, "lng": 103.8306202302915}, "southwest": {"lat": 1.288736869708498, "lng": 103.8279222697085}}}, "place_id": "ChIJV8wPboIZ2jERGMPvvZhX_D0", "types": ["premise"]}