{"address_components": [{"long_name": "Block 699C", "short_name": "Block 699C", "types": ["premise"]}, {"long_name": "699C", "short_name": "699C", "types": ["street_number"]}, {"long_name": "Hougang Street 52", "short_name": "Hougang Street 52", "types": ["route"]}, {"long_name": "Hougang", "short_name": "Hougang", "types": ["neighborhood", "political"]}, {"long_name": "Singapore", "short_name": "Singapore", "types": ["locality", "political"]}, {"long_name": "Singapore", "short_name": "SG", "types": ["country", "political"]}, {"long_name": "533699", "short_name": "533699", "types": ["postal_code"]}], "formatted_address": "699C Hougang Street 52, Block 699C, Singapore 533699", "geometry": {"bounds": {"northeast": {"lat": 1.3767662, "lng": 103.8888603}, "southwest": {"lat": 1.3761582, "lng": 103.8881183}}, "location": {"lat": 1.3764068, "lng": 103.8883456}, "location_type": "ROOFTOP", "viewport": {"northeast": {"lat": 1.377811180291502, "lng": 103.8898382802915}, "southwest": {"lat": 1.375113219708498, "lng": 103.8871403197085}}}, "place_id": "ChIJnWySHkcW2jERAXtk6ZRrynA", "types": ["premise"]}