{"address_components": [{"long_name": "Block 59", "short_name": "Block 59", "types": ["premise"]}, {"long_name": "59", "short_name": "59", "types": ["street_number"]}, {"long_name": "Strathmore Avenue", "short_name": "Strathmore Ave", "types": ["route"]}, {"long_name": "Queenstown", "short_name": "Queenstown", "types": ["neighborhood", "political"]}, {"long_name": "Singapore", "short_name": "Singapore", "types": ["locality", "political"]}, {"long_name": "Singapore", "short_name": "SG", "types": ["country", "political"]}, {"long_name": "142059", "short_name": "142059", "types": ["postal_code"]}], "formatted_address": "59 Strathmore Ave, Block 59, Singapore 142059", "geometry": {"bounds": {"northeast": {"lat": 1.2932799, "lng": 103.811506}, "southwest": {"lat": 1.2929819, "lng": 103.8110808}}, "location": {"lat": 1.2931824, "lng": 103.8112565}, "location_type": "ROOFTOP", "viewport": {"northeast": {"lat": 1.294479880291502, "lng": 103.8126423802915}, "southwest": {"lat": 1.291781919708498, "lng": 103.8099444197085}}}, "place_id": "ChIJIylm6S0a2jERqOZkmNJV9gU", "types": ["premise"]}