{"address_components": [{"long_name": "Block 692A", "short_name": "Block 692A", "types": ["premise"]}, {"long_name": "692A", "short_name": "692A", "types": ["street_number"]}, {"long_name": "Choa Chu Kang Crescent", "short_name": "Choa Chu Kang Cres", "types": ["route"]}, {"long_name": "Choa Chu Kang", "short_name": "Choa Chu Kang", "types": ["neighborhood", "political"]}, {"long_name": "Singapore", "short_name": "Singapore", "types": ["locality", "political"]}, {"long_name": "Singapore", "short_name": "SG", "types": ["country", "political"]}, {"long_name": "681692", "short_name": "681692", "types": ["postal_code"]}], "formatted_address": "692A Choa Chu Kang Cres, Block 692A, Singapore 681692", "geometry": {"bounds": {"northeast": {"lat": 1.400367, "lng": 103.751609}, "southwest": {"lat": 1.400036, "lng": 103.7510691}}, "location": {"lat": 1.4002592, "lng": 103.751296}, "location_type": "ROOFTOP", "viewport": {"northeast": {"lat": 1.401550480291502, "lng": 103.7526880302915}, "southwest": {"lat": 1.398852519708498, "lng": 103.7499900697085}}}, "place_id": "ChIJ0RqCJfUR2jERg9jrihRpsh0", "types": ["premise"]}