{"address_components": [{"long_name": "Block 517", "short_name": "Block 517", "types": ["premise"]}, {"long_name": "517", "short_name": "517", "types": ["street_number"]}, {"long_name": "Choa Chu Kang Street 51", "short_name": "Choa Chu Kang Street 51", "types": ["route"]}, {"long_name": "Choa Chu Kang", "short_name": "Choa Chu Kang", "types": ["neighborhood", "political"]}, {"long_name": "Singapore", "short_name": "Singapore", "types": ["locality", "political"]}, {"long_name": "Singapore", "short_name": "SG", "types": ["country", "political"]}, {"long_name": "680517", "short_name": "680517", "types": ["postal_code"]}], "formatted_address": "517 Choa Chu Kang Street 51, Block 517, Singapore 680517", "geometry": {"bounds": {"northeast": {"lat": 1.3911551, "lng": 103.743112}, "southwest": {"lat": 1.390564, "lng": 103.742687}}, "location": {"lat": 1.3910501, "lng": 103.7429005}, "location_type": "ROOFTOP", "viewport": {"northeast": {"lat": 1.392208530291502, "lng": 103.7442484802915}, "southwest": {"lat": 1.389510569708498, "lng": 103.7415505197085}}}, "place_id": "ChIJ6Sj4ru8R2jER753qKWqnmKA", "types": ["premise"]}