{"address_components": [{"long_name": "Block 280", "short_name": "Block 280", "types": ["premise"]}, {"long_name": "280", "short_name": "280", "types": ["street_number"]}, {"long_name": "Bukit Batok East Avenue 3", "short_name": "Bukit Batok East Ave 3", "types": ["route"]}, {"long_name": "Bukit Batok", "short_name": "Bukit Batok", "types": ["neighborhood", "political"]}, {"long_name": "Singapore", "short_name": "Singapore", "types": ["locality", "political"]}, {"long_name": "Singapore", "short_name": "SG", "types": ["country", "political"]}, {"long_name": "650280", "short_name": "650280", "types": ["postal_code"]}], "formatted_address": "280 Bukit Batok East Ave 3, Block 280, Singapore 650280", "geometry": {"bounds": {"northeast": {"lat": 1.3482197, "lng": 103.75733}, "southwest": {"lat": 1.3476068, "lng": 103.75679}}, "location": {"lat": 1.3478798, "lng": 103.7568434}, "location_type": "ROOFTOP", "viewport": {"northeast": {"lat": 1.349262230291502, "lng": 103.7584089802915}, "southwest": {"lat": 1.346564269708498, "lng": 103.7557110197085}}}, "place_id": "ChIJSS-VnEEQ2jERa5paumdgUDo", "types": ["premise"]}