{"address_components": [{"long_name": "Block 642B", "short_name": "Block 642B", "types": ["premise"]}, {"long_name": "642B", "short_name": "642B", "types": ["street_number"]}, {"long_name": "Punggol Drive", "short_name": "Punggol Dr", "types": ["route"]}, {"long_name": "Punggol", "short_name": "Punggol", "types": ["neighborhood", "political"]}, {"long_name": "Singapore", "short_name": "Singapore", "types": ["locality", "political"]}, {"long_name": "Singapore", "short_name": "SG", "types": ["country", "political"]}, {"long_name": "822642", "short_name": "822642", "types": ["postal_code"]}], "formatted_address": "642B Punggol Dr, Block 642B, Singapore 822642", "geometry": {"bounds": {"northeast": {"lat": 1.3985609, "lng": 103.9165921}, "southwest": {"lat": 1.3981776, "lng": 103.9162285}}, "location": {"lat": 1.3983563, "lng": 103.9163717}, "location_type": "ROOFTOP", "viewport": {"northeast": {"lat": 1.399718230291502, "lng": 103.9177592802915}, "southwest": {"lat": 1.397020269708498, "lng": 103.9150613197085}}}, "place_id": "ChIJFS2xD_892jERPUCmbrmOWb8", "types": ["premise"]}