{"address_components": [{"long_name": "Block 119", "short_name": "Block 119", "types": ["premise"]}, {"long_name": "119", "short_name": "119", "types": ["street_number"]}, {"long_name": "Potong Pasir Avenue 1", "short_name": "Potong Pasir Ave 1", "types": ["route"]}, {"long_name": "Toa Payoh", "short_name": "Toa Payoh", "types": ["neighborhood", "political"]}, {"long_name": "Singapore", "short_name": "Singapore", "types": ["locality", "political"]}, {"long_name": "Singapore", "short_name": "SG", "types": ["country", "political"]}, {"long_name": "350119", "short_name": "350119", "types": ["postal_code"]}], "formatted_address": "119 Potong Pasir Ave 1, Block 119, Singapore 350119", "geometry": {"bounds": {"northeast": {"lat": 1.3349691, "lng": 103.8631904}, "southwest": {"lat": 1.3344532, "lng": 103.8626994}}, "location": {"lat": 1.3345241, "lng": 103.8629711}, "location_type": "ROOFTOP", "viewport": {"northeast": {"lat": 1.336060130291502, "lng": 103.8642938802915}, "southwest": {"lat": 1.333362169708498, "lng": 103.8615959197085}}}, "place_id": "ChIJRV-J8nkX2jER21Aszakllgk", "types": ["premise"]}