{"address_components": [{"long_name": "Block 461", "short_name": "Block 461", "types": ["premise"]}, {"long_name": "461", "short_name": "461", "types": ["street_number"]}, {"long_name": "Tampines Street 44", "short_name": "Tampines Street 44", "types": ["route"]}, {"long_name": "Tampines", "short_name": "Tampines", "types": ["neighborhood", "political"]}, {"long_name": "Singapore", "short_name": "Singapore", "types": ["locality", "political"]}, {"long_name": "Singapore", "short_name": "SG", "types": ["country", "political"]}, {"long_name": "520461", "short_name": "520461", "types": ["postal_code"]}], "formatted_address": "461 Tampines Street 44, Block 461, Singapore 520461", "geometry": {"bounds": {"northeast": {"lat": 1.3591, "lng": 103.9547181}, "southwest": {"lat": 1.3587758, "lng": 103.9540356}}, "location": {"lat": 1.3588793, "lng": 103.9543271}, "location_type": "ROOFTOP", "viewport": {"northeast": {"lat": 1.360286880291502, "lng": 103.9557258302915}, "southwest": {"lat": 1.357588919708498, "lng": 103.9530278697085}}}, "place_id": "ChIJ5-qfqAY92jERrKkdIGuIJ9Y", "types": ["premise"]}