{"address_components": [{"long_name": "Block 661", "short_name": "Block 661", "types": ["premise"]}, {"long_name": "661", "short_name": "661", "types": ["street_number"]}, {"long_name": "Choa Chu Kang Crescent", "short_name": "Choa Chu Kang Cres", "types": ["route"]}, {"long_name": "Choa Chu Kang", "short_name": "Choa Chu Kang", "types": ["neighborhood", "political"]}, {"long_name": "Singapore", "short_name": "Singapore", "types": ["locality", "political"]}, {"long_name": "Singapore", "short_name": "SG", "types": ["country", "political"]}, {"long_name": "680661", "short_name": "680661", "types": ["postal_code"]}], "formatted_address": "661 Choa Chu Kang Cres, Block 661, Singapore 680661", "geometry": {"bounds": {"northeast": {"lat": 1.4011333, "lng": 103.7507745}, "southwest": {"lat": 1.400576, "lng": 103.7503049}}, "location": {"lat": 1.4008687, "lng": 103.7505492}, "location_type": "ROOFTOP", "viewport": {"northeast": {"lat": 1.402203630291502, "lng": 103.7518886802915}, "southwest": {"lat": 1.399505669708498, "lng": 103.7491907197085}}}, "place_id": "ChIJLzMkFfUR2jERJPJscvXk10Y", "types": ["premise"]}