{"address_components": [{"long_name": "Block 21", "short_name": "Block 21", "types": ["premise"]}, {"long_name": "21", "short_name": "21", "types": ["street_number"]}, {"long_name": "Hougang Avenue 3", "short_name": "Hougang Ave 3", "types": ["route"]}, {"long_name": "Hougang", "short_name": "Hougang", "types": ["neighborhood", "political"]}, {"long_name": "Singapore", "short_name": "Singapore", "types": ["locality", "political"]}, {"long_name": "Singapore", "short_name": "SG", "types": ["country", "political"]}, {"long_name": "530021", "short_name": "530021", "types": ["postal_code"]}], "formatted_address": "21 Hougang Ave 3, Block 21, Singapore 530021", "geometry": {"bounds": {"northeast": {"lat": 1.364354, "lng": 103.8918674}, "southwest": {"lat": 1.3641929, "lng": 103.8911023}}, "location": {"lat": 1.3643017, "lng": 103.891517}, "location_type": "ROOFTOP", "viewport": {"northeast": {"lat": 1.365622430291502, "lng": 103.8928338302915}, "southwest": {"lat": 1.362924469708498, "lng": 103.8901358697085}}}, "place_id": "ChIJqVy5VzUW2jERikFCu5OhAS8", "types": ["premise"]}