{"address_components": [{"long_name": "Block 366", "short_name": "Block 366", "types": ["premise"]}, {"long_name": "366", "short_name": "366", "types": ["street_number"]}, {"long_name": "Tampines Street 34", "short_name": "Tampines Street 34", "types": ["route"]}, {"long_name": "Tampines", "short_name": "Tampines", "types": ["neighborhood", "political"]}, {"long_name": "Singapore", "short_name": "Singapore", "types": ["locality", "political"]}, {"long_name": "Singapore", "short_name": "SG", "types": ["country", "political"]}, {"long_name": "520366", "short_name": "520366", "types": ["postal_code"]}], "formatted_address": "366 Tampines Street 34, Block 366, Singapore 520366", "geometry": {"bounds": {"northeast": {"lat": 1.3579928, "lng": 103.9620167}, "southwest": {"lat": 1.3575637, "lng": 103.9611598}}, "location": {"lat": 1.3575931, "lng": 103.9613984}, "location_type": "ROOFTOP", "viewport": {"northeast": {"lat": 1.359127230291502, "lng": 103.9629372302915}, "southwest": {"lat": 1.356429269708498, "lng": 103.9602392697085}}}, "place_id": "ChIJSRkk8v082jERUOjrs-JIN9A", "types": ["premise"]}