{"address_components": [{"long_name": "Block 222", "short_name": "Block 222", "types": ["premise"]}, {"long_name": "222", "short_name": "222", "types": ["street_number"]}, {"long_name": "Tampines Street 24", "short_name": "Tampines Street 24", "types": ["route"]}, {"long_name": "Tampines", "short_name": "Tampines", "types": ["neighborhood", "political"]}, {"long_name": "Singapore", "short_name": "Singapore", "types": ["locality", "political"]}, {"long_name": "Singapore", "short_name": "SG", "types": ["country", "political"]}, {"long_name": "521222", "short_name": "521222", "types": ["postal_code"]}], "formatted_address": "222 Tampines Street 24, Block 222, Singapore 521222", "geometry": {"bounds": {"northeast": {"lat": 1.3555909, "lng": 103.95305}, "southwest": {"lat": 1.355462, "lng": 103.9522998}}, "location": {"lat": 1.3555213, "lng": 103.9526953}, "location_type": "ROOFTOP", "viewport": {"northeast": {"lat": 1.356875430291502, "lng": 103.9540238802915}, "southwest": {"lat": 1.354177469708498, "lng": 103.9513259197085}}}, "place_id": "ChIJ8XLO5QQ92jER-xtS217N55I", "types": ["premise"]}