{"address_components": [{"long_name": "Block 341", "short_name": "Block 341", "types": ["premise"]}, {"long_name": "341", "short_name": "341", "types": ["street_number"]}, {"long_name": "Clementi Avenue 5", "short_name": "Clementi Ave 5", "types": ["route"]}, {"long_name": "Clementi", "short_name": "Clementi", "types": ["neighborhood", "political"]}, {"long_name": "Singapore", "short_name": "Singapore", "types": ["locality", "political"]}, {"long_name": "Singapore", "short_name": "SG", "types": ["country", "political"]}, {"long_name": "120341", "short_name": "120341", "types": ["postal_code"]}], "formatted_address": "341 Clementi Ave 5, Block 341, Singapore 120341", "geometry": {"bounds": {"northeast": {"lat": 1.319346, "lng": 103.769415}, "southwest": {"lat": 1.3187566, "lng": 103.7686649}}, "location": {"lat": 1.3190999, "lng": 103.7690618}, "location_type": "ROOFTOP", "viewport": {"northeast": {"lat": 1.320400280291502, "lng": 103.7703889302915}, "southwest": {"lat": 1.317702319708498, "lng": 103.7676909697085}}}, "place_id": "ChIJGYP224Ua2jER6hTBg3HTmoo", "types": ["premise"]}