{"address_components": [{"long_name": "Block 12", "short_name": "Block 12", "types": ["premise"]}, {"long_name": "12", "short_name": "12", "types": ["street_number"]}, {"long_name": "Kampong Arang Road", "short_name": "Kampong Arang Rd", "types": ["route"]}, {"long_name": "Kallang", "short_name": "Kallang", "types": ["neighborhood", "political"]}, {"long_name": "Singapore", "short_name": "Singapore", "types": ["locality", "political"]}, {"long_name": "Singapore", "short_name": "SG", "types": ["country", "political"]}, {"long_name": "431012", "short_name": "431012", "types": ["postal_code"]}], "formatted_address": "12 Kampong Arang Rd, Block 12, Singapore 431012", "geometry": {"bounds": {"northeast": {"lat": 1.3009526, "lng": 103.8840955}, "southwest": {"lat": 1.3007538, "lng": 103.883343}}, "location": {"lat": 1.3008228, "lng": 103.8837244}, "location_type": "ROOFTOP", "viewport": {"northeast": {"lat": 1.302202180291502, "lng": 103.8850682302915}, "southwest": {"lat": 1.299504219708498, "lng": 103.8823702697085}}}, "place_id": "ChIJlRCgXkQY2jERzKTs7Y7uuf8", "types": ["premise"]}