{"address_components": [{"long_name": "124", "short_name": "124", "types": ["street_number"]}, {"long_name": "Ang Mo Kio Avenue 6", "short_name": "Ang Mo Kio Ave 6", "types": ["route"]}, {"long_name": "Ang Mo Kio", "short_name": "Ang Mo Kio", "types": ["neighborhood", "political"]}, {"long_name": "Singapore", "short_name": "Singapore", "types": ["locality", "political"]}, {"long_name": "Singapore", "short_name": "SG", "types": ["country", "political"]}, {"long_name": "560124", "short_name": "560124", "types": ["postal_code"]}], "formatted_address": "124 Ang Mo Kio Ave 6, Singapore 560124", "geometry": {"bounds": {"northeast": {"lat": 1.3709686, "lng": 103.8452399}, "southwest": {"lat": 1.3707551, "lng": 103.8443846}}, "location": {"lat": 1.3708768, "lng": 103.8447681}, "location_type": "ROOFTOP", "viewport": {"northeast": {"lat": 1.372210830291502, "lng": 103.8461612302915}, "southwest": {"lat": 1.369512869708498, "lng": 103.8434632697085}}}, "place_id": "ChIJj9nzgN0W2jER53DVAKLwxBM", "types": ["premise"]}