{"address_components": [{"long_name": "Block 256", "short_name": "Block 256", "types": ["premise"]}, {"long_name": "256", "short_name": "256", "types": ["street_number"]}, {"long_name": "Bishan Street 22", "short_name": "Bishan Street 22", "types": ["route"]}, {"long_name": "Bishan", "short_name": "Bishan", "types": ["neighborhood", "political"]}, {"long_name": "Singapore", "short_name": "Singapore", "types": ["locality", "political"]}, {"long_name": "Singapore", "short_name": "SG", "types": ["country", "political"]}, {"long_name": "570256", "short_name": "570256", "types": ["postal_code"]}], "formatted_address": "256 Bishan Street 22, Block 256, Singapore 570256", "geometry": {"bounds": {"northeast": {"lat": 1.361435, "lng": 103.8430013}, "southwest": {"lat": 1.3611397, "lng": 103.8423198}}, "location": {"lat": 1.3612923, "lng": 103.8426847}, "location_type": "ROOFTOP", "viewport": {"northeast": {"lat": 1.362636330291502, "lng": 103.8440095302915}, "southwest": {"lat": 1.359938369708498, "lng": 103.8413115697085}}}, "place_id": "ChIJN2E9riEX2jERmrMfFvBOF1s", "types": ["premise"]}