{"address_components": [{"long_name": "Block 104", "short_name": "Block 104", "types": ["premise"]}, {"long_name": "104", "short_name": "104", "types": ["street_number"]}, {"long_name": "Towner Road", "short_name": "Towner Rd", "types": ["route"]}, {"long_name": "Kallang", "short_name": "Kallang", "types": ["neighborhood", "political"]}, {"long_name": "Singapore", "short_name": "Singapore", "types": ["locality", "political"]}, {"long_name": "Singapore", "short_name": "SG", "types": ["country", "political"]}, {"long_name": "327827", "short_name": "327827", "types": ["postal_code"]}], "formatted_address": "104 Towner Rd, Block 104, Singapore 327827", "geometry": {"bounds": {"northeast": {"lat": 1.3201713, "lng": 103.8612543}, "southwest": {"lat": 1.3194543, "lng": 103.8606123}}, "location": {"lat": 1.3198388, "lng": 103.8608698}, "location_type": "ROOFTOP", "viewport": {"northeast": {"lat": 1.321161780291502, "lng": 103.8622822802915}, "southwest": {"lat": 1.318463819708498, "lng": 103.8595843197085}}}, "place_id": "ChIJhwpnctEZ2jERreGqKfJT7FA", "types": ["premise"]}