{"address_components": [{"long_name": "Block 233", "short_name": "Block 233", "types": ["premise"]}, {"long_name": "233", "short_name": "233", "types": ["street_number"]}, {"long_name": "Ang Mo Kio Avenue 3", "short_name": "Ang Mo Kio Ave 3", "types": ["route"]}, {"long_name": "Ang Mo Kio", "short_name": "Ang Mo Kio", "types": ["neighborhood", "political"]}, {"long_name": "Singapore", "short_name": "Singapore", "types": ["locality", "political"]}, {"long_name": "Singapore", "short_name": "SG", "types": ["country", "political"]}, {"long_name": "560233", "short_name": "560233", "types": ["postal_code"]}], "formatted_address": "233 Ang Mo Kio Ave 3, Block 233, Singapore 560233", "geometry": {"bounds": {"northeast": {"lat": 1.3678276, "lng": 103.8371888}, "southwest": {"lat": 1.3673424, "lng": 103.8362239}}, "location": {"lat": 1.3675541, "lng": 103.8367065}, "location_type": "ROOFTOP", "viewport": {"northeast": {"lat": 1.368933980291502, "lng": 103.8380553302915}, "southwest": {"lat": 1.366236019708498, "lng": 103.8353573697085}}}, "place_id": "ChIJubwzc9kW2jERDbgiF2OvDok", "types": ["premise"]}