{"address_components": [{"long_name": "Block 335", "short_name": "Block 335", "types": ["premise"]}, {"long_name": "335", "short_name": "335", "types": ["street_number"]}, {"long_name": "Woodlands Street 32", "short_name": "Woodlands Street 32", "types": ["route"]}, {"long_name": "Woodlands", "short_name": "Woodlands", "types": ["neighborhood", "political"]}, {"long_name": "Singapore", "short_name": "Singapore", "types": ["locality", "political"]}, {"long_name": "Singapore", "short_name": "SG", "types": ["country", "political"]}, {"long_name": "730335", "short_name": "730335", "types": ["postal_code"]}], "formatted_address": "335 Woodlands Street 32, Block 335, Singapore 730335", "geometry": {"bounds": {"northeast": {"lat": 1.4303044, "lng": 103.7811826}, "southwest": {"lat": 1.4294187, "lng": 103.7800243}}, "location": {"lat": 1.4297772, "lng": 103.7806504}, "location_type": "ROOFTOP", "viewport": {"northeast": {"lat": 1.431210530291502, "lng": 103.7819524302915}, "southwest": {"lat": 1.428512569708498, "lng": 103.7792544697085}}}, "place_id": "ChIJGy2RBrIT2jERdxNOw4fid6Y", "types": ["premise"]}