{"address_components": [{"long_name": "Block 660", "short_name": "Block 660", "types": ["premise"]}, {"long_name": "660", "short_name": "660", "types": ["street_number"]}, {"long_name": "Jalan Tenaga", "short_name": "Jln Tenaga", "types": ["route"]}, {"long_name": "Bedok", "short_name": "Bedok", "types": ["neighborhood", "political"]}, {"long_name": "Singapore", "short_name": "Singapore", "types": ["locality", "political"]}, {"long_name": "Singapore", "short_name": "SG", "types": ["country", "political"]}, {"long_name": "410660", "short_name": "410660", "types": ["postal_code"]}], "formatted_address": "660 Jln Tenaga, Block 660, Singapore 410660", "geometry": {"bounds": {"northeast": {"lat": 1.3345621, "lng": 103.9070022}, "southwest": {"lat": 1.3342776, "lng": 103.9063737}}, "location": {"lat": 1.3344959, "lng": 103.9068372}, "location_type": "ROOFTOP", "viewport": {"northeast": {"lat": 1.335768830291502, "lng": 103.9080369302915}, "southwest": {"lat": 1.333070869708498, "lng": 103.9053389697085}}}, "place_id": "ChIJ695GFvsX2jERyCVRWpwTNGY", "types": ["premise"]}