{"address_components": [{"long_name": "Block 442", "short_name": "Block 442", "types": ["premise"]}, {"long_name": "442", "short_name": "442", "types": ["street_number"]}, {"long_name": "Jurong West Avenue 1", "short_name": "Jurong West Ave 1", "types": ["route"]}, {"long_name": "Jurong West", "short_name": "Jurong West", "types": ["neighborhood", "political"]}, {"long_name": "Singapore", "short_name": "Singapore", "types": ["locality", "political"]}, {"long_name": "Singapore", "short_name": "SG", "types": ["country", "political"]}, {"long_name": "640442", "short_name": "640442", "types": ["postal_code"]}], "formatted_address": "442 Jurong West Ave 1, Block 442, Singapore 640442", "geometry": {"bounds": {"northeast": {"lat": 1.351806, "lng": 103.7198236}, "southwest": {"lat": 1.351476, "lng": 103.7191636}}, "location": {"lat": 1.351535, "lng": 103.7195532}, "location_type": "ROOFTOP", "viewport": {"northeast": {"lat": 1.352989980291502, "lng": 103.7208425802915}, "southwest": {"lat": 1.350292019708498, "lng": 103.7181446197085}}}, "place_id": "ChIJv8L0bdsP2jER8aZpxhYPhQE", "types": ["premise"]}