{"address_components": [{"long_name": "Block 651", "short_name": "Block 651", "types": ["premise"]}, {"long_name": "651", "short_name": "651", "types": ["street_number"]}, {"long_name": "Senja Link", "short_name": "Senja Link", "types": ["route"]}, {"long_name": "Bukit Panjang", "short_name": "Bukit Panjang", "types": ["neighborhood", "political"]}, {"long_name": "Singapore", "short_name": "Singapore", "types": ["locality", "political"]}, {"long_name": "Singapore", "short_name": "SG", "types": ["country", "political"]}, {"long_name": "670651", "short_name": "670651", "types": ["postal_code"]}], "formatted_address": "651 Senja Link, Block 651, Singapore 670651", "geometry": {"bounds": {"northeast": {"lat": 1.3868128, "lng": 103.7638917}, "southwest": {"lat": 1.3863959, "lng": 103.7634516}}, "location": {"lat": 1.3866192, "lng": 103.7636526}, "location_type": "ROOFTOP", "viewport": {"northeast": {"lat": 1.387953330291502, "lng": 103.7650206302915}, "southwest": {"lat": 1.385255369708498, "lng": 103.7623226697085}}}, "place_id": "ChIJm8rLYZcR2jERm-34cRdrSMY", "types": ["premise"]}