{"address_components": [{"long_name": "Block 234", "short_name": "Block 234", "types": ["premise"]}, {"long_name": "234", "short_name": "234", "types": ["street_number"]}, {"long_name": "Jurong East Street 21", "short_name": "Jurong East Street 21", "types": ["route"]}, {"long_name": "Jurong East", "short_name": "Jurong East", "types": ["neighborhood", "political"]}, {"long_name": "Singapore", "short_name": "Singapore", "types": ["locality", "political"]}, {"long_name": "Singapore", "short_name": "SG", "types": ["country", "political"]}, {"long_name": "600234", "short_name": "600234", "types": ["postal_code"]}], "formatted_address": "234 Jurong East Street 21, Block 234, Singapore 600234", "geometry": {"bounds": {"northeast": {"lat": 1.339997, "lng": 103.742029}, "southwest": {"lat": 1.3396489, "lng": 103.741207}}, "location": {"lat": 1.3399217, "lng": 103.7416106}, "location_type": "ROOFTOP", "viewport": {"northeast": {"lat": 1.341171930291502, "lng": 103.7429669802915}, "southwest": {"lat": 1.338473969708498, "lng": 103.7402690197085}}}, "place_id": "ChIJv7AllBAQ2jERDdAZEXQc3GQ", "types": ["premise"]}