{"address_components": [{"long_name": "Block 844", "short_name": "Block 844", "types": ["premise"]}, {"long_name": "844", "short_name": "844", "types": ["street_number"]}, {"long_name": "Jurong West Street 81", "short_name": "Jurong West Street 81", "types": ["route"]}, {"long_name": "Jurong West", "short_name": "Jurong West", "types": ["neighborhood", "political"]}, {"long_name": "Singapore", "short_name": "Singapore", "types": ["locality", "political"]}, {"long_name": "Singapore", "short_name": "SG", "types": ["country", "political"]}, {"long_name": "640844", "short_name": "640844", "types": ["postal_code"]}], "formatted_address": "844 Jurong West Street 81, Block 844, Singapore 640844", "geometry": {"bounds": {"northeast": {"lat": 1.3454661, "lng": 103.6926091}, "southwest": {"lat": 1.344892, "lng": 103.6922371}}, "location": {"lat": 1.3453923, "lng": 103.6924956}, "location_type": "ROOFTOP", "viewport": {"northeast": {"lat": 1.346528030291502, "lng": 103.6937720802915}, "southwest": {"lat": 1.343830069708498, "lng": 103.6910741197085}}}, "place_id": "ChIJlwsfapgP2jERkt4Pn5_MgTQ", "types": ["premise"]}