{"address_components": [{"long_name": "Block 419", "short_name": "Block 419", "types": ["premise"]}, {"long_name": "419", "short_name": "419", "types": ["street_number"]}, {"long_name": "Bukit Batok West Avenue 2", "short_name": "Bukit Batok West Ave 2", "types": ["route"]}, {"long_name": "Bukit Batok", "short_name": "Bukit Batok", "types": ["neighborhood", "political"]}, {"long_name": "Singapore", "short_name": "Singapore", "types": ["locality", "political"]}, {"long_name": "Singapore", "short_name": "SG", "types": ["country", "political"]}, {"long_name": "650419", "short_name": "650419", "types": ["postal_code"]}], "formatted_address": "419 Bukit Batok West Ave 2, Block 419, Singapore 650419", "geometry": {"bounds": {"northeast": {"lat": 1.362592, "lng": 103.7464111}, "southwest": {"lat": 1.3616109, "lng": 103.745744}}, "location": {"lat": 1.3620741, "lng": 103.7463401}, "location_type": "ROOFTOP", "viewport": {"northeast": {"lat": 1.363450430291502, "lng": 103.7474265302915}, "southwest": {"lat": 1.360752469708498, "lng": 103.7447285697085}}}, "place_id": "ChIJs1EGgTMQ2jERzgDm5VdUJAc", "types": ["premise"]}