{"address_components": [{"long_name": "Block 219C", "short_name": "Block 219C", "types": ["premise"]}, {"long_name": "221A", "short_name": "221A", "types": ["street_number"]}, {"long_name": "Bedok Central", "short_name": "Bedok Central", "types": ["route"]}, {"long_name": "Bedok", "short_name": "Bedok", "types": ["neighborhood", "political"]}, {"long_name": "Singapore", "short_name": "Singapore", "types": ["locality", "political"]}, {"long_name": "Singapore", "short_name": "SG", "types": ["country", "political"]}, {"long_name": "461221", "short_name": "461221", "types": ["postal_code"]}], "formatted_address": "221A Bedok Central, Block 219C, Singapore 461221", "geometry": {"bounds": {"northeast": {"lat": 1.3253358, "lng": 103.9350883}, "southwest": {"lat": 1.3247354, "lng": 103.9331596}}, "location": {"lat": 1.3248975, "lng": 103.9333872}, "location_type": "ROOFTOP", "viewport": {"northeast": {"lat": 1.326384580291502, "lng": 103.9354729302915}, "southwest": {"lat": 1.323686619708498, "lng": 103.9327749697085}}}, "place_id": "ChIJo-MWwLQi2jERkR_WOlpy-io", "types": ["premise"]}