{"address_components": [{"long_name": "Block 668D", "short_name": "Block 668D", "types": ["premise"]}, {"long_name": "668D", "short_name": "668D", "types": ["street_number"]}, {"long_name": "Jurong West Street 64", "short_name": "Jurong West Street 64", "types": ["route"]}, {"long_name": "Jurong West", "short_name": "Jurong West", "types": ["neighborhood", "political"]}, {"long_name": "Singapore", "short_name": "Singapore", "types": ["locality", "political"]}, {"long_name": "Singapore", "short_name": "SG", "types": ["country", "political"]}, {"long_name": "644668", "short_name": "644668", "types": ["postal_code"]}], "formatted_address": "668D Jurong West Street 64, Block 668D, Singapore 644668", "geometry": {"bounds": {"northeast": {"lat": 1.3414629, "lng": 103.703144}, "southwest": {"lat": 1.341073, "lng": 103.702746}}, "location": {"lat": 1.3411687, "lng": 103.7028311}, "location_type": "ROOFTOP", "viewport": {"northeast": {"lat": 1.342616930291502, "lng": 103.7042939802915}, "southwest": {"lat": 1.339918969708498, "lng": 103.7015960197085}}}, "place_id": "ChIJfzvZf5MP2jERVaEMutWWPLU", "types": ["premise"]}