{"address_components": [{"long_name": "Block 357", "short_name": "Block 357", "types": ["premise"]}, {"long_name": "357", "short_name": "357", "types": ["street_number"]}, {"long_name": "Tampines Street 33", "short_name": "Tampines Street 33", "types": ["route"]}, {"long_name": "Tampines", "short_name": "Tampines", "types": ["neighborhood", "political"]}, {"long_name": "Singapore", "short_name": "Singapore", "types": ["locality", "political"]}, {"long_name": "Singapore", "short_name": "SG", "types": ["country", "political"]}, {"long_name": "520357", "short_name": "520357", "types": ["postal_code"]}], "formatted_address": "357 Tampines Street 33, Block 357, Singapore 520357", "geometry": {"bounds": {"northeast": {"lat": 1.3542569, "lng": 103.9619345}, "southwest": {"lat": 1.3539904, "lng": 103.9613695}}, "location": {"lat": 1.3540772, "lng": 103.961761}, "location_type": "ROOFTOP", "viewport": {"northeast": {"lat": 1.355472630291502, "lng": 103.9630009802915}, "southwest": {"lat": 1.352774669708498, "lng": 103.9603030197085}}}, "place_id": "ChIJaZZkUv082jERzxkIjYj9dC8", "types": ["premise"]}