{"address_components": [{"long_name": "635A", "short_name": "635A", "types": ["street_number"]}, {"long_name": "Senja Road", "short_name": "Senja Rd", "types": ["route"]}, {"long_name": "Bukit Panjang", "short_name": "Bukit Panjang", "types": ["neighborhood", "political"]}, {"long_name": "Singapore", "short_name": "Singapore", "types": ["locality", "political"]}, {"long_name": "Singapore", "short_name": "SG", "types": ["country", "political"]}, {"long_name": "671635", "short_name": "671635", "types": ["postal_code"]}], "formatted_address": "635A Senja Rd, Singapore 671635", "geometry": {"bounds": {"northeast": {"lat": 1.3869006, "lng": 103.75749}, "southwest": {"lat": 1.3865034, "lng": 103.7569686}}, "location": {"lat": 1.3867852, "lng": 103.7572931}, "location_type": "ROOFTOP", "viewport": {"northeast": {"lat": 1.388050980291502, "lng": 103.7585782802915}, "southwest": {"lat": 1.385353019708498, "lng": 103.7558803197085}}}, "place_id": "ChIJyTZRPZQR2jER0GneJaWiMzw", "types": ["premise"]}