{"address_components": [{"long_name": "Block 236", "short_name": "Block 236", "types": ["premise"]}, {"long_name": "236", "short_name": "236", "types": ["street_number"]}, {"long_name": "Jurong East Street 21", "short_name": "Jurong East Street 21", "types": ["route"]}, {"long_name": "Jurong East", "short_name": "Jurong East", "types": ["neighborhood", "political"]}, {"long_name": "Singapore", "short_name": "Singapore", "types": ["locality", "political"]}, {"long_name": "Singapore", "short_name": "SG", "types": ["country", "political"]}, {"long_name": "600236", "short_name": "600236", "types": ["postal_code"]}], "formatted_address": "236 Jurong East Street 21, Block 236, Singapore 600236", "geometry": {"bounds": {"northeast": {"lat": 1.3408881, "lng": 103.74248}, "southwest": {"lat": 1.3400899, "lng": 103.741772}}, "location": {"lat": 1.3404134, "lng": 103.7420858}, "location_type": "ROOFTOP", "viewport": {"northeast": {"lat": 1.341837980291502, "lng": 103.7434749802915}, "southwest": {"lat": 1.339140019708498, "lng": 103.7407770197085}}}, "place_id": "ChIJGb2yxxAQ2jER3ixFMn_M_AE", "types": ["premise"]}