{"address_components": [{"long_name": "Block 104", "short_name": "Block 104", "types": ["premise"]}, {"long_name": "104", "short_name": "104", "types": ["street_number"]}, {"long_name": "Jalan Rajah", "short_name": "Jln Rajah", "types": ["route"]}, {"long_name": "Novena", "short_name": "Novena", "types": ["neighborhood", "political"]}, {"long_name": "Singapore", "short_name": "Singapore", "types": ["locality", "political"]}, {"long_name": "Singapore", "short_name": "SG", "types": ["country", "political"]}, {"long_name": "321104", "short_name": "321104", "types": ["postal_code"]}], "formatted_address": "104 Jln Rajah, Block 104, Singapore 321104", "geometry": {"bounds": {"northeast": {"lat": 1.3280326, "lng": 103.8535416}, "southwest": {"lat": 1.3277318, "lng": 103.8530906}}, "location": {"lat": 1.327917, "lng": 103.8532832}, "location_type": "ROOFTOP", "viewport": {"northeast": {"lat": 1.329231180291502, "lng": 103.8546650802915}, "southwest": {"lat": 1.326533219708498, "lng": 103.8519671197085}}}, "place_id": "ChIJfy3eXmIX2jEROOhCcS9SVII", "types": ["premise"]}