{"address_components": [{"long_name": "Block 151", "short_name": "Block 151", "types": ["premise"]}, {"long_name": "151", "short_name": "151", "types": ["street_number"]}, {"long_name": "Jalan Teck Whye", "short_name": "Jln Teck Whye", "types": ["route"]}, {"long_name": "Choa Chu Kang", "short_name": "Choa Chu Kang", "types": ["neighborhood", "political"]}, {"long_name": "Singapore", "short_name": "Singapore", "types": ["locality", "political"]}, {"long_name": "Singapore", "short_name": "SG", "types": ["country", "political"]}, {"long_name": "680151", "short_name": "680151", "types": ["postal_code"]}], "formatted_address": "151 Jln Teck Whye, Block 151, Singapore 680151", "geometry": {"bounds": {"northeast": {"lat": 1.378732, "lng": 103.757758}, "southwest": {"lat": 1.3780714, "lng": 103.7567385}}, "location": {"lat": 1.3784093, "lng": 103.7572705}, "location_type": "ROOFTOP", "viewport": {"northeast": {"lat": 1.379750680291502, "lng": 103.7585972302915}, "southwest": {"lat": 1.377052719708498, "lng": 103.7558992697085}}}, "place_id": "ChIJKxRQUrkR2jERM7mSwgGVwaA", "types": ["premise"]}