{"address_components": [{"long_name": "Block 697", "short_name": "Block 697", "types": ["premise"]}, {"long_name": "697", "short_name": "697", "types": ["street_number"]}, {"long_name": "Hougang Street 61", "short_name": "Hougang Street 61", "types": ["route"]}, {"long_name": "Hougang", "short_name": "Hougang", "types": ["neighborhood", "political"]}, {"long_name": "Singapore", "short_name": "Singapore", "types": ["locality", "political"]}, {"long_name": "Singapore", "short_name": "SG", "types": ["country", "political"]}, {"long_name": "530697", "short_name": "530697", "types": ["postal_code"]}], "formatted_address": "697 Hougang Street 61, Block 697, Singapore 530697", "geometry": {"bounds": {"northeast": {"lat": 1.3758209, "lng": 103.8879869}, "southwest": {"lat": 1.375437, "lng": 103.887041}}, "location": {"lat": 1.3755325, "lng": 103.8875301}, "location_type": "ROOFTOP", "viewport": {"northeast": {"lat": 1.376977930291502, "lng": 103.8888629302915}, "southwest": {"lat": 1.374279969708498, "lng": 103.8861649697085}}}, "place_id": "ChIJx0Gc90YW2jERv5cUwJSBn_o", "types": ["premise"]}