{"address_components": [{"long_name": "Block 106", "short_name": "Block 106", "types": ["premise"]}, {"long_name": "106", "short_name": "106", "types": ["street_number"]}, {"long_name": "Bishan Street 12", "short_name": "Bishan Street 12", "types": ["route"]}, {"long_name": "Bishan", "short_name": "Bishan", "types": ["neighborhood", "political"]}, {"long_name": "Singapore", "short_name": "Singapore", "types": ["locality", "political"]}, {"long_name": "Singapore", "short_name": "SG", "types": ["country", "political"]}, {"long_name": "570106", "short_name": "570106", "types": ["postal_code"]}], "formatted_address": "106 Bishan Street 12, Block 106, Singapore 570106", "geometry": {"bounds": {"northeast": {"lat": 1.3462164, "lng": 103.8482148}, "southwest": {"lat": 1.3459474, "lng": 103.847473}}, "location": {"lat": 1.3461032, "lng": 103.8477574}, "location_type": "ROOFTOP", "viewport": {"northeast": {"lat": 1.347430880291502, "lng": 103.8491928802915}, "southwest": {"lat": 1.344732919708498, "lng": 103.8464949197085}}}, "place_id": "ChIJK7Gw2BQX2jERvoDlU3jyzIQ", "types": ["premise"]}