{"address_components": [{"long_name": "Block 883", "short_name": "Block 883", "types": ["premise"]}, {"long_name": "883", "short_name": "883", "types": ["street_number"]}, {"long_name": "Tampines Street 84", "short_name": "Tampines Street 84", "types": ["route"]}, {"long_name": "Tampines", "short_name": "Tampines", "types": ["neighborhood", "political"]}, {"long_name": "Singapore", "short_name": "Singapore", "types": ["locality", "political"]}, {"long_name": "Singapore", "short_name": "SG", "types": ["country", "political"]}, {"long_name": "520883", "short_name": "520883", "types": ["postal_code"]}], "formatted_address": "883 Tampines Street 84, Block 883, Singapore 520883", "geometry": {"bounds": {"northeast": {"lat": 1.3520879, "lng": 103.9333222}, "southwest": {"lat": 1.3515777, "lng": 103.9325041}}, "location": {"lat": 1.351868, "lng": 103.932798}, "location_type": "ROOFTOP", "viewport": {"northeast": {"lat": 1.353181780291502, "lng": 103.9342621302915}, "southwest": {"lat": 1.350483819708498, "lng": 103.9315641697085}}}, "place_id": "ChIJ0dddy2092jER2DHZkIRYG24", "types": ["premise"]}