{"address_components": [{"long_name": "Block 141", "short_name": "Block 141", "types": ["premise"]}, {"long_name": "141", "short_name": "141", "types": ["street_number"]}, {"long_name": "Teck Whye Lane", "short_name": "Teck Whye Ln", "types": ["route"]}, {"long_name": "Choa Chu Kang", "short_name": "Choa Chu Kang", "types": ["neighborhood", "political"]}, {"long_name": "Singapore", "short_name": "Singapore", "types": ["locality", "political"]}, {"long_name": "Singapore", "short_name": "SG", "types": ["country", "political"]}, {"long_name": "680141", "short_name": "680141", "types": ["postal_code"]}], "formatted_address": "141 Teck Whye Ln, Block 141, Singapore 680141", "geometry": {"bounds": {"northeast": {"lat": 1.3805811, "lng": 103.7529953}, "southwest": {"lat": 1.3801362, "lng": 103.7521663}}, "location": {"lat": 1.3803795, "lng": 103.7526085}, "location_type": "ROOFTOP", "viewport": {"northeast": {"lat": 1.381707630291502, "lng": 103.7539297802915}, "southwest": {"lat": 1.379009669708498, "lng": 103.7512318197085}}}, "place_id": "ChIJMz3IZL8R2jERV9V9wIeccyA", "types": ["premise"]}