{"address_components": [{"long_name": "Block 853", "short_name": "Block 853", "types": ["premise"]}, {"long_name": "853", "short_name": "853", "types": ["street_number"]}, {"long_name": "Jurong West Street 81", "short_name": "Jurong West Street 81", "types": ["route"]}, {"long_name": "Jurong West", "short_name": "Jurong West", "types": ["neighborhood", "political"]}, {"long_name": "Singapore", "short_name": "Singapore", "types": ["locality", "political"]}, {"long_name": "Singapore", "short_name": "SG", "types": ["country", "political"]}, {"long_name": "640853", "short_name": "640853", "types": ["postal_code"]}], "formatted_address": "853 Jurong West Street 81, Block 853, Singapore 640853", "geometry": {"bounds": {"northeast": {"lat": 1.3476314, "lng": 103.6933766}, "southwest": {"lat": 1.3469213, "lng": 103.6928085}}, "location": {"lat": 1.3472386, "lng": 103.6931068}, "location_type": "ROOFTOP", "viewport": {"northeast": {"lat": 1.348625330291502, "lng": 103.6944415302915}, "southwest": {"lat": 1.345927369708498, "lng": 103.6917435697085}}}, "place_id": "ChIJ0eYxv6IP2jERdeL7K9Jx3kY", "types": ["premise"]}