{"address_components": [{"long_name": "Block 334", "short_name": "Block 334", "types": ["premise"]}, {"long_name": "334", "short_name": "334", "types": ["street_number"]}, {"long_name": "Hougang Avenue 5", "short_name": "Hougang Ave 5", "types": ["route"]}, {"long_name": "Hougang", "short_name": "Hougang", "types": ["neighborhood", "political"]}, {"long_name": "Singapore", "short_name": "Singapore", "types": ["locality", "political"]}, {"long_name": "Singapore", "short_name": "SG", "types": ["country", "political"]}, {"long_name": "530334", "short_name": "530334", "types": ["postal_code"]}], "formatted_address": "334 Hougang Ave 5, Block 334, Singapore 530334", "geometry": {"bounds": {"northeast": {"lat": 1.3690182, "lng": 103.8984229}, "southwest": {"lat": 1.3687925, "lng": 103.8974449}}, "location": {"lat": 1.3689144, "lng": 103.8979961}, "location_type": "ROOFTOP", "viewport": {"northeast": {"lat": 1.370254330291502, "lng": 103.8992828802915}, "southwest": {"lat": 1.367556369708498, "lng": 103.8965849197085}}}, "place_id": "ChIJdfP3WjEW2jERa1KQawgnXyQ", "types": ["premise"]}