{"address_components": [{"long_name": "Block 238", "short_name": "Block 238", "types": ["premise"]}, {"long_name": "238", "short_name": "238", "types": ["street_number"]}, {"long_name": "Tampines Street 21", "short_name": "Tampines Street 21", "types": ["route"]}, {"long_name": "Tampines", "short_name": "Tampines", "types": ["neighborhood", "political"]}, {"long_name": "Singapore", "short_name": "Singapore", "types": ["locality", "political"]}, {"long_name": "Singapore", "short_name": "SG", "types": ["country", "political"]}, {"long_name": "520238", "short_name": "520238", "types": ["postal_code"]}], "formatted_address": "238 Tampines Street 21, Block 238, Singapore 520238", "geometry": {"bounds": {"northeast": {"lat": 1.3560495, "lng": 103.9466525}, "southwest": {"lat": 1.3554495, "lng": 103.9465066}}, "location": {"lat": 1.3557585, "lng": 103.9465989}, "location_type": "ROOFTOP", "viewport": {"northeast": {"lat": 1.357098480291502, "lng": 103.9479285302915}, "southwest": {"lat": 1.354400519708498, "lng": 103.9452305697085}}}, "place_id": "ChIJqxRCsg892jERSEuXGJwggMc", "types": ["premise"]}