{"address_components": [{"long_name": "428A", "short_name": "428A", "types": ["street_number"]}, {"long_name": "Yishun Avenue 11", "short_name": "Yishun Ave 11", "types": ["route"]}, {"long_name": "Yishun", "short_name": "Yishun", "types": ["neighborhood", "political"]}, {"long_name": "Singapore", "short_name": "Singapore", "types": ["locality", "political"]}, {"long_name": "Singapore", "short_name": "SG", "types": ["country", "political"]}], "formatted_address": "428A Yishun Ave 11, Singapore", "geometry": {"bounds": {"northeast": {"lat": 1.4226981, "lng": 103.8476786}, "southwest": {"lat": 1.4223946, "lng": 103.8471657}}, "location": {"lat": 1.4225452, "lng": 103.8473951}, "location_type": "ROOFTOP", "viewport": {"northeast": {"lat": 1.423895330291502, "lng": 103.8487711302915}, "southwest": {"lat": 1.421197369708498, "lng": 103.8460731697085}}}, "place_id": "ChIJB1XtU0AU2jERzjFR870vQkM", "types": ["premise"]}