{"address_components": [{"long_name": "Block 485D", "short_name": "Block 485D", "types": ["premise"]}, {"long_name": "485D", "short_name": "485D", "types": ["street_number"]}, {"long_name": "Choa Chu Kang Avenue 5", "short_name": "Choa Chu Kang Ave 5", "types": ["route"]}, {"long_name": "Choa Chu Kang", "short_name": "Choa Chu Kang", "types": ["neighborhood", "political"]}, {"long_name": "Singapore", "short_name": "Singapore", "types": ["locality", "political"]}, {"long_name": "Singapore", "short_name": "SG", "types": ["country", "political"]}, {"long_name": "684485", "short_name": "684485", "types": ["postal_code"]}], "formatted_address": "485D Choa Chu Kang Ave 5, Block 485D, Singapore 684485", "geometry": {"bounds": {"northeast": {"lat": 1.3755233, "lng": 103.7392942}, "southwest": {"lat": 1.3750661, "lng": 103.7386678}}, "location": {"lat": 1.3754572, "lng": 103.7388274}, "location_type": "ROOFTOP", "viewport": {"northeast": {"lat": 1.376643680291502, "lng": 103.7403299802915}, "southwest": {"lat": 1.373945719708498, "lng": 103.7376320197085}}}, "place_id": "ChIJAa3q6toR2jERLgmZljLQJEM", "types": ["premise"]}