{"address_components": [{"long_name": "Block 747", "short_name": "Block 747", "types": ["premise"]}, {"long_name": "747", "short_name": "747", "types": ["street_number"]}, {"long_name": "Woodlands Circle", "short_name": "Woodlands Cir", "types": ["route"]}, {"long_name": "Woodlands", "short_name": "Woodlands", "types": ["neighborhood", "political"]}, {"long_name": "Singapore", "short_name": "Singapore", "types": ["locality", "political"]}, {"long_name": "Singapore", "short_name": "SG", "types": ["country", "political"]}, {"long_name": "730747", "short_name": "730747", "types": ["postal_code"]}], "formatted_address": "747 Woodlands Cir, Block 747, Singapore 730747", "geometry": {"bounds": {"northeast": {"lat": 1.4433721, "lng": 103.795322}, "southwest": {"lat": 1.442761, "lng": 103.794587}}, "location": {"lat": 1.4431941, "lng": 103.7950471}, "location_type": "ROOFTOP", "viewport": {"northeast": {"lat": 1.444415530291502, "lng": 103.7963034802915}, "southwest": {"lat": 1.441717569708498, "lng": 103.7936055197085}}}, "place_id": "ChIJn_1NmAsT2jERJuzy7IvJzPw", "types": ["premise"]}