{"address_components": [{"long_name": "Block 208", "short_name": "Block 208", "types": ["premise"]}, {"long_name": "208", "short_name": "208", "types": ["street_number"]}, {"long_name": "Petir Road", "short_name": "Petir Rd", "types": ["route"]}, {"long_name": "Bukit Panjang", "short_name": "Bukit Panjang", "types": ["neighborhood", "political"]}, {"long_name": "Singapore", "short_name": "Singapore", "types": ["locality", "political"]}, {"long_name": "Singapore", "short_name": "SG", "types": ["country", "political"]}, {"long_name": "670208", "short_name": "670208", "types": ["postal_code"]}], "formatted_address": "208 Petir Rd, Block 208, Singapore 670208", "geometry": {"bounds": {"northeast": {"lat": 1.3742619, "lng": 103.775388}, "southwest": {"lat": 1.373692, "lng": 103.7745719}}, "location": {"lat": 1.3739991, "lng": 103.7749465}, "location_type": "ROOFTOP", "viewport": {"northeast": {"lat": 1.375325930291502, "lng": 103.7763289302915}, "southwest": {"lat": 1.372627969708498, "lng": 103.7736309697085}}}, "place_id": "ChIJcZ6L_qcR2jER_VCtaRmOzBc", "types": ["premise"]}