{"address_components": [{"long_name": "280A", "short_name": "280A", "types": ["street_number"]}, {"long_name": "Sengkang East Avenue", "short_name": "Sengkang E Ave", "types": ["route"]}, {"long_name": "Sengkang", "short_name": "Sengkang", "types": ["neighborhood", "political"]}, {"long_name": "Singapore", "short_name": "Singapore", "types": ["locality", "political"]}, {"long_name": "Singapore", "short_name": "SG", "types": ["country", "political"]}, {"long_name": "541280", "short_name": "541280", "types": ["postal_code"]}], "formatted_address": "280A Sengkang E Ave, Singapore 541280", "geometry": {"bounds": {"northeast": {"lat": 1.3862758, "lng": 103.8923571}, "southwest": {"lat": 1.386075, "lng": 103.8922015}}, "location": {"lat": 1.3861098, "lng": 103.8923099}, "location_type": "ROOFTOP", "viewport": {"northeast": {"lat": 1.387524380291502, "lng": 103.8936282802915}, "southwest": {"lat": 1.384826419708498, "lng": 103.8909303197085}}}, "place_id": "ChIJrRM7vxQW2jERtDrccgtzSjM", "types": ["establishment", "premise"]}