{"address_components": [{"long_name": "Block 15", "short_name": "Block 15", "types": ["premise"]}, {"long_name": "15", "short_name": "15", "types": ["street_number"]}, {"long_name": "Teck Whye Lane", "short_name": "Teck Whye Ln", "types": ["route"]}, {"long_name": "Choa Chu Kang", "short_name": "Choa Chu Kang", "types": ["neighborhood", "political"]}, {"long_name": "Singapore", "short_name": "Singapore", "types": ["locality", "political"]}, {"long_name": "Singapore", "short_name": "SG", "types": ["country", "political"]}, {"long_name": "680015", "short_name": "680015", "types": ["postal_code"]}], "formatted_address": "15 Teck Whye Ln, Block 15, Singapore 680015", "geometry": {"bounds": {"northeast": {"lat": 1.3792676, "lng": 103.7551392}, "southwest": {"lat": 1.3790387, "lng": 103.7543041}}, "location": {"lat": 1.3791755, "lng": 103.7547584}, "location_type": "ROOFTOP", "viewport": {"northeast": {"lat": 1.380502130291502, "lng": 103.7560706302915}, "southwest": {"lat": 1.377804169708498, "lng": 103.7533726697085}}}, "place_id": "ChIJqxO3KL8R2jERNXFZ3U7hdXc", "types": ["premise"]}