{"address_components": [{"long_name": "Block 403", "short_name": "Block 403", "types": ["premise"]}, {"long_name": "403", "short_name": "403", "types": ["street_number"]}, {"long_name": "Ang Mo Kio Avenue 10", "short_name": "Ang Mo Kio Ave 10", "types": ["route"]}, {"long_name": "Ang Mo Kio", "short_name": "Ang Mo Kio", "types": ["neighborhood", "political"]}, {"long_name": "Singapore", "short_name": "Singapore", "types": ["locality", "political"]}, {"long_name": "Singapore", "short_name": "SG", "types": ["country", "political"]}, {"long_name": "560403", "short_name": "560403", "types": ["postal_code"]}], "formatted_address": "403 Ang Mo Kio Ave 10, Block 403, Singapore 560403", "geometry": {"bounds": {"northeast": {"lat": 1.3615335, "lng": 103.8550002}, "southwest": {"lat": 1.3611358, "lng": 103.854235}}, "location": {"lat": 1.3613694, "lng": 103.8545514}, "location_type": "ROOFTOP", "viewport": {"northeast": {"lat": 1.362683630291502, "lng": 103.8559665802915}, "southwest": {"lat": 1.359985669708498, "lng": 103.8532686197085}}}, "place_id": "ChIJobEN5BwX2jERd_yTai8Ojbw", "types": ["premise"]}