{"address_components": [{"long_name": "Block 35", "short_name": "Block 35", "types": ["premise"]}, {"long_name": "35", "short_name": "35", "types": ["street_number"]}, {"long_name": "Lorong 5 Toa Payoh", "short_name": "Lrg. 5 Toa Payoh", "types": ["route"]}, {"long_name": "Toa Payoh", "short_name": "Toa Payoh", "types": ["neighborhood", "political"]}, {"long_name": "Singapore", "short_name": "Singapore", "types": ["locality", "political"]}, {"long_name": "Singapore", "short_name": "SG", "types": ["country", "political"]}, {"long_name": "310035", "short_name": "310035", "types": ["postal_code"]}], "formatted_address": "35 Lrg. 5 Toa Payoh, Block 35, Singapore 310035", "geometry": {"bounds": {"northeast": {"lat": 1.3345411, "lng": 103.8548252}, "southwest": {"lat": 1.3342549, "lng": 103.8543282}}, "location": {"lat": 1.3343507, "lng": 103.8545514}, "location_type": "ROOFTOP", "viewport": {"northeast": {"lat": 1.335746980291502, "lng": 103.8559256802915}, "southwest": {"lat": 1.333049019708498, "lng": 103.8532277197085}}}, "place_id": "ChIJmbH-E2UX2jERVKc0aN-P1G0", "types": ["premise"]}