{"address_components": [{"long_name": "Block 618", "short_name": "Block 618", "types": ["premise"]}, {"long_name": "618", "short_name": "618", "types": ["street_number"]}, {"long_name": "Choa Chu Kang North 7", "short_name": "Choa Chu Kang North 7", "types": ["route"]}, {"long_name": "Choa Chu Kang", "short_name": "Choa Chu Kang", "types": ["neighborhood", "political"]}, {"long_name": "Singapore", "short_name": "Singapore", "types": ["locality", "political"]}, {"long_name": "Singapore", "short_name": "SG", "types": ["country", "political"]}, {"long_name": "680618", "short_name": "680618", "types": ["postal_code"]}], "formatted_address": "618 Choa Chu Kang North 7, Block 618, Singapore 680618", "geometry": {"bounds": {"northeast": {"lat": 1.4005831, "lng": 103.7473344}, "southwest": {"lat": 1.4001503, "lng": 103.7466968}}, "location": {"lat": 1.4003406, "lng": 103.7468832}, "location_type": "ROOFTOP", "viewport": {"northeast": {"lat": 1.401715680291502, "lng": 103.7483645802915}, "southwest": {"lat": 1.399017719708498, "lng": 103.7456666197085}}}, "place_id": "ChIJdZYK0PUR2jERI_dc8heRgdY", "types": ["premise"]}