{"address_components": [{"long_name": "Block 329", "short_name": "Block 329", "types": ["premise"]}, {"long_name": "329", "short_name": "329", "types": ["street_number"]}, {"long_name": "Yishun Ring Road", "short_name": "Yishun Ring Rd", "types": ["route"]}, {"long_name": "Yishun", "short_name": "Yishun", "types": ["neighborhood", "political"]}, {"long_name": "Singapore", "short_name": "Singapore", "types": ["locality", "political"]}, {"long_name": "Singapore", "short_name": "SG", "types": ["country", "political"]}, {"long_name": "760329", "short_name": "760329", "types": ["postal_code"]}], "formatted_address": "329 Yishun Ring Rd, Block 329, Singapore 760329", "geometry": {"bounds": {"northeast": {"lat": 1.4307205, "lng": 103.8429949}, "southwest": {"lat": 1.4300105, "lng": 103.8422379}}, "location": {"lat": 1.4303694, "lng": 103.8426168}, "location_type": "ROOFTOP", "viewport": {"northeast": {"lat": 1.431714480291502, "lng": 103.8439653802915}, "southwest": {"lat": 1.429016519708498, "lng": 103.8412674197085}}}, "place_id": "ChIJVzcF0GcU2jERcNrqySk-NAQ", "types": ["premise"]}