{"address_components": [{"long_name": "Block 142", "short_name": "Block 142", "types": ["premise"]}, {"long_name": "142", "short_name": "142", "types": ["street_number"]}, {"long_name": "Simei Street 2", "short_name": "Simei Street 2", "types": ["route"]}, {"long_name": "Tampines", "short_name": "Tampines", "types": ["neighborhood", "political"]}, {"long_name": "Singapore", "short_name": "Singapore", "types": ["locality", "political"]}, {"long_name": "Singapore", "short_name": "SG", "types": ["country", "political"]}, {"long_name": "520142", "short_name": "520142", "types": ["postal_code"]}], "formatted_address": "142 Simei Street 2, Block 142, Singapore 520142", "geometry": {"bounds": {"northeast": {"lat": 1.3457069, "lng": 103.9554871}, "southwest": {"lat": 1.345165, "lng": 103.9547971}}, "location": {"lat": 1.345406, "lng": 103.955143}, "location_type": "ROOFTOP", "viewport": {"northeast": {"lat": 1.346784930291502, "lng": 103.9564910802915}, "southwest": {"lat": 1.344086969708498, "lng": 103.9537931197085}}}, "place_id": "ChIJVT7fTB892jERod5Pazkj7es", "types": ["premise"]}