{"address_components": [{"long_name": "Block 626", "short_name": "Block 626", "types": ["premise"]}, {"long_name": "626", "short_name": "626", "types": ["street_number"]}, {"long_name": "Woodlands Avenue 6", "short_name": "Woodlands Ave 6", "types": ["route"]}, {"long_name": "Woodlands", "short_name": "Woodlands", "types": ["neighborhood", "political"]}, {"long_name": "Singapore", "short_name": "Singapore", "types": ["locality", "political"]}, {"long_name": "Singapore", "short_name": "SG", "types": ["country", "political"]}, {"long_name": "730626", "short_name": "730626", "types": ["postal_code"]}], "formatted_address": "626 Woodlands Ave 6, Block 626, Singapore 730626", "geometry": {"bounds": {"northeast": {"lat": 1.4340329, "lng": 103.8008713}, "southwest": {"lat": 1.4333951, "lng": 103.800406}}, "location": {"lat": 1.4336921, "lng": 103.8004802}, "location_type": "ROOFTOP", "viewport": {"northeast": {"lat": 1.435062980291502, "lng": 103.8019876302915}, "southwest": {"lat": 1.432365019708498, "lng": 103.7992896697085}}}, "place_id": "ChIJDQa33JgT2jER4pDR0R3FFlo", "types": ["premise"]}