{"address_components": [{"long_name": "Block 348", "short_name": "Block 348", "types": ["premise"]}, {"long_name": "348", "short_name": "348", "types": ["street_number"]}, {"long_name": "Clementi Avenue 5", "short_name": "Clementi Ave 5", "types": ["route"]}, {"long_name": "Clementi", "short_name": "Clementi", "types": ["neighborhood", "political"]}, {"long_name": "Singapore", "short_name": "Singapore", "types": ["locality", "political"]}, {"long_name": "Singapore", "short_name": "SG", "types": ["country", "political"]}, {"long_name": "120348", "short_name": "120348", "types": ["postal_code"]}], "formatted_address": "348 Clementi Ave 5, Block 348, Singapore 120348", "geometry": {"bounds": {"northeast": {"lat": 1.3169179, "lng": 103.7712559}, "southwest": {"lat": 1.316613, "lng": 103.770442}}, "location": {"lat": 1.316748, "lng": 103.7707819}, "location_type": "ROOFTOP", "viewport": {"northeast": {"lat": 1.318114430291502, "lng": 103.7721979302915}, "southwest": {"lat": 1.315416469708498, "lng": 103.7694999697085}}}, "place_id": "ChIJpVXpvYga2jERUR394YVxPFs", "types": ["premise"]}