{"address_components": [{"long_name": "Block 619", "short_name": "Block 619", "types": ["premise"]}, {"long_name": "619", "short_name": "619", "types": ["street_number"]}, {"long_name": "Choa Chu Kang North 7", "short_name": "Choa Chu Kang North 7", "types": ["route"]}, {"long_name": "Choa Chu Kang", "short_name": "Choa Chu Kang", "types": ["neighborhood", "political"]}, {"long_name": "Singapore", "short_name": "Singapore", "types": ["locality", "political"]}, {"long_name": "Singapore", "short_name": "SG", "types": ["country", "political"]}, {"long_name": "680619", "short_name": "680619", "types": ["postal_code"]}], "formatted_address": "619 Choa Chu Kang North 7, Block 619, Singapore 680619", "geometry": {"bounds": {"northeast": {"lat": 1.400499, "lng": 103.7477351}, "southwest": {"lat": 1.3999811, "lng": 103.747332}}, "location": {"lat": 1.4002634, "lng": 103.7475168}, "location_type": "ROOFTOP", "viewport": {"northeast": {"lat": 1.401589030291502, "lng": 103.7488825302915}, "southwest": {"lat": 1.398891069708498, "lng": 103.7461845697085}}}, "partial_match": true, "place_id": "ChIJaUD8yPUR2jER02NxhEJeiUc", "types": ["premise"]}