{"address_components": [{"long_name": "Block 274", "short_name": "Block 274", "types": ["premise"]}, {"long_name": "274", "short_name": "274", "types": ["street_number"]}, {"long_name": "Bangkit Road", "short_name": "Bangkit Rd", "types": ["route"]}, {"long_name": "Bukit Panjang", "short_name": "Bukit Panjang", "types": ["neighborhood", "political"]}, {"long_name": "Singapore", "short_name": "Singapore", "types": ["locality", "political"]}, {"long_name": "Singapore", "short_name": "SG", "types": ["country", "political"]}, {"long_name": "670274", "short_name": "670274", "types": ["postal_code"]}], "formatted_address": "274 Bangkit Rd, Block 274, Singapore 670274", "geometry": {"bounds": {"northeast": {"lat": 1.37723, "lng": 103.7753478}, "southwest": {"lat": 1.377105, "lng": 103.774261}}, "location": {"lat": 1.3771518, "lng": 103.7747655}, "location_type": "ROOFTOP", "viewport": {"northeast": {"lat": 1.378516480291502, "lng": 103.7761533802915}, "southwest": {"lat": 1.375818519708498, "lng": 103.7734554197085}}}, "place_id": "ChIJLzjnZqcR2jERv74seBKUcro", "types": ["premise"]}