{"address_components": [{"long_name": "Block 524", "short_name": "Block 524", "types": ["premise"]}, {"long_name": "524", "short_name": "524", "types": ["street_number"]}, {"long_name": "Woodlands Drive 14", "short_name": "Woodlands Drive 14", "types": ["route"]}, {"long_name": "Woodlands", "short_name": "Woodlands", "types": ["neighborhood", "political"]}, {"long_name": "Singapore", "short_name": "Singapore", "types": ["locality", "political"]}, {"long_name": "Singapore", "short_name": "SG", "types": ["country", "political"]}, {"long_name": "730524", "short_name": "730524", "types": ["postal_code"]}], "formatted_address": "524 Woodlands Drive 14, Block 524, Singapore 730524", "geometry": {"bounds": {"northeast": {"lat": 1.4330227, "lng": 103.7939753}, "southwest": {"lat": 1.4321567, "lng": 103.7934003}}, "location": {"lat": 1.4326318, "lng": 103.79387}, "location_type": "ROOFTOP", "viewport": {"northeast": {"lat": 1.433938680291502, "lng": 103.7950367802915}, "southwest": {"lat": 1.431240719708498, "lng": 103.7923388197085}}}, "place_id": "ChIJbTEUnKMT2jERs9RSQne7VyE", "types": ["premise"]}