{"address_components": [{"long_name": "Block 690D", "short_name": "Block 690D", "types": ["premise"]}, {"long_name": "690D", "short_name": "690D", "types": ["street_number"]}, {"long_name": "Woodlands Drive 75", "short_name": "Woodlands Drive 75", "types": ["route"]}, {"long_name": "Woodlands", "short_name": "Woodlands", "types": ["neighborhood", "political"]}, {"long_name": "Singapore", "short_name": "Singapore", "types": ["locality", "political"]}, {"long_name": "Singapore", "short_name": "SG", "types": ["country", "political"]}, {"long_name": "734690", "short_name": "734690", "types": ["postal_code"]}], "formatted_address": "690D Woodlands Drive 75, Block 690D, Singapore 734690", "geometry": {"bounds": {"northeast": {"lat": 1.442763, "lng": 103.80805}, "southwest": {"lat": 1.442426, "lng": 103.8076551}}, "location": {"lat": 1.4426008, "lng": 103.8079058}, "location_type": "ROOFTOP", "viewport": {"northeast": {"lat": 1.443943480291502, "lng": 103.8092015302915}, "southwest": {"lat": 1.441245519708498, "lng": 103.8065035697085}}}, "place_id": "ChIJORD9GXcT2jERsWoH4oyQhug", "types": ["premise"]}