{"address_components": [{"long_name": "Block 458", "short_name": "Block 458", "types": ["premise"]}, {"long_name": "458", "short_name": "458", "types": ["street_number"]}, {"long_name": "Jurong West Street 41", "short_name": "Jurong West Street 41", "types": ["route"]}, {"long_name": "Jurong West", "short_name": "Jurong West", "types": ["neighborhood", "political"]}, {"long_name": "Singapore", "short_name": "Singapore", "types": ["locality", "political"]}, {"long_name": "Singapore", "short_name": "SG", "types": ["country", "political"]}, {"long_name": "640458", "short_name": "640458", "types": ["postal_code"]}], "formatted_address": "458 Jurong West Street 41, Block 458, Singapore 640458", "geometry": {"bounds": {"northeast": {"lat": 1.350442, "lng": 103.7205273}, "southwest": {"lat": 1.3500718, "lng": 103.7197087}}, "location": {"lat": 1.3502891, "lng": 103.720096}, "location_type": "ROOFTOP", "viewport": {"northeast": {"lat": 1.351605880291502, "lng": 103.7214669802915}, "southwest": {"lat": 1.348907919708498, "lng": 103.7187690197085}}}, "place_id": "ChIJjVZRhtwP2jER4ULZn6l8FUw", "types": ["premise"]}