{"address_components": [{"long_name": "Block 413", "short_name": "Block 413", "types": ["premise"]}, {"long_name": "413", "short_name": "413", "types": ["street_number"]}, {"long_name": "Hougang Avenue 10", "short_name": "Hougang Ave 10", "types": ["route"]}, {"long_name": "Hougang", "short_name": "Hougang", "types": ["neighborhood", "political"]}, {"long_name": "Singapore", "short_name": "Singapore", "types": ["locality", "political"]}, {"long_name": "Singapore", "short_name": "SG", "types": ["country", "political"]}, {"long_name": "530413", "short_name": "530413", "types": ["postal_code"]}], "formatted_address": "413 Hougang Ave 10, Block 413, Singapore 530413", "geometry": {"bounds": {"northeast": {"lat": 1.3746634, "lng": 103.895946}, "southwest": {"lat": 1.3745004, "lng": 103.895284}}, "location": {"lat": 1.3746045, "lng": 103.895776}, "location_type": "ROOFTOP", "viewport": {"northeast": {"lat": 1.375930880291502, "lng": 103.8969639802915}, "southwest": {"lat": 1.373232919708498, "lng": 103.8942660197085}}}, "place_id": "ChIJV4zClTkW2jERrle5dhOoz50", "types": ["premise"]}