{"address_components": [{"long_name": "Block 609", "short_name": "Block 609", "types": ["premise"]}, {"long_name": "609", "short_name": "609", "types": ["street_number"]}, {"long_name": "Ang Mo Kio Avenue 4", "short_name": "Ang Mo Kio Ave 4", "types": ["route"]}, {"long_name": "Ang Mo Kio", "short_name": "Ang Mo Kio", "types": ["neighborhood", "political"]}, {"long_name": "Singapore", "short_name": "Singapore", "types": ["locality", "political"]}, {"long_name": "Singapore", "short_name": "SG", "types": ["country", "political"]}, {"long_name": "560609", "short_name": "560609", "types": ["postal_code"]}], "formatted_address": "609 Ang Mo Kio Ave 4, Block 609, Singapore 560609", "geometry": {"bounds": {"northeast": {"lat": 1.3793309, "lng": 103.8380749}, "southwest": {"lat": 1.379188, "lng": 103.837186}}, "location": {"lat": 1.3792723, "lng": 103.8376122}, "location_type": "ROOFTOP", "viewport": {"northeast": {"lat": 1.380608430291502, "lng": 103.8389794302915}, "southwest": {"lat": 1.377910469708498, "lng": 103.8362814697085}}}, "place_id": "ChIJBZTuv8YW2jERpphPiBPIlUM", "types": ["premise"]}