{"address_components": [{"long_name": "Block 223", "short_name": "Block 223", "types": ["premise"]}, {"long_name": "223", "short_name": "223", "types": ["street_number"]}, {"long_name": "Simei Street 4", "short_name": "Simei Street 4", "types": ["route"]}, {"long_name": "Tampines", "short_name": "Tampines", "types": ["neighborhood", "political"]}, {"long_name": "Singapore", "short_name": "Singapore", "types": ["locality", "political"]}, {"long_name": "Singapore", "short_name": "SG", "types": ["country", "political"]}, {"long_name": "520223", "short_name": "520223", "types": ["postal_code"]}], "formatted_address": "223 Simei Street 4, Block 223, Singapore 520223", "geometry": {"bounds": {"northeast": {"lat": 1.3425146, "lng": 103.9578791}, "southwest": {"lat": 1.3419322, "lng": 103.9573215}}, "location": {"lat": 1.3422443, "lng": 103.9576814}, "location_type": "ROOFTOP", "viewport": {"northeast": {"lat": 1.343572380291502, "lng": 103.9589492802915}, "southwest": {"lat": 1.340874419708498, "lng": 103.9562513197085}}}, "place_id": "ChIJUf7NACE92jERg2Hxv-gDfK0", "types": ["premise"]}