{"address_components": [{"long_name": "Block 290", "short_name": "Block 290", "types": ["premise"]}, {"long_name": "290", "short_name": "290", "types": ["street_number"]}, {"long_name": "Tampines Street 22", "short_name": "Tampines Street 22", "types": ["route"]}, {"long_name": "Tampines", "short_name": "Tampines", "types": ["neighborhood", "political"]}, {"long_name": "Singapore", "short_name": "Singapore", "types": ["locality", "political"]}, {"long_name": "Singapore", "short_name": "SG", "types": ["country", "political"]}, {"long_name": "520290", "short_name": "520290", "types": ["postal_code"]}], "formatted_address": "290 Tampines Street 22, Block 290, Singapore 520290", "geometry": {"bounds": {"northeast": {"lat": 1.3502341, "lng": 103.9546579}, "southwest": {"lat": 1.349529, "lng": 103.954509}}, "location": {"lat": 1.3498738, "lng": 103.9545991}, "location_type": "ROOFTOP", "viewport": {"northeast": {"lat": 1.351230530291502, "lng": 103.9559324302915}, "southwest": {"lat": 1.348532569708498, "lng": 103.9532344697085}}}, "place_id": "ChIJiVsO-hs92jERDAdRwUaRkwE", "types": ["premise"]}