{"address_components": [{"long_name": "Block 64", "short_name": "Block 64", "types": ["premise"]}, {"long_name": "64", "short_name": "64", "types": ["street_number"]}, {"long_name": "Teban Gardens Road", "short_name": "Teban Gardens Rd", "types": ["route"]}, {"long_name": "Jurong East", "short_name": "Jurong East", "types": ["neighborhood", "political"]}, {"long_name": "Singapore", "short_name": "Singapore", "types": ["locality", "political"]}, {"long_name": "Singapore", "short_name": "SG", "types": ["country", "political"]}, {"long_name": "600064", "short_name": "600064", "types": ["postal_code"]}], "formatted_address": "64 Teban Gardens Rd, Block 64, Singapore 600064", "geometry": {"bounds": {"northeast": {"lat": 1.3216329, "lng": 103.739976}, "southwest": {"lat": 1.321312, "lng": 103.7396179}}, "location": {"lat": 1.321534, "lng": 103.739823}, "location_type": "ROOFTOP", "viewport": {"northeast": {"lat": 1.322821430291502, "lng": 103.7411459302915}, "southwest": {"lat": 1.320123469708498, "lng": 103.7384479697085}}}, "place_id": "ChIJhTrMXK8a2jER9fvTGNJvNlA", "types": ["premise"]}