{"address_components": [{"long_name": "Block 469B", "short_name": "Block 469B", "types": ["premise"]}, {"long_name": "469B", "short_name": "469B", "types": ["street_number"]}, {"long_name": "Admiralty Drive", "short_name": "Admiralty Dr", "types": ["route"]}, {"long_name": "Sembawang", "short_name": "Sembawang", "types": ["neighborhood", "political"]}, {"long_name": "Singapore", "short_name": "Singapore", "types": ["locality", "political"]}, {"long_name": "Singapore", "short_name": "SG", "types": ["country", "political"]}, {"long_name": "752469", "short_name": "752469", "types": ["postal_code"]}], "formatted_address": "469B Admiralty Dr, Block 469B, Singapore 752469", "geometry": {"bounds": {"northeast": {"lat": 1.4491911, "lng": 103.8136305}, "southwest": {"lat": 1.4482066, "lng": 103.8129242}}, "location": {"lat": 1.4484762, "lng": 103.8133847}, "location_type": "ROOFTOP", "viewport": {"northeast": {"lat": 1.450047830291502, "lng": 103.8146263302915}, "southwest": {"lat": 1.447349869708498, "lng": 103.8119283697085}}}, "place_id": "ChIJtfxXK3sT2jERTMSJE2RNnQM", "types": ["premise"]}