{"address_components": [{"long_name": "Block 415", "short_name": "Block 415", "types": ["premise"]}, {"long_name": "415", "short_name": "415", "types": ["street_number"]}, {"long_name": "Pasir Ris Drive 6", "short_name": "Pasir Ris Drive 6", "types": ["route"]}, {"long_name": "Pasir Ris", "short_name": "Pasir Ris", "types": ["neighborhood", "political"]}, {"long_name": "Singapore", "short_name": "Singapore", "types": ["locality", "political"]}, {"long_name": "Singapore", "short_name": "SG", "types": ["country", "political"]}, {"long_name": "510415", "short_name": "510415", "types": ["postal_code"]}], "formatted_address": "415 Pasir Ris Drive 6, Block 415, Singapore 510415", "geometry": {"bounds": {"northeast": {"lat": 1.372182, "lng": 103.956434}, "southwest": {"lat": 1.3717091, "lng": 103.9560371}}, "location": {"lat": 1.3718465, "lng": 103.9562535}, "location_type": "ROOFTOP", "viewport": {"northeast": {"lat": 1.373294530291502, "lng": 103.9575845302915}, "southwest": {"lat": 1.370596569708498, "lng": 103.9548865697085}}}, "place_id": "ChIJlV5d7K092jERxeHIU7bzR1Y", "types": ["premise"]}