{"address_components": [{"long_name": "Block 408B", "short_name": "Block 408B", "types": ["premise"]}, {"long_name": "408B", "short_name": "408B", "types": ["street_number"]}, {"long_name": "Fernvale Road", "short_name": "Fernvale Rd", "types": ["route"]}, {"long_name": "Sengkang", "short_name": "Sengkang", "types": ["neighborhood", "political"]}, {"long_name": "Singapore", "short_name": "Singapore", "types": ["locality", "political"]}, {"long_name": "Singapore", "short_name": "SG", "types": ["country", "political"]}, {"long_name": "792408", "short_name": "792408", "types": ["postal_code"]}], "formatted_address": "408B Fernvale Rd, Block 408B, Singapore 792408", "geometry": {"bounds": {"northeast": {"lat": 1.3893512, "lng": 103.8762385}, "southwest": {"lat": 1.3888833, "lng": 103.8758784}}, "location": {"lat": 1.3890749, "lng": 103.8760224}, "location_type": "ROOFTOP", "viewport": {"northeast": {"lat": 1.390466230291502, "lng": 103.8774074302915}, "southwest": {"lat": 1.387768269708498, "lng": 103.8747094697085}}}, "partial_match": true, "place_id": "ChIJy-VqUGQW2jERcGvmK3D_C9E", "types": ["premise"]}