{"address_components": [{"long_name": "Block 324", "short_name": "Block 324", "types": ["premise"]}, {"long_name": "323", "short_name": "323", "types": ["street_number"]}, {"long_name": "Tah Ching Road", "short_name": "Tah Ching Rd", "types": ["route"]}, {"long_name": "Jurong West", "short_name": "Jurong West", "types": ["neighborhood", "political"]}, {"long_name": "Singapore", "short_name": "Singapore", "types": ["locality", "political"]}, {"long_name": "Singapore", "short_name": "SG", "types": ["country", "political"]}, {"long_name": "610323", "short_name": "610323", "types": ["postal_code"]}], "formatted_address": "323 Tah Ching Rd, Block 324, Singapore 610323", "geometry": {"bounds": {"northeast": {"lat": 1.3370417, "lng": 103.7242813}, "southwest": {"lat": 1.3366147, "lng": 103.7236273}}, "location": {"lat": 1.3369347, "lng": 103.7239845}, "location_type": "ROOFTOP", "viewport": {"northeast": {"lat": 1.338177180291502, "lng": 103.7253032802915}, "southwest": {"lat": 1.335479219708498, "lng": 103.7226053197085}}}, "place_id": "ChIJ5a9tTeMP2jER5auf7VfCN_0", "types": ["premise"]}