{"address_components": [{"long_name": "Block 605", "short_name": "Block 605", "types": ["premise"]}, {"long_name": "605", "short_name": "605", "types": ["street_number"]}, {"long_name": "Hougang Avenue 4", "short_name": "Hougang Ave 4", "types": ["route"]}, {"long_name": "Hougang", "short_name": "Hougang", "types": ["neighborhood", "political"]}, {"long_name": "Singapore", "short_name": "Singapore", "types": ["locality", "political"]}, {"long_name": "Singapore", "short_name": "SG", "types": ["country", "political"]}, {"long_name": "530605", "short_name": "530605", "types": ["postal_code"]}], "formatted_address": "605 Hougang Ave 4, Block 605, Singapore 530605", "geometry": {"bounds": {"northeast": {"lat": 1.3710816, "lng": 103.886889}, "southwest": {"lat": 1.3707773, "lng": 103.8859951}}, "location": {"lat": 1.3709238, "lng": 103.8864427}, "location_type": "ROOFTOP", "viewport": {"northeast": {"lat": 1.372278430291502, "lng": 103.8877910302915}, "southwest": {"lat": 1.369580469708498, "lng": 103.8850930697085}}}, "place_id": "ChIJN5Us2UgW2jERWH1UMN1OJCs", "types": ["premise"]}