{"address_components": [{"long_name": "Block 163B", "short_name": "Block 163B", "types": ["premise"]}, {"long_name": "163B", "short_name": "163B", "types": ["street_number"]}, {"long_name": "Punggol Central", "short_name": "Punggol Central", "types": ["route"]}, {"long_name": "Punggol", "short_name": "Punggol", "types": ["neighborhood", "political"]}, {"long_name": "Singapore", "short_name": "Singapore", "types": ["locality", "political"]}, {"long_name": "Singapore", "short_name": "SG", "types": ["country", "political"]}, {"long_name": "822163", "short_name": "822163", "types": ["postal_code"]}], "formatted_address": "163B Punggol Central, Block 163B, Singapore 822163", "geometry": {"bounds": {"northeast": {"lat": 1.3959291, "lng": 103.9139676}, "southwest": {"lat": 1.3955242, "lng": 103.9136316}}, "location": {"lat": 1.3956723, "lng": 103.91381}, "location_type": "ROOFTOP", "viewport": {"northeast": {"lat": 1.397075630291502, "lng": 103.9151485802915}, "southwest": {"lat": 1.394377669708498, "lng": 103.9124506197085}}}, "place_id": "ChIJAXKuDwIW2jER8GQ06nQGSFs", "types": ["premise"]}