{"address_components": [{"long_name": "Block 646", "short_name": "Block 646", "types": ["premise"]}, {"long_name": "646", "short_name": "646", "types": ["street_number"]}, {"long_name": "Punggol Central", "short_name": "Punggol Central", "types": ["route"]}, {"long_name": "Punggol", "short_name": "Punggol", "types": ["neighborhood", "political"]}, {"long_name": "Singapore", "short_name": "Singapore", "types": ["locality", "political"]}, {"long_name": "Singapore", "short_name": "SG", "types": ["country", "political"]}, {"long_name": "820646", "short_name": "820646", "types": ["postal_code"]}], "formatted_address": "646 Punggol Central, Block 646, Singapore 820646", "geometry": {"bounds": {"northeast": {"lat": 1.3983111, "lng": 103.9159761}, "southwest": {"lat": 1.3979729, "lng": 103.9155832}}, "location": {"lat": 1.3981522, "lng": 103.9158038}, "location_type": "ROOFTOP", "viewport": {"northeast": {"lat": 1.399490980291502, "lng": 103.9171286302915}, "southwest": {"lat": 1.396793019708498, "lng": 103.9144306697085}}}, "place_id": "ChIJUX1Bbf892jERLNocdhrPnZs", "types": ["premise"]}