{"address_components": [{"long_name": "Block 15", "short_name": "Block 15", "types": ["premise"]}, {"long_name": "15", "short_name": "15", "types": ["street_number"]}, {"long_name": "Ghim Moh Road", "short_name": "Ghim Moh Rd", "types": ["route"]}, {"long_name": "Queenstown", "short_name": "Queenstown", "types": ["neighborhood", "political"]}, {"long_name": "Singapore", "short_name": "Singapore", "types": ["locality", "political"]}, {"long_name": "Singapore", "short_name": "SG", "types": ["country", "political"]}, {"long_name": "270015", "short_name": "270015", "types": ["postal_code"]}], "formatted_address": "15 Ghim Moh Rd, Block 15, Singapore 270015", "geometry": {"bounds": {"northeast": {"lat": 1.3092972, "lng": 103.7888213}, "southwest": {"lat": 1.3086882, "lng": 103.7881003}}, "location": {"lat": 1.3091282, "lng": 103.7886408}, "location_type": "ROOFTOP", "viewport": {"northeast": {"lat": 1.310341680291502, "lng": 103.7898097802915}, "southwest": {"lat": 1.307643719708498, "lng": 103.7871118197085}}}, "place_id": "ChIJN1UzPGga2jERAF-5-CW_Ghg", "types": ["premise"]}