{"address_components": [{"long_name": "Block 137", "short_name": "Block 137", "types": ["premise"]}, {"long_name": "137", "short_name": "137", "types": ["street_number"]}, {"long_name": "Simei Street 1", "short_name": "Simei Street 1", "types": ["route"]}, {"long_name": "Tampines", "short_name": "Tampines", "types": ["neighborhood", "political"]}, {"long_name": "Singapore", "short_name": "Singapore", "types": ["locality", "political"]}, {"long_name": "Singapore", "short_name": "SG", "types": ["country", "political"]}, {"long_name": "520137", "short_name": "520137", "types": ["postal_code"]}], "formatted_address": "137 Simei Street 1, Block 137, Singapore 520137", "geometry": {"bounds": {"northeast": {"lat": 1.3477365, "lng": 103.9568038}, "southwest": {"lat": 1.3475325, "lng": 103.9558527}}, "location": {"lat": 1.347669, "lng": 103.9561402}, "location_type": "ROOFTOP", "viewport": {"northeast": {"lat": 1.348983480291502, "lng": 103.9576772302915}, "southwest": {"lat": 1.346285519708498, "lng": 103.9549792697085}}}, "place_id": "ChIJEW0vwx492jERiaF2ERhKD7c", "types": ["premise"]}