{"address_components": [{"long_name": "Block 451", "short_name": "Block 451", "types": ["premise"]}, {"long_name": "451", "short_name": "451", "types": ["street_number"]}, {"long_name": "Pasir Ris Drive 6", "short_name": "Pasir Ris Drive 6", "types": ["route"]}, {"long_name": "Pasir Ris", "short_name": "Pasir Ris", "types": ["neighborhood", "political"]}, {"long_name": "Singapore", "short_name": "Singapore", "types": ["locality", "political"]}, {"long_name": "Singapore", "short_name": "SG", "types": ["country", "political"]}, {"long_name": "510451", "short_name": "510451", "types": ["postal_code"]}], "formatted_address": "451 Pasir Ris Drive 6, Block 451, Singapore 510451", "geometry": {"bounds": {"northeast": {"lat": 1.371563, "lng": 103.9583419}, "southwest": {"lat": 1.3713371, "lng": 103.9577089}}, "location": {"lat": 1.371524, "lng": 103.9581347}, "location_type": "ROOFTOP", "viewport": {"northeast": {"lat": 1.372799030291502, "lng": 103.9593743802915}, "southwest": {"lat": 1.370101069708498, "lng": 103.9566764197085}}}, "place_id": "ChIJI-TxCq092jERNxOEKUI0CGo", "types": ["premise"]}