{"address_components": [{"long_name": "Block 465", "short_name": "Block 465", "types": ["premise"]}, {"long_name": "465", "short_name": "465", "types": ["street_number"]}, {"long_name": "Upper Serangoon Road", "short_name": "Upper Serangoon Rd", "types": ["route"]}, {"long_name": "Hougang", "short_name": "Hougang", "types": ["neighborhood", "political"]}, {"long_name": "Singapore", "short_name": "Singapore", "types": ["locality", "political"]}, {"long_name": "Singapore", "short_name": "SG", "types": ["country", "political"]}, {"long_name": "530465", "short_name": "530465", "types": ["postal_code"]}], "formatted_address": "465 Upper Serangoon Rd, Block 465, Singapore 530465", "geometry": {"bounds": {"northeast": {"lat": 1.3723786, "lng": 103.8971762}, "southwest": {"lat": 1.3717053, "lng": 103.8964313}}, "location": {"lat": 1.3720352, "lng": 103.8966821}, "location_type": "ROOFTOP", "viewport": {"northeast": {"lat": 1.373390930291502, "lng": 103.8981527302915}, "southwest": {"lat": 1.370692969708498, "lng": 103.8954547697085}}}, "place_id": "ChIJ3ahCSjcW2jERFVS0MMYWSK8", "types": ["premise"]}