{"address_components": [{"long_name": "Block 5", "short_name": "Block 5", "types": ["premise"]}, {"long_name": "5", "short_name": "5", "types": ["street_number"]}, {"long_name": "Haig Road", "short_name": "Haig Rd", "types": ["route"]}, {"long_name": "Geylang", "short_name": "Geylang", "types": ["neighborhood", "political"]}, {"long_name": "Singapore", "short_name": "Singapore", "types": ["locality", "political"]}, {"long_name": "Singapore", "short_name": "SG", "types": ["country", "political"]}, {"long_name": "430005", "short_name": "430005", "types": ["postal_code"]}], "formatted_address": "5 Haig Rd, Block 5, Singapore 430005", "geometry": {"bounds": {"northeast": {"lat": 1.3129278, "lng": 103.8968212}, "southwest": {"lat": 1.3121508, "lng": 103.8963732}}, "location": {"lat": 1.3125517, "lng": 103.8966141}, "location_type": "ROOFTOP", "viewport": {"northeast": {"lat": 1.313888280291502, "lng": 103.8979461802915}, "southwest": {"lat": 1.311190319708498, "lng": 103.8952482197085}}}, "place_id": "ChIJf2yprxYY2jERPxNUVWoJMSs", "types": ["premise"]}