{"address_components": [{"long_name": "Block 100", "short_name": "Block 100", "types": ["premise"]}, {"long_name": "100", "short_name": "100", "types": ["street_number"]}, {"long_name": "Bedok North Avenue 4", "short_name": "Bedok North Ave 4", "types": ["route"]}, {"long_name": "Bedok", "short_name": "Bedok", "types": ["neighborhood", "political"]}, {"long_name": "Singapore", "short_name": "Singapore", "types": ["locality", "political"]}, {"long_name": "Singapore", "short_name": "SG", "types": ["country", "political"]}, {"long_name": "460100", "short_name": "460100", "types": ["postal_code"]}], "formatted_address": "100 Bedok North Ave 4, Block 100, Singapore 460100", "geometry": {"bounds": {"northeast": {"lat": 1.3345261, "lng": 103.939348}, "southwest": {"lat": 1.3341016, "lng": 103.9383281}}, "location": {"lat": 1.334268, "lng": 103.9387805}, "location_type": "ROOFTOP", "viewport": {"northeast": {"lat": 1.335662830291502, "lng": 103.9401870302915}, "southwest": {"lat": 1.332964869708498, "lng": 103.9374890697085}}}, "place_id": "ChIJRSUE6Tc92jERfzXaMp5s6eU", "types": ["premise"]}