{"address_components": [{"long_name": "Block 531", "short_name": "Block 531", "types": ["premise"]}, {"long_name": "531", "short_name": "531", "types": ["street_number"]}, {"long_name": "Hougang Avenue 6", "short_name": "Hougang Ave 6", "types": ["route"]}, {"long_name": "Hougang", "short_name": "Hougang", "types": ["neighborhood", "political"]}, {"long_name": "Singapore", "short_name": "Singapore", "types": ["locality", "political"]}, {"long_name": "Singapore", "short_name": "SG", "types": ["country", "political"]}, {"long_name": "530531", "short_name": "530531", "types": ["postal_code"]}], "formatted_address": "531 Hougang Ave 6, Block 531, Singapore 530531", "geometry": {"bounds": {"northeast": {"lat": 1.3760195, "lng": 103.8906237}, "southwest": {"lat": 1.3753915, "lng": 103.8898567}}, "location": {"lat": 1.3758094, "lng": 103.8902484}, "location_type": "ROOFTOP", "viewport": {"northeast": {"lat": 1.377054480291502, "lng": 103.8915891802915}, "southwest": {"lat": 1.374356519708498, "lng": 103.8888912197085}}}, "place_id": "ChIJ66iZdkcW2jERlMoBZAZsGBQ", "types": ["premise"]}