{"address_components": [{"long_name": "Block 121", "short_name": "Block 121", "types": ["premise"]}, {"long_name": "121", "short_name": "121", "types": ["street_number"]}, {"long_name": "Kim Tian Place", "short_name": "Kim Tian Pl", "types": ["route"]}, {"long_name": "Bukit Merah", "short_name": "Bukit Merah", "types": ["neighborhood", "political"]}, {"long_name": "Singapore", "short_name": "Singapore", "types": ["locality", "political"]}, {"long_name": "Singapore", "short_name": "SG", "types": ["country", "political"]}, {"long_name": "160121", "short_name": "160121", "types": ["postal_code"]}], "formatted_address": "121 Kim Tian Pl, Block 121, Singapore 160121", "geometry": {"bounds": {"northeast": {"lat": 1.2829125, "lng": 103.8286908}, "southwest": {"lat": 1.2825795, "lng": 103.8284127}}, "location": {"lat": 1.2827761, "lng": 103.8285547}, "location_type": "ROOFTOP", "viewport": {"northeast": {"lat": 1.284094980291502, "lng": 103.8299007302915}, "southwest": {"lat": 1.281397019708498, "lng": 103.8272027697085}}}, "place_id": "ChIJk0KbkHsZ2jERbkDPZ7mS2B0", "types": ["premise"]}