{"address_components": [{"long_name": "Block 371", "short_name": "Block 371", "types": ["premise"]}, {"long_name": "371", "short_name": "371", "types": ["street_number"]}, {"long_name": "Clementi Avenue 4", "short_name": "Clementi Ave 4", "types": ["route"]}, {"long_name": "Clementi", "short_name": "Clementi", "types": ["neighborhood", "political"]}, {"long_name": "Singapore", "short_name": "Singapore", "types": ["locality", "political"]}, {"long_name": "Singapore", "short_name": "SG", "types": ["country", "political"]}, {"long_name": "120371", "short_name": "120371", "types": ["postal_code"]}], "formatted_address": "371 Clementi Ave 4, Block 371, Singapore 120371", "geometry": {"bounds": {"northeast": {"lat": 1.3207726, "lng": 103.7685422}, "southwest": {"lat": 1.3198204, "lng": 103.7679071}}, "location": {"lat": 1.3203483, "lng": 103.7683375}, "location_type": "ROOFTOP", "viewport": {"northeast": {"lat": 1.321645480291502, "lng": 103.7695736302915}, "southwest": {"lat": 1.318947519708498, "lng": 103.7668756697085}}}, "place_id": "ChIJ1wyVNoQa2jEREnvuwed6Yvo", "types": ["premise"]}