{"address_components": [{"long_name": "Block 507", "short_name": "Block 507", "types": ["premise"]}, {"long_name": "507", "short_name": "507", "types": ["street_number"]}, {"long_name": "West Coast Drive", "short_name": "W Coast Dr", "types": ["route"]}, {"long_name": "Clementi", "short_name": "Clementi", "types": ["neighborhood", "political"]}, {"long_name": "Singapore", "short_name": "Singapore", "types": ["locality", "political"]}, {"long_name": "Singapore", "short_name": "SG", "types": ["country", "political"]}, {"long_name": "120507", "short_name": "120507", "types": ["postal_code"]}], "formatted_address": "507 W Coast Dr, Block 507, Singapore 120507", "geometry": {"bounds": {"northeast": {"lat": 1.312271, "lng": 103.7610739}, "southwest": {"lat": 1.31193, "lng": 103.7604121}}, "location": {"lat": 1.3121203, "lng": 103.7607331}, "location_type": "ROOFTOP", "viewport": {"northeast": {"lat": 1.313449480291502, "lng": 103.7620919802915}, "southwest": {"lat": 1.310751519708498, "lng": 103.7593940197085}}}, "place_id": "ChIJNdGozJMa2jERnC5izs_3gpU", "types": ["premise"]}