{"address_components": [{"long_name": "Block 402", "short_name": "Block 402", "types": ["premise"]}, {"long_name": "402", "short_name": "402", "types": ["street_number"]}, {"long_name": "Choa Chu Kang Avenue 3", "short_name": "Choa Chu Kang Ave 3", "types": ["route"]}, {"long_name": "Choa Chu Kang", "short_name": "Choa Chu Kang", "types": ["neighborhood", "political"]}, {"long_name": "Singapore", "short_name": "Singapore", "types": ["locality", "political"]}, {"long_name": "Singapore", "short_name": "SG", "types": ["country", "political"]}, {"long_name": "680402", "short_name": "680402", "types": ["postal_code"]}], "formatted_address": "402 Choa Chu Kang Ave 3, Block 402, Singapore 680402", "geometry": {"bounds": {"northeast": {"lat": 1.379464, "lng": 103.739751}, "southwest": {"lat": 1.378959, "lng": 103.7390041}}, "location": {"lat": 1.379211, "lng": 103.7393931}, "location_type": "ROOFTOP", "viewport": {"northeast": {"lat": 1.380560480291502, "lng": 103.7407265302915}, "southwest": {"lat": 1.377862519708498, "lng": 103.7380285697085}}}, "place_id": "ChIJ2XVmo9wR2jERttH3DVIuSVc", "types": ["premise"]}