{"address_components": [{"long_name": "Block 837", "short_name": "Block 837", "types": ["premise"]}, {"long_name": "837", "short_name": "837", "types": ["street_number"]}, {"long_name": "Hougang Central", "short_name": "Hougang Central", "types": ["route"]}, {"long_name": "Hougang", "short_name": "Hougang", "types": ["neighborhood", "political"]}, {"long_name": "Singapore", "short_name": "Singapore", "types": ["locality", "political"]}, {"long_name": "Singapore", "short_name": "SG", "types": ["country", "political"]}, {"long_name": "530837", "short_name": "530837", "types": ["postal_code"]}], "formatted_address": "837 Hougang Central, Block 837, Singapore 530837", "geometry": {"bounds": {"northeast": {"lat": 1.3697299, "lng": 103.89181}, "southwest": {"lat": 1.3693056, "lng": 103.8910773}}, "location": {"lat": 1.3693914, "lng": 103.891653}, "location_type": "ROOFTOP", "viewport": {"northeast": {"lat": 1.370866730291502, "lng": 103.8927926302915}, "southwest": {"lat": 1.368168769708498, "lng": 103.8900946697085}}}, "place_id": "ChIJlWXbHjYW2jERURUP3CsGV1M", "types": ["premise"]}