{"address_components": [{"long_name": "Block 207", "short_name": "Block 207", "types": ["premise"]}, {"long_name": "207", "short_name": "207", "types": ["street_number"]}, {"long_name": "Bishan Street 23", "short_name": "Bishan Street 23", "types": ["route"]}, {"long_name": "Bishan", "short_name": "Bishan", "types": ["neighborhood", "political"]}, {"long_name": "Singapore", "short_name": "Singapore", "types": ["locality", "political"]}, {"long_name": "Singapore", "short_name": "SG", "types": ["country", "political"]}, {"long_name": "570207", "short_name": "570207", "types": ["postal_code"]}], "formatted_address": "207 Bishan Street 23, Block 207, Singapore 570207", "geometry": {"bounds": {"northeast": {"lat": 1.3548458, "lng": 103.8483783}, "southwest": {"lat": 1.3544738, "lng": 103.8479585}}, "location": {"lat": 1.3546501, "lng": 103.8481877}, "location_type": "ROOFTOP", "viewport": {"northeast": {"lat": 1.356008780291502, "lng": 103.8495173802915}, "southwest": {"lat": 1.353310819708498, "lng": 103.8468194197085}}}, "place_id": "ChIJ15_C1RkX2jERdoxgFRNKiCs", "types": ["premise"]}