{"address_components": [{"long_name": "Block 914", "short_name": "Block 914", "types": ["premise"]}, {"long_name": "914", "short_name": "914", "types": ["street_number"]}, {"long_name": "Tampines Street 91", "short_name": "Tampines Street 91", "types": ["route"]}, {"long_name": "Tampines", "short_name": "Tampines", "types": ["neighborhood", "political"]}, {"long_name": "Singapore", "short_name": "Singapore", "types": ["locality", "political"]}, {"long_name": "Singapore", "short_name": "SG", "types": ["country", "political"]}, {"long_name": "520914", "short_name": "520914", "types": ["postal_code"]}], "formatted_address": "914 Tampines Street 91, Block 914, Singapore 520914", "geometry": {"bounds": {"northeast": {"lat": 1.3490903, "lng": 103.9399703}, "southwest": {"lat": 1.3489534, "lng": 103.9392092}}, "location": {"lat": 1.3490102, "lng": 103.939551}, "location_type": "ROOFTOP", "viewport": {"northeast": {"lat": 1.350370830291502, "lng": 103.9409387302915}, "southwest": {"lat": 1.347672869708498, "lng": 103.9382407697085}}}, "place_id": "ChIJoaTGmxQ92jER_q0v39chKpc", "types": ["premise"]}