{"address_components": [{"long_name": "Block 605", "short_name": "Block 605", "types": ["premise"]}, {"long_name": "605", "short_name": "605", "types": ["street_number"]}, {"long_name": "Ang Mo Kio Avenue 5", "short_name": "Ang Mo Kio Ave 5", "types": ["route"]}, {"long_name": "Ang Mo Kio", "short_name": "Ang Mo Kio", "types": ["neighborhood", "political"]}, {"long_name": "Singapore", "short_name": "Singapore", "types": ["locality", "political"]}, {"long_name": "Singapore", "short_name": "SG", "types": ["country", "political"]}, {"long_name": "560605", "short_name": "560605", "types": ["postal_code"]}], "formatted_address": "605 Ang Mo Kio Ave 5, Block 605, Singapore 560605", "geometry": {"bounds": {"northeast": {"lat": 1.3800059, "lng": 103.8367011}, "southwest": {"lat": 1.3794401, "lng": 103.8359789}}, "location": {"lat": 1.3797195, "lng": 103.8363441}, "location_type": "ROOFTOP", "viewport": {"northeast": {"lat": 1.381071980291502, "lng": 103.8376889802915}, "southwest": {"lat": 1.378374019708498, "lng": 103.8349910197085}}}, "place_id": "ChIJV7n69sYW2jERNDG-0nsOuyg", "types": ["premise"]}