{"address_components": [{"long_name": "Block 477", "short_name": "Block 477", "types": ["premise"]}, {"long_name": "477", "short_name": "477", "types": ["street_number"]}, {"long_name": "Jurong West Street 41", "short_name": "Jurong West Street 41", "types": ["route"]}, {"long_name": "Jurong West", "short_name": "Jurong West", "types": ["neighborhood", "political"]}, {"long_name": "Singapore", "short_name": "Singapore", "types": ["locality", "political"]}, {"long_name": "Singapore", "short_name": "SG", "types": ["country", "political"]}, {"long_name": "640477", "short_name": "640477", "types": ["postal_code"]}], "formatted_address": "477 Jurong West Street 41, Block 477, Singapore 640477", "geometry": {"bounds": {"northeast": {"lat": 1.3477775, "lng": 103.7255237}, "southwest": {"lat": 1.3476161, "lng": 103.7247665}}, "location": {"lat": 1.3476958, "lng": 103.7251637}, "location_type": "ROOFTOP", "viewport": {"northeast": {"lat": 1.349045780291502, "lng": 103.7264940802915}, "southwest": {"lat": 1.346347819708498, "lng": 103.7237961197085}}}, "place_id": "ChIJpbPSRN4P2jERX33Ev72mWpg", "types": ["premise"]}