{"address_components": [{"long_name": "Block 288A", "short_name": "Block 288A", "types": ["premise"]}, {"long_name": "288A", "short_name": "288A", "types": ["street_number"]}, {"long_name": "Jurong East Street 21", "short_name": "Jurong East Street 21", "types": ["route"]}, {"long_name": "Jurong East", "short_name": "Jurong East", "types": ["neighborhood", "political"]}, {"long_name": "Singapore", "short_name": "Singapore", "types": ["locality", "political"]}, {"long_name": "Singapore", "short_name": "SG", "types": ["country", "political"]}, {"long_name": "601288", "short_name": "601288", "types": ["postal_code"]}], "formatted_address": "288A Jurong East Street 21, Block 288A, Singapore 601288", "geometry": {"bounds": {"northeast": {"lat": 1.339019, "lng": 103.743604}, "southwest": {"lat": 1.3386689, "lng": 103.74308}}, "location": {"lat": 1.3388494, "lng": 103.7434209}, "location_type": "ROOFTOP", "viewport": {"northeast": {"lat": 1.340192930291502, "lng": 103.7446909802915}, "southwest": {"lat": 1.337494969708498, "lng": 103.7419930197085}}}, "place_id": "ChIJ5R33_xAQ2jEReObcxU2RDHw", "types": ["premise"]}