{"address_components": [{"long_name": "Block 620", "short_name": "Block 620", "types": ["premise"]}, {"long_name": "620", "short_name": "620", "types": ["street_number"]}, {"long_name": "Choa Chu Kang Street 62", "short_name": "Choa Chu Kang Street 62", "types": ["route"]}, {"long_name": "Choa Chu Kang", "short_name": "Choa Chu Kang", "types": ["neighborhood", "political"]}, {"long_name": "Singapore", "short_name": "Singapore", "types": ["locality", "political"]}, {"long_name": "Singapore", "short_name": "SG", "types": ["country", "political"]}, {"long_name": "680620", "short_name": "680620", "types": ["postal_code"]}], "formatted_address": "620 Choa Chu Kang Street 62, Block 620, Singapore 680620", "geometry": {"bounds": {"northeast": {"lat": 1.40015, "lng": 103.7473481}, "southwest": {"lat": 1.3992929, "lng": 103.7469149}}, "location": {"lat": 1.3997527, "lng": 103.7470642}, "location_type": "ROOFTOP", "viewport": {"northeast": {"lat": 1.401070430291502, "lng": 103.7484804802915}, "southwest": {"lat": 1.398372469708498, "lng": 103.7457825197085}}}, "place_id": "ChIJhYnBMvQR2jEREolvhHbysfQ", "types": ["premise"]}