{"address_components": [{"long_name": "Block 18", "short_name": "Block 18", "types": ["premise"]}, {"long_name": "18", "short_name": "18", "types": ["street_number"]}, {"long_name": "Dover Crescent", "short_name": "Dover Cres", "types": ["route"]}, {"long_name": "Queenstown", "short_name": "Queenstown", "types": ["neighborhood", "political"]}, {"long_name": "Singapore", "short_name": "Singapore", "types": ["locality", "political"]}, {"long_name": "Singapore", "short_name": "SG", "types": ["country", "political"]}, {"long_name": "130018", "short_name": "130018", "types": ["postal_code"]}], "formatted_address": "18 Dover Cres, Block 18, Singapore 130018", "geometry": {"bounds": {"northeast": {"lat": 1.308281, "lng": 103.7834914}, "southwest": {"lat": 1.3079469, "lng": 103.7829943}}, "location": {"lat": 1.3081155, "lng": 103.7832761}, "location_type": "ROOFTOP", "viewport": {"northeast": {"lat": 1.309462930291502, "lng": 103.7845918302915}, "southwest": {"lat": 1.306764969708498, "lng": 103.7818938697085}}}, "place_id": "ChIJ-TMpiF0a2jERKEodeZKLZIM", "types": ["premise"]}