{"address_components": [{"long_name": "469A", "short_name": "469A", "types": ["street_number"]}, {"long_name": "Sengkang West Way", "short_name": "Sengkang W Way", "types": ["route"]}, {"long_name": "Sengkang", "short_name": "Sengkang", "types": ["neighborhood", "political"]}, {"long_name": "Singapore", "short_name": "Singapore", "types": ["locality", "political"]}, {"long_name": "Singapore", "short_name": "SG", "types": ["country", "political"]}, {"long_name": "791469", "short_name": "791469", "types": ["postal_code"]}], "formatted_address": "469A Sengkang W Way, Singapore 791469", "geometry": {"bounds": {"northeast": {"lat": 1.3961146, "lng": 103.8780943}, "southwest": {"lat": 1.3958049, "lng": 103.8778521}}, "location": {"lat": 1.3959613, "lng": 103.8780162}, "location_type": "ROOFTOP", "viewport": {"northeast": {"lat": 1.397308730291502, "lng": 103.8793221802915}, "southwest": {"lat": 1.394610769708498, "lng": 103.8766242197085}}}, "place_id": "ChIJSfRxInoW2jERjnSqG8HHbYg", "types": ["premise"]}