{"address_components": [{"long_name": "Block 102", "short_name": "Block 102", "types": ["premise"]}, {"long_name": "102", "short_name": "102", "types": ["street_number"]}, {"long_name": "Lengkong Tiga", "short_name": "Lengkong Tiga", "types": ["route"]}, {"long_name": "Bedok", "short_name": "Bedok", "types": ["neighborhood", "political"]}, {"long_name": "Singapore", "short_name": "Singapore", "types": ["locality", "political"]}, {"long_name": "Singapore", "short_name": "SG", "types": ["country", "political"]}, {"long_name": "410102", "short_name": "410102", "types": ["postal_code"]}], "formatted_address": "102 Lengkong Tiga, Block 102, Singapore 410102", "geometry": {"bounds": {"northeast": {"lat": 1.3256688, "lng": 103.9108724}, "southwest": {"lat": 1.3254011, "lng": 103.9103713}}, "location": {"lat": 1.3256132, "lng": 103.910638}, "location_type": "ROOFTOP", "viewport": {"northeast": {"lat": 1.326883930291502, "lng": 103.9119708302915}, "southwest": {"lat": 1.324185969708498, "lng": 103.9092728697085}}}, "place_id": "ChIJnbsnxQEY2jER5wdaSKzb2gE", "types": ["premise"]}