{"address_components": [{"long_name": "Block 140", "short_name": "Block 140", "types": ["premise"]}, {"long_name": "140", "short_name": "140", "types": ["street_number"]}, {"long_name": "Bedok Reservoir Road", "short_name": "Bedok Reservoir Rd", "types": ["route"]}, {"long_name": "Bedok", "short_name": "Bedok", "types": ["neighborhood", "political"]}, {"long_name": "Singapore", "short_name": "Singapore", "types": ["locality", "political"]}, {"long_name": "Singapore", "short_name": "SG", "types": ["country", "political"]}, {"long_name": "470140", "short_name": "470140", "types": ["postal_code"]}], "formatted_address": "140 Bedok Reservoir Rd, Block 140, Singapore 470140", "geometry": {"bounds": {"northeast": {"lat": 1.3351749, "lng": 103.9136899}, "southwest": {"lat": 1.3347439, "lng": 103.9129429}}, "location": {"lat": 1.3348915, "lng": 103.9131756}, "location_type": "ROOFTOP", "viewport": {"northeast": {"lat": 1.336308380291502, "lng": 103.9146653802915}, "southwest": {"lat": 1.333610419708498, "lng": 103.9119674197085}}}, "place_id": "ChIJTRHgRf0X2jERT8etChNvRzo", "types": ["premise"]}