{"address_components": [{"long_name": "Block 855", "short_name": "Block 855", "types": ["premise"]}, {"long_name": "855", "short_name": "855", "types": ["street_number"]}, {"long_name": "Jurong West Street 81", "short_name": "Jurong West Street 81", "types": ["route"]}, {"long_name": "Jurong West", "short_name": "Jurong West", "types": ["neighborhood", "political"]}, {"long_name": "Singapore", "short_name": "Singapore", "types": ["locality", "political"]}, {"long_name": "Singapore", "short_name": "SG", "types": ["country", "political"]}, {"long_name": "640855", "short_name": "640855", "types": ["postal_code"]}], "formatted_address": "855 Jurong West Street 81, Block 855, Singapore 640855", "geometry": {"bounds": {"northeast": {"lat": 1.3472223, "lng": 103.6964749}, "southwest": {"lat": 1.3468466, "lng": 103.6959584}}, "location": {"lat": 1.3469679, "lng": 103.6961898}, "location_type": "ROOFTOP", "viewport": {"northeast": {"lat": 1.348383430291502, "lng": 103.6975656302915}, "southwest": {"lat": 1.345685469708498, "lng": 103.6948676697085}}}, "place_id": "ChIJGVdkbr0P2jERT2RxrTNgKT8", "types": ["premise"]}