{"address_components": [{"long_name": "Block 912", "short_name": "Block 912", "types": ["premise"]}, {"long_name": "912", "short_name": "912", "types": ["street_number"]}, {"long_name": "Tampines Street 91", "short_name": "Tampines Street 91", "types": ["route"]}, {"long_name": "Tampines", "short_name": "Tampines", "types": ["neighborhood", "political"]}, {"long_name": "Singapore", "short_name": "Singapore", "types": ["locality", "political"]}, {"long_name": "Singapore", "short_name": "SG", "types": ["country", "political"]}, {"long_name": "520912", "short_name": "520912", "types": ["postal_code"]}], "formatted_address": "912 Tampines Street 91, Block 912, Singapore 520912", "geometry": {"bounds": {"northeast": {"lat": 1.349506, "lng": 103.939763}, "southwest": {"lat": 1.349227, "lng": 103.9386839}}, "location": {"lat": 1.349451, "lng": 103.9392791}, "location_type": "ROOFTOP", "viewport": {"northeast": {"lat": 1.350715480291502, "lng": 103.9405724302915}, "southwest": {"lat": 1.348017519708498, "lng": 103.9378744697085}}}, "place_id": "ChIJQ_fMnxQ92jER7XD9r2UOEQY", "types": ["premise"]}