{"address_components": [{"long_name": "Block 244", "short_name": "Block 244", "types": ["premise"]}, {"long_name": "244", "short_name": "244", "types": ["street_number"]}, {"long_name": "Jurong East Street 24", "short_name": "Jurong East St 24", "types": ["route"]}, {"long_name": "Jurong East", "short_name": "Jurong East", "types": ["neighborhood", "political"]}, {"long_name": "Singapore", "short_name": "Singapore", "types": ["locality", "political"]}, {"long_name": "Singapore", "short_name": "SG", "types": ["country", "political"]}, {"long_name": "600244", "short_name": "600244", "types": ["postal_code"]}], "formatted_address": "244 Jurong East St 24, Block 244, Singapore 600244", "geometry": {"bounds": {"northeast": {"lat": 1.3427039, "lng": 103.7425693}, "southwest": {"lat": 1.3418619, "lng": 103.741668}}, "location": {"lat": 1.3426102, "lng": 103.7421764}, "location_type": "ROOFTOP", "viewport": {"northeast": {"lat": 1.343631880291502, "lng": 103.7434676302915}, "southwest": {"lat": 1.340933919708498, "lng": 103.7407696697085}}}, "place_id": "ChIJA1DIPxcQ2jERy3KIUPzlQHo", "types": ["premise"]}