{"address_components": [{"long_name": "Block 404", "short_name": "Block 404", "types": ["premise"]}, {"long_name": "404", "short_name": "404", "types": ["street_number"]}, {"long_name": "Yishun Avenue 6", "short_name": "Yishun Ave 6", "types": ["route"]}, {"long_name": "Yishun", "short_name": "Yishun", "types": ["neighborhood", "political"]}, {"long_name": "Singapore", "short_name": "Singapore", "types": ["locality", "political"]}, {"long_name": "Singapore", "short_name": "SG", "types": ["country", "political"]}, {"long_name": "760404", "short_name": "760404", "types": ["postal_code"]}], "formatted_address": "404 Yishun Ave 6, Block 404, Singapore 760404", "geometry": {"bounds": {"northeast": {"lat": 1.426638, "lng": 103.8489236}, "southwest": {"lat": 1.4264761, "lng": 103.8478286}}, "location": {"lat": 1.4265739, "lng": 103.8483915}, "location_type": "ROOFTOP", "viewport": {"northeast": {"lat": 1.427906030291502, "lng": 103.8497250802915}, "southwest": {"lat": 1.425208069708498, "lng": 103.8470271197085}}}, "place_id": "ChIJhahzsEMU2jERFe37Yd-Hl0c", "types": ["premise"]}