{"address_components": [{"long_name": "Block 618", "short_name": "Block 618", "types": ["premise"]}, {"long_name": "618", "short_name": "618", "types": ["street_number"]}, {"long_name": "Hougang Avenue 8", "short_name": "Hougang Ave 8", "types": ["route"]}, {"long_name": "Hougang", "short_name": "Hougang", "types": ["neighborhood", "political"]}, {"long_name": "Singapore", "short_name": "Singapore", "types": ["locality", "political"]}, {"long_name": "Singapore", "short_name": "SG", "types": ["country", "political"]}, {"long_name": "530618", "short_name": "530618", "types": ["postal_code"]}], "formatted_address": "618 Hougang Ave 8, Block 618, Singapore 530618", "geometry": {"bounds": {"northeast": {"lat": 1.3698606, "lng": 103.8842707}, "southwest": {"lat": 1.3693295, "lng": 103.8840328}}, "location": {"lat": 1.3696919, "lng": 103.8841775}, "location_type": "ROOFTOP", "viewport": {"northeast": {"lat": 1.370944030291502, "lng": 103.8855007302915}, "southwest": {"lat": 1.368246069708498, "lng": 103.8828027697085}}}, "place_id": "ChIJ2TkIv04W2jERgF8yQn9qo0I", "types": ["premise"]}