{"address_components": [{"long_name": "Block 745", "short_name": "Block 745", "types": ["premise"]}, {"long_name": "745", "short_name": "745", "types": ["street_number"]}, {"long_name": "Jurong West Street 73", "short_name": "Jurong West Street 73", "types": ["route"]}, {"long_name": "Jurong West", "short_name": "Jurong West", "types": ["neighborhood", "political"]}, {"long_name": "Singapore", "short_name": "Singapore", "types": ["locality", "political"]}, {"long_name": "Singapore", "short_name": "SG", "types": ["country", "political"]}, {"long_name": "640745", "short_name": "640745", "types": ["postal_code"]}], "formatted_address": "745 Jurong West Street 73, Block 745, Singapore 640745", "geometry": {"bounds": {"northeast": {"lat": 1.3471679, "lng": 103.6984954}, "southwest": {"lat": 1.3468837, "lng": 103.697434}}, "location": {"lat": 1.347082, "lng": 103.6980607}, "location_type": "ROOFTOP", "viewport": {"northeast": {"lat": 1.348374780291502, "lng": 103.6993136802915}, "southwest": {"lat": 1.345676819708498, "lng": 103.6966157197085}}}, "place_id": "ChIJCW3SkL0P2jERNeoHDk4G40A", "types": ["premise"]}