{"address_components": [{"long_name": "Block 615", "short_name": "Block 615", "types": ["premise"]}, {"long_name": "615", "short_name": "615", "types": ["street_number"]}, {"long_name": "Woodlands Avenue 4", "short_name": "Woodlands Ave 4", "types": ["route"]}, {"long_name": "Woodlands", "short_name": "Woodlands", "types": ["neighborhood", "political"]}, {"long_name": "Singapore", "short_name": "Singapore", "types": ["locality", "political"]}, {"long_name": "Singapore", "short_name": "SG", "types": ["country", "political"]}, {"long_name": "730615", "short_name": "730615", "types": ["postal_code"]}], "formatted_address": "615 Woodlands Ave 4, Block 615, Singapore 730615", "geometry": {"bounds": {"northeast": {"lat": 1.4342552, "lng": 103.7971185}, "southwest": {"lat": 1.4338195, "lng": 103.7963458}}, "location": {"lat": 1.4340813, "lng": 103.7968581}, "location_type": "ROOFTOP", "viewport": {"northeast": {"lat": 1.435386330291502, "lng": 103.7980811302915}, "southwest": {"lat": 1.432688369708498, "lng": 103.7953831697085}}}, "place_id": "ChIJrYiePKIT2jERm1kd_K14xwU", "types": ["premise"]}