{"address_components": [{"long_name": "Block 615", "short_name": "Block 615", "types": ["premise"]}, {"long_name": "615", "short_name": "615", "types": ["street_number"]}, {"long_name": "Bukit Panjang Ring Road", "short_name": "Bukit Panjang Ring Rd", "types": ["route"]}, {"long_name": "Bukit Panjang", "short_name": "Bukit Panjang", "types": ["neighborhood", "political"]}, {"long_name": "Singapore", "short_name": "Singapore", "types": ["locality", "political"]}, {"long_name": "Singapore", "short_name": "SG", "types": ["country", "political"]}, {"long_name": "670615", "short_name": "670615", "types": ["postal_code"]}], "formatted_address": "615 Bukit Panjang Ring Rd, Block 615, Singapore 670615", "geometry": {"bounds": {"northeast": {"lat": 1.3855416, "lng": 103.7624905}, "southwest": {"lat": 1.3847176, "lng": 103.7619945}}, "location": {"lat": 1.3852717, "lng": 103.7621589}, "location_type": "ROOFTOP", "viewport": {"northeast": {"lat": 1.386478580291502, "lng": 103.7635914802915}, "southwest": {"lat": 1.383780619708498, "lng": 103.7608935197085}}}, "place_id": "ChIJ8bQTmJcR2jERPDPcAqlYxQ8", "types": ["premise"]}