{"address_components": [{"long_name": "Block 204", "short_name": "Block 204", "types": ["premise"]}, {"long_name": "204", "short_name": "204", "types": ["street_number"]}, {"long_name": "Bukit Batok Street 21", "short_name": "Bukit Batok Street 21", "types": ["route"]}, {"long_name": "Bukit Batok", "short_name": "Bukit Batok", "types": ["neighborhood", "political"]}, {"long_name": "Singapore", "short_name": "Singapore", "types": ["locality", "political"]}, {"long_name": "Singapore", "short_name": "SG", "types": ["country", "political"]}, {"long_name": "650204", "short_name": "650204", "types": ["postal_code"]}], "formatted_address": "204 Bukit Batok Street 21, Block 204, Singapore 650204", "geometry": {"bounds": {"northeast": {"lat": 1.347646, "lng": 103.7503058}, "southwest": {"lat": 1.3474271, "lng": 103.7494848}}, "location": {"lat": 1.347572, "lng": 103.7498958}, "location_type": "ROOFTOP", "viewport": {"northeast": {"lat": 1.348885530291502, "lng": 103.7512442802915}, "southwest": {"lat": 1.346187569708498, "lng": 103.7485463197085}}}, "place_id": "ChIJbdNtsD8Q2jERIjNyMfHZ1-Q", "types": ["premise"]}