{"address_components": [{"long_name": "Block 107", "short_name": "Block 107", "types": ["premise"]}, {"long_name": "107", "short_name": "107", "types": ["street_number"]}, {"long_name": "Tampines Street 11", "short_name": "Tampines Street 11", "types": ["route"]}, {"long_name": "Tampines", "short_name": "Tampines", "types": ["neighborhood", "political"]}, {"long_name": "Singapore", "short_name": "Singapore", "types": ["locality", "political"]}, {"long_name": "Singapore", "short_name": "SG", "types": ["country", "political"]}, {"long_name": "521107", "short_name": "521107", "types": ["postal_code"]}], "formatted_address": "107 Tampines Street 11, Block 107, Singapore 521107", "geometry": {"bounds": {"northeast": {"lat": 1.3485191, "lng": 103.9486131}, "southwest": {"lat": 1.3481939, "lng": 103.9477011}}, "location": {"lat": 1.3483749, "lng": 103.948072}, "location_type": "ROOFTOP", "viewport": {"northeast": {"lat": 1.349705480291502, "lng": 103.9495060802915}, "southwest": {"lat": 1.347007519708498, "lng": 103.9468081197085}}}, "place_id": "ChIJn6p-QRc92jERq5xbY9xKHeM", "types": ["premise"]}