{"address_components": [{"long_name": "452", "short_name": "452", "types": ["street_number"]}, {"long_name": "Yishun Ring Road", "short_name": "Yishun Ring Rd", "types": ["route"]}, {"long_name": "Yishun", "short_name": "Yishun", "types": ["neighborhood", "political"]}, {"long_name": "Singapore", "short_name": "Singapore", "types": ["locality", "political"]}, {"long_name": "Singapore", "short_name": "SG", "types": ["country", "political"]}, {"long_name": "760452", "short_name": "760452", "types": ["postal_code"]}], "formatted_address": "452 Yishun Ring Rd, Singapore 760452", "geometry": {"bounds": {"northeast": {"lat": 1.4224113, "lng": 103.8457282}, "southwest": {"lat": 1.4219828, "lng": 103.8438955}}, "location": {"lat": 1.4220478, "lng": 103.8447681}, "location_type": "ROOFTOP", "viewport": {"northeast": {"lat": 1.423546030291502, "lng": 103.8461608302915}, "southwest": {"lat": 1.420848069708498, "lng": 103.8434628697085}}}, "place_id": "ChIJR0qihGoU2jERJgFT0lWK_gY", "types": ["premise"]}