{"address_components": [{"long_name": "Block 912", "short_name": "Block 912", "types": ["premise"]}, {"long_name": "912", "short_name": "912", "types": ["street_number"]}, {"long_name": "Hougang Street 91", "short_name": "Hougang Street 91", "types": ["route"]}, {"long_name": "Hougang", "short_name": "Hougang", "types": ["neighborhood", "political"]}, {"long_name": "Singapore", "short_name": "Singapore", "types": ["locality", "political"]}, {"long_name": "Singapore", "short_name": "SG", "types": ["country", "political"]}, {"long_name": "530912", "short_name": "530912", "types": ["postal_code"]}], "formatted_address": "912 Hougang Street 91, Block 912, Singapore 530912", "geometry": {"bounds": {"northeast": {"lat": 1.3786056, "lng": 103.8843818}, "southwest": {"lat": 1.3781092, "lng": 103.883782}}, "location": {"lat": 1.3784825, "lng": 103.8842681}, "location_type": "ROOFTOP", "viewport": {"northeast": {"lat": 1.379706380291502, "lng": 103.8854308802915}, "southwest": {"lat": 1.377008419708498, "lng": 103.8827329197085}}}, "place_id": "ChIJgZQ87UMW2jERgxxKNokIUwg", "types": ["premise"]}