{"address_components": [{"long_name": "Block 230", "short_name": "Block 230", "types": ["premise"]}, {"long_name": "230", "short_name": "230", "types": ["street_number"]}, {"long_name": "Choa Chu Kang Central", "short_name": "Choa Chu Kang Central", "types": ["route"]}, {"long_name": "Choa Chu Kang", "short_name": "Choa Chu Kang", "types": ["neighborhood", "political"]}, {"long_name": "Singapore", "short_name": "Singapore", "types": ["locality", "political"]}, {"long_name": "Singapore", "short_name": "SG", "types": ["country", "political"]}, {"long_name": "680230", "short_name": "680230", "types": ["postal_code"]}], "formatted_address": "230 Choa Chu Kang Central, Block 230, Singapore 680230", "geometry": {"bounds": {"northeast": {"lat": 1.3806006, "lng": 103.7466227}, "southwest": {"lat": 1.3799008, "lng": 103.7458333}}, "location": {"lat": 1.3803435, "lng": 103.7462722}, "location_type": "ROOFTOP", "viewport": {"northeast": {"lat": 1.381599680291502, "lng": 103.7475769802915}, "southwest": {"lat": 1.378901719708498, "lng": 103.7448790197085}}}, "place_id": "ChIJvb-S2MMR2jERJXQYEmoBGXk", "types": ["premise"]}