{"address_components": [{"long_name": "Block 30", "short_name": "Block 30", "types": ["premise"]}, {"long_name": "30", "short_name": "30", "types": ["street_number"]}, {"long_name": "Cassia Crescent", "short_name": "Cassia Cres", "types": ["route"]}, {"long_name": "Geylang", "short_name": "Geylang", "types": ["neighborhood", "political"]}, {"long_name": "Singapore", "short_name": "Singapore", "types": ["locality", "political"]}, {"long_name": "Singapore", "short_name": "SG", "types": ["country", "political"]}, {"long_name": "391030", "short_name": "391030", "types": ["postal_code"]}], "formatted_address": "30 Cassia Cres, Block 30, Singapore 391030", "geometry": {"bounds": {"northeast": {"lat": 1.3097355, "lng": 103.8837442}, "southwest": {"lat": 1.3093255, "lng": 103.8830883}}, "location": {"lat": 1.309528, "lng": 103.883362}, "location_type": "ROOFTOP", "viewport": {"northeast": {"lat": 1.310879480291502, "lng": 103.8847652302915}, "southwest": {"lat": 1.308181519708498, "lng": 103.8820672697085}}}, "place_id": "ChIJFVnV5DgY2jERyiH5wuB6gl4", "types": ["premise"]}