{"address_components": [{"long_name": "Block 544", "short_name": "Block 544", "types": ["premise"]}, {"long_name": "544", "short_name": "544", "types": ["street_number"]}, {"long_name": "Ang Mo Kio Avenue 10", "short_name": "Ang Mo Kio Ave 10", "types": ["route"]}, {"long_name": "Ang Mo Kio", "short_name": "Ang Mo Kio", "types": ["neighborhood", "political"]}, {"long_name": "Singapore", "short_name": "Singapore", "types": ["locality", "political"]}, {"long_name": "Singapore", "short_name": "SG", "types": ["country", "political"]}, {"long_name": "560544", "short_name": "560544", "types": ["postal_code"]}], "formatted_address": "544 Ang Mo Kio Ave 10, Block 544, Singapore 560544", "geometry": {"bounds": {"northeast": {"lat": 1.3743308, "lng": 103.8568749}, "southwest": {"lat": 1.3736868, "lng": 103.8560875}}, "location": {"lat": 1.3740315, "lng": 103.8564538}, "location_type": "ROOFTOP", "viewport": {"northeast": {"lat": 1.375357780291502, "lng": 103.8578301802915}, "southwest": {"lat": 1.372659819708498, "lng": 103.8551322197085}}}, "place_id": "ChIJs59LHfAW2jERC-gIHo35A7c", "types": ["premise"]}