{"address_components": [{"long_name": "Block 136", "short_name": "Block 136", "types": ["premise"]}, {"long_name": "136", "short_name": "136", "types": ["street_number"]}, {"long_name": "Serangoon North Avenue 2", "short_name": "Serangoon North Ave 2", "types": ["route"]}, {"long_name": "Serangoon", "short_name": "Serangoon", "types": ["neighborhood", "political"]}, {"long_name": "Singapore", "short_name": "Singapore", "types": ["locality", "political"]}, {"long_name": "Singapore", "short_name": "SG", "types": ["country", "political"]}, {"long_name": "550136", "short_name": "550136", "types": ["postal_code"]}], "formatted_address": "136 Serangoon North Ave 2, Block 136, Singapore 550136", "geometry": {"bounds": {"northeast": {"lat": 1.368284, "lng": 103.8753442}, "southwest": {"lat": 1.3679995, "lng": 103.874657}}, "location": {"lat": 1.3681279, "lng": 103.8749385}, "location_type": "ROOFTOP", "viewport": {"northeast": {"lat": 1.369490730291502, "lng": 103.8763495802915}, "southwest": {"lat": 1.366792769708498, "lng": 103.8736516197085}}}, "place_id": "ChIJSXaI5lMW2jERStMYejG70us", "types": ["premise"]}