{"address_components": [{"long_name": "Block 273", "short_name": "Block 273", "types": ["premise"]}, {"long_name": "273", "short_name": "273", "types": ["street_number"]}, {"long_name": "Toh Guan Road", "short_name": "Toh Guan Rd", "types": ["route"]}, {"long_name": "Jurong East", "short_name": "Jurong East", "types": ["neighborhood", "political"]}, {"long_name": "Singapore", "short_name": "Singapore", "types": ["locality", "political"]}, {"long_name": "Singapore", "short_name": "SG", "types": ["country", "political"]}, {"long_name": "600273", "short_name": "600273", "types": ["postal_code"]}], "formatted_address": "273 Toh Guan Rd, Block 273, Singapore 600273", "geometry": {"bounds": {"northeast": {"lat": 1.342779, "lng": 103.745714}, "southwest": {"lat": 1.342143, "lng": 103.744949}}, "location": {"lat": 1.3425375, "lng": 103.7452765}, "location_type": "ROOFTOP", "viewport": {"northeast": {"lat": 1.343809980291502, "lng": 103.7466804802915}, "southwest": {"lat": 1.341112019708498, "lng": 103.7439825197085}}}, "place_id": "ChIJhc5blhYQ2jERr5fHRCD6lGg", "types": ["premise"]}