{"address_components": [{"long_name": "Block 716", "short_name": "Block 716", "types": ["premise"]}, {"long_name": "716", "short_name": "716", "types": ["street_number"]}, {"long_name": "Tampines Street 71", "short_name": "Tampines Street 71", "types": ["route"]}, {"long_name": "Tampines", "short_name": "Tampines", "types": ["neighborhood", "political"]}, {"long_name": "Singapore", "short_name": "Singapore", "types": ["locality", "political"]}, {"long_name": "Singapore", "short_name": "SG", "types": ["country", "political"]}, {"long_name": "520716", "short_name": "520716", "types": ["postal_code"]}], "formatted_address": "716 Tampines Street 71, Block 716, Singapore 520716", "geometry": {"bounds": {"northeast": {"lat": 1.3596517, "lng": 103.9367875}, "southwest": {"lat": 1.3591557, "lng": 103.9365005}}, "location": {"lat": 1.3594227, "lng": 103.9366504}, "location_type": "ROOFTOP", "viewport": {"northeast": {"lat": 1.360752680291502, "lng": 103.9379929802915}, "southwest": {"lat": 1.358054719708498, "lng": 103.9352950197085}}}, "place_id": "ChIJO_ZPu3Q92jERCm35e4f7DDc", "types": ["premise"]}