{"address_components": [{"long_name": "Block 953", "short_name": "Block 953", "types": ["premise"]}, {"long_name": "953", "short_name": "953", "types": ["street_number"]}, {"long_name": "Jurong West Street 91", "short_name": "Jurong West Street 91", "types": ["route"]}, {"long_name": "Jurong West", "short_name": "Jurong West", "types": ["neighborhood", "political"]}, {"long_name": "Singapore", "short_name": "Singapore", "types": ["locality", "political"]}, {"long_name": "Singapore", "short_name": "SG", "types": ["country", "political"]}, {"long_name": "640953", "short_name": "640953", "types": ["postal_code"]}], "formatted_address": "953 Jurong West Street 91, Block 953, Singapore 640953", "geometry": {"bounds": {"northeast": {"lat": 1.342678, "lng": 103.691251}, "southwest": {"lat": 1.342241, "lng": 103.6904379}}, "location": {"lat": 1.3423913, "lng": 103.6907742}, "location_type": "ROOFTOP", "viewport": {"northeast": {"lat": 1.343808480291502, "lng": 103.6921934302915}, "southwest": {"lat": 1.341110519708498, "lng": 103.6894954697085}}}, "place_id": "ChIJGciQc5kP2jERZkZ86TexRt0", "types": ["premise"]}