{"address_components": [{"long_name": "Block 640", "short_name": "Block 640", "types": ["premise"]}, {"long_name": "640", "short_name": "640", "types": ["street_number"]}, {"long_name": "Ang Mo Kio Avenue 6", "short_name": "Ang Mo Kio Ave 6", "types": ["route"]}, {"long_name": "Ang Mo Kio", "short_name": "Ang Mo Kio", "types": ["neighborhood", "political"]}, {"long_name": "Singapore", "short_name": "Singapore", "types": ["locality", "political"]}, {"long_name": "Singapore", "short_name": "SG", "types": ["country", "political"]}, {"long_name": "560640", "short_name": "560640", "types": ["postal_code"]}], "formatted_address": "640 Ang Mo Kio Ave 6, Block 640, Singapore 560640", "geometry": {"bounds": {"northeast": {"lat": 1.3801838, "lng": 103.8440711}, "southwest": {"lat": 1.3799629, "lng": 103.8432214}}, "location": {"lat": 1.3800424, "lng": 103.8436811}, "location_type": "ROOFTOP", "viewport": {"northeast": {"lat": 1.381422330291502, "lng": 103.8449952302915}, "southwest": {"lat": 1.378724369708498, "lng": 103.8422972697085}}}, "place_id": "ChIJkzCqycEW2jERTttO8dikMZ8", "types": ["premise"]}