{"address_components": [{"long_name": "Block 407A", "short_name": "Block 407A", "types": ["premise"]}, {"long_name": "407A", "short_name": "407A", "types": ["street_number"]}, {"long_name": "Fernvale Road", "short_name": "Fernvale Rd", "types": ["route"]}, {"long_name": "Sengkang", "short_name": "Sengkang", "types": ["neighborhood", "political"]}, {"long_name": "Singapore", "short_name": "Singapore", "types": ["locality", "political"]}, {"long_name": "Singapore", "short_name": "SG", "types": ["country", "political"]}, {"long_name": "791407", "short_name": "791407", "types": ["postal_code"]}], "formatted_address": "407A Fernvale Rd, Block 407A, Singapore 791407", "geometry": {"bounds": {"northeast": {"lat": 1.3887106, "lng": 103.8755188}, "southwest": {"lat": 1.3882066, "lng": 103.8751868}}, "location": {"lat": 1.3883477, "lng": 103.8753009}, "location_type": "ROOFTOP", "viewport": {"northeast": {"lat": 1.389807580291502, "lng": 103.8767017802915}, "southwest": {"lat": 1.387109619708498, "lng": 103.8740038197085}}}, "place_id": "ChIJyWZ1QGQW2jERe7NsMB0Igk4", "types": ["premise"]}