{"address_components": [{"long_name": "Block 601", "short_name": "Block 601", "types": ["premise"]}, {"long_name": "601", "short_name": "601", "types": ["street_number"]}, {"long_name": "Clementi West Street 1", "short_name": "Clementi West Street 1", "types": ["route"]}, {"long_name": "Clementi", "short_name": "Clementi", "types": ["neighborhood", "political"]}, {"long_name": "Singapore", "short_name": "Singapore", "types": ["locality", "political"]}, {"long_name": "Singapore", "short_name": "SG", "types": ["country", "political"]}, {"long_name": "120601", "short_name": "120601", "types": ["postal_code"]}], "formatted_address": "601 Clementi West Street 1, Block 601, Singapore 120601", "geometry": {"bounds": {"northeast": {"lat": 1.305018, "lng": 103.7655909}, "southwest": {"lat": 1.3045521, "lng": 103.764767}}, "location": {"lat": 1.3047776, "lng": 103.765169}, "location_type": "ROOFTOP", "viewport": {"northeast": {"lat": 1.306134030291502, "lng": 103.7665279302915}, "southwest": {"lat": 1.303436069708498, "lng": 103.7638299697085}}}, "place_id": "ChIJeYoXQPIa2jER1ELGQaAZlos", "types": ["premise"]}