{"address_components": [{"long_name": "Block 264", "short_name": "Block 264", "types": ["premise"]}, {"long_name": "264", "short_name": "264", "types": ["street_number"]}, {"long_name": "Yishun Street 22", "short_name": "Yishun Street 22", "types": ["route"]}, {"long_name": "Yishun", "short_name": "Yishun", "types": ["neighborhood", "political"]}, {"long_name": "Singapore", "short_name": "Singapore", "types": ["locality", "political"]}, {"long_name": "Singapore", "short_name": "SG", "types": ["country", "political"]}, {"long_name": "760264", "short_name": "760264", "types": ["postal_code"]}], "formatted_address": "264 Yishun Street 22, Block 264, Singapore 760264", "geometry": {"bounds": {"northeast": {"lat": 1.4360676, "lng": 103.8386717}, "southwest": {"lat": 1.4354146, "lng": 103.8381816}}, "location": {"lat": 1.4355878, "lng": 103.8382463}, "location_type": "ROOFTOP", "viewport": {"northeast": {"lat": 1.437090080291502, "lng": 103.8397756302915}, "southwest": {"lat": 1.434392119708498, "lng": 103.8370776697085}}}, "place_id": "ChIJq43F3GMU2jER2vQ2LsNDNSk", "types": ["premise"]}