{"address_components": [{"long_name": "Block 136", "short_name": "Block 136", "types": ["premise"]}, {"long_name": "136", "short_name": "136", "types": ["street_number"]}, {"long_name": "Teck Whye Lane", "short_name": "Teck Whye Ln", "types": ["route"]}, {"long_name": "Choa Chu Kang", "short_name": "Choa Chu Kang", "types": ["neighborhood", "political"]}, {"long_name": "Singapore", "short_name": "Singapore", "types": ["locality", "political"]}, {"long_name": "Singapore", "short_name": "SG", "types": ["country", "political"]}, {"long_name": "680136", "short_name": "680136", "types": ["postal_code"]}], "formatted_address": "136 Teck Whye Ln, Block 136, Singapore 680136", "geometry": {"bounds": {"northeast": {"lat": 1.3802317, "lng": 103.7520491}, "southwest": {"lat": 1.3797817, "lng": 103.7512674}}, "location": {"lat": 1.3798518, "lng": 103.7519523}, "location_type": "ROOFTOP", "viewport": {"northeast": {"lat": 1.381355680291502, "lng": 103.7530072302915}, "southwest": {"lat": 1.378657719708498, "lng": 103.7503092697085}}}, "place_id": "ChIJiSM8mcAR2jER_9muULSKuMk", "types": ["premise"]}