{"address_components": [{"long_name": "Block 155", "short_name": "Block 155", "types": ["premise"]}, {"long_name": "155", "short_name": "155", "types": ["street_number"]}, {"long_name": "Lorong 1 Toa Payoh", "short_name": "Lor 1 Toa Payoh", "types": ["route"]}, {"long_name": "Toa Payoh", "short_name": "Toa Payoh", "types": ["neighborhood", "political"]}, {"long_name": "Singapore", "short_name": "Singapore", "types": ["locality", "political"]}, {"long_name": "Singapore", "short_name": "SG", "types": ["country", "political"]}, {"long_name": "310155", "short_name": "310155", "types": ["postal_code"]}], "formatted_address": "155 Lor 1 Toa Payoh, Block 155, Singapore 310155", "geometry": {"bounds": {"northeast": {"lat": 1.3329769, "lng": 103.8457956}, "southwest": {"lat": 1.3325439, "lng": 103.8454555}}, "location": {"lat": 1.3327228, "lng": 103.84558}, "location_type": "ROOFTOP", "viewport": {"northeast": {"lat": 1.334109380291502, "lng": 103.8469745302915}, "southwest": {"lat": 1.331411419708498, "lng": 103.8442765697085}}}, "place_id": "ChIJmT51b2cX2jERMm0FI5q4dxA", "types": ["premise"]}