{"address_components": [{"long_name": "204", "short_name": "204", "types": ["street_number"]}, {"long_name": "Serangoon Central", "short_name": "Serangoon Central", "types": ["route"]}, {"long_name": "Serangoon", "short_name": "Serangoon", "types": ["neighborhood", "political"]}, {"long_name": "Singapore", "short_name": "Singapore", "types": ["locality", "political"]}, {"long_name": "Singapore", "short_name": "SG", "types": ["country", "political"]}, {"long_name": "550204", "short_name": "550204", "types": ["postal_code"]}], "formatted_address": "204 Serangoon Central, Singapore 550204", "geometry": {"bounds": {"northeast": {"lat": 1.3529803, "lng": 103.8736779}, "southwest": {"lat": 1.3523548, "lng": 103.8729142}}, "location": {"lat": 1.3524705, "lng": 103.8732135}, "location_type": "ROOFTOP", "viewport": {"northeast": {"lat": 1.354016530291502, "lng": 103.8746450302915}, "southwest": {"lat": 1.351318569708498, "lng": 103.8719470697085}}}, "place_id": "ChIJw5maeqYX2jERaK7H4lEh5y0", "types": ["premise"]}