{"address_components": [{"long_name": "Block 108", "short_name": "Block 108", "types": ["premise"]}, {"long_name": "108", "short_name": "108", "types": ["street_number"]}, {"long_name": "McNair Road", "short_name": "McNair Rd", "types": ["route"]}, {"long_name": "Kallang", "short_name": "Kallang", "types": ["neighborhood", "political"]}, {"long_name": "Singapore", "short_name": "Singapore", "types": ["locality", "political"]}, {"long_name": "Singapore", "short_name": "SG", "types": ["country", "political"]}, {"long_name": "321108", "short_name": "321108", "types": ["postal_code"]}], "formatted_address": "108 McNair Rd, Block 108, Singapore 321108", "geometry": {"bounds": {"northeast": {"lat": 1.3222197, "lng": 103.859903}, "southwest": {"lat": 1.3214547, "lng": 103.8592329}}, "location": {"lat": 1.3219533, "lng": 103.8596246}, "location_type": "ROOFTOP", "viewport": {"northeast": {"lat": 1.323186180291502, "lng": 103.8609169302915}, "southwest": {"lat": 1.320488219708498, "lng": 103.8582189697085}}}, "place_id": "ChIJEZUuK9EZ2jERd1OIzyUGPlw", "types": ["premise"]}