{"address_components": [{"long_name": "Block 507A", "short_name": "Block 507A", "types": ["premise"]}, {"long_name": "507A", "short_name": "507A", "types": ["street_number"]}, {"long_name": "Wellington Circle", "short_name": "Wellington Cir", "types": ["route"]}, {"long_name": "Sembawang", "short_name": "Sembawang", "types": ["neighborhood", "political"]}, {"long_name": "Singapore", "short_name": "Singapore", "types": ["locality", "political"]}, {"long_name": "Singapore", "short_name": "SG", "types": ["country", "political"]}, {"long_name": "751507", "short_name": "751507", "types": ["postal_code"]}], "formatted_address": "507A Wellington Cir, Block 507A, Singapore 751507", "geometry": {"bounds": {"northeast": {"lat": 1.4531016, "lng": 103.8241055}, "southwest": {"lat": 1.4523206, "lng": 103.8234954}}, "location": {"lat": 1.4526688, "lng": 103.8238903}, "location_type": "ROOFTOP", "viewport": {"northeast": {"lat": 1.454060080291502, "lng": 103.8251494302915}, "southwest": {"lat": 1.451362119708498, "lng": 103.8224514697085}}}, "place_id": "ChIJBYu52p0U2jER7McXx7Jzz2A", "types": ["premise"]}