{"address_components": [{"long_name": "Block 596C", "short_name": "Block 596C", "types": ["premise"]}, {"long_name": "596C", "short_name": "596C", "types": ["street_number"]}, {"long_name": "Ang Mo Kio Street 52", "short_name": "Ang Mo Kio Street 52", "types": ["route"]}, {"long_name": "Ang Mo Kio", "short_name": "Ang Mo Kio", "types": ["neighborhood", "political"]}, {"long_name": "Singapore", "short_name": "Singapore", "types": ["locality", "political"]}, {"long_name": "Singapore", "short_name": "SG", "types": ["country", "political"]}, {"long_name": "563596", "short_name": "563596", "types": ["postal_code"]}], "formatted_address": "596C Ang Mo Kio Street 52, Block 596C, Singapore 563596", "geometry": {"bounds": {"northeast": {"lat": 1.3722674, "lng": 103.8501357}, "southwest": {"lat": 1.371865, "lng": 103.8493418}}, "location": {"lat": 1.3721662, "lng": 103.8497503}, "location_type": "ROOFTOP", "viewport": {"northeast": {"lat": 1.373415180291502, "lng": 103.8510877302915}, "southwest": {"lat": 1.370717219708498, "lng": 103.8483897697085}}}, "place_id": "ChIJ28NOcuYW2jERmr_3MoPEfS8", "types": ["premise"]}