{"address_components": [{"long_name": "Block 412B", "short_name": "Block 412B", "types": ["premise"]}, {"long_name": "412B", "short_name": "412B", "types": ["street_number"]}, {"long_name": "Fernvale Link", "short_name": "Fernvale Link", "types": ["route"]}, {"long_name": "Sengkang", "short_name": "Sengkang", "types": ["neighborhood", "political"]}, {"long_name": "Singapore", "short_name": "Singapore", "types": ["locality", "political"]}, {"long_name": "Singapore", "short_name": "SG", "types": ["country", "political"]}, {"long_name": "792412", "short_name": "792412", "types": ["postal_code"]}], "formatted_address": "412B Fernvale Link, Block 412B, Singapore 792412", "geometry": {"bounds": {"northeast": {"lat": 1.3898961, "lng": 103.878155}, "southwest": {"lat": 1.3895151, "lng": 103.8777581}}, "location": {"lat": 1.3898046, "lng": 103.8780162}, "location_type": "ROOFTOP", "viewport": {"northeast": {"lat": 1.391054580291502, "lng": 103.8793055302915}, "southwest": {"lat": 1.388356619708498, "lng": 103.8766075697085}}}, "place_id": "ChIJu_BeCmUW2jERFPaXdITJoLA", "types": ["premise"]}