{"address_components": [{"long_name": "Block 714", "short_name": "Block 714", "types": ["premise"]}, {"long_name": "714", "short_name": "714", "types": ["street_number"]}, {"long_name": "Clementi West Street 2", "short_name": "Clementi West Street 2", "types": ["route"]}, {"long_name": "Clementi", "short_name": "Clementi", "types": ["neighborhood", "political"]}, {"long_name": "Singapore", "short_name": "Singapore", "types": ["locality", "political"]}, {"long_name": "Singapore", "short_name": "SG", "types": ["country", "political"]}, {"long_name": "120714", "short_name": "120714", "types": ["postal_code"]}], "formatted_address": "714 Clementi West Street 2, Block 714, Singapore 120714", "geometry": {"bounds": {"northeast": {"lat": 1.3046041, "lng": 103.7620895}, "southwest": {"lat": 1.3036321, "lng": 103.7613944}}, "location": {"lat": 1.3041378, "lng": 103.7618194}, "location_type": "ROOFTOP", "viewport": {"northeast": {"lat": 1.305467080291502, "lng": 103.7630909302915}, "southwest": {"lat": 1.302769119708498, "lng": 103.7603929697085}}}, "place_id": "ChIJM7rN2u0a2jER_uTLuucqbfk", "types": ["premise"]}