{"address_components": [{"long_name": "Block 713", "short_name": "Block 713", "types": ["premise"]}, {"long_name": "713", "short_name": "713", "types": ["street_number"]}, {"long_name": "Tampines Street 71", "short_name": "Tampines Street 71", "types": ["route"]}, {"long_name": "Tampines", "short_name": "Tampines", "types": ["neighborhood", "political"]}, {"long_name": "Singapore", "short_name": "Singapore", "types": ["locality", "political"]}, {"long_name": "Singapore", "short_name": "SG", "types": ["country", "political"]}, {"long_name": "520713", "short_name": "520713", "types": ["postal_code"]}], "formatted_address": "713 Tampines Street 71, Block 713, Singapore 520713", "geometry": {"bounds": {"northeast": {"lat": 1.35987, "lng": 103.937812}, "southwest": {"lat": 1.3590894, "lng": 103.937494}}, "location": {"lat": 1.3591972, "lng": 103.9376474}, "location_type": "ROOFTOP", "viewport": {"northeast": {"lat": 1.360828680291502, "lng": 103.9390019802915}, "southwest": {"lat": 1.358130719708498, "lng": 103.9363040197085}}}, "place_id": "ChIJgwEvs3Q92jERzC-78TcjhvM", "types": ["premise"]}