{"address_components": [{"long_name": "Block 504B", "short_name": "Block 504B", "types": ["premise"]}, {"long_name": "504B", "short_name": "504B", "types": ["street_number"]}, {"long_name": "Montreal Drive", "short_name": "Montreal Dr", "types": ["route"]}, {"long_name": "Sembawang", "short_name": "Sembawang", "types": ["neighborhood", "political"]}, {"long_name": "Singapore", "short_name": "Singapore", "types": ["locality", "political"]}, {"long_name": "Singapore", "short_name": "SG", "types": ["country", "political"]}, {"long_name": "752504", "short_name": "752504", "types": ["postal_code"]}], "formatted_address": "504B Montreal Dr, Block 504B, Singapore 752504", "geometry": {"bounds": {"northeast": {"lat": 1.4514048, "lng": 103.8235716}, "southwest": {"lat": 1.4505846, "lng": 103.8230355}}, "location": {"lat": 1.4510207, "lng": 103.8233016}, "location_type": "ROOFTOP", "viewport": {"northeast": {"lat": 1.452343680291502, "lng": 103.8246525302915}, "southwest": {"lat": 1.449645719708498, "lng": 103.8219545697085}}}, "place_id": "ChIJC1FooJ0U2jERwsa7OJg4pqM", "types": ["premise"]}