{"address_components": [{"long_name": "Block 401", "short_name": "Block 401", "types": ["premise"]}, {"long_name": "401", "short_name": "401", "types": ["street_number"]}, {"long_name": "Admiralty Link", "short_name": "Admiralty Link", "types": ["route"]}, {"long_name": "Sembawang", "short_name": "Sembawang", "types": ["neighborhood", "political"]}, {"long_name": "Singapore", "short_name": "Singapore", "types": ["locality", "political"]}, {"long_name": "Singapore", "short_name": "SG", "types": ["country", "political"]}, {"long_name": "750401", "short_name": "750401", "types": ["postal_code"]}], "formatted_address": "401 Admiralty Link, Block 401, Singapore 750401", "geometry": {"bounds": {"northeast": {"lat": 1.454375, "lng": 103.815903}, "southwest": {"lat": 1.4540109, "lng": 103.8153671}}, "location": {"lat": 1.4542991, "lng": 103.8156035}, "location_type": "ROOFTOP", "viewport": {"northeast": {"lat": 1.455541930291502, "lng": 103.8169840302915}, "southwest": {"lat": 1.452843969708498, "lng": 103.8142860697085}}}, "place_id": "ChIJ63Kfs2YT2jER40d84m9dXEQ", "types": ["premise"]}