{"address_components": [{"long_name": "Block 426", "short_name": "Block 426", "types": ["premise"]}, {"long_name": "426", "short_name": "426", "types": ["street_number"]}, {"long_name": "Jurong West Avenue 1", "short_name": "Jurong West Ave 1", "types": ["route"]}, {"long_name": "Jurong West", "short_name": "Jurong West", "types": ["neighborhood", "political"]}, {"long_name": "Singapore", "short_name": "Singapore", "types": ["locality", "political"]}, {"long_name": "Singapore", "short_name": "SG", "types": ["country", "political"]}, {"long_name": "640426", "short_name": "640426", "types": ["postal_code"]}], "formatted_address": "426 Jurong West Ave 1, Block 426, Singapore 640426", "geometry": {"bounds": {"northeast": {"lat": 1.3517359, "lng": 103.7250417}, "southwest": {"lat": 1.3513259, "lng": 103.7242046}}, "location": {"lat": 1.3516514, "lng": 103.7247117}, "location_type": "ROOFTOP", "viewport": {"northeast": {"lat": 1.352879880291502, "lng": 103.7259721302915}, "southwest": {"lat": 1.350181919708498, "lng": 103.7232741697085}}}, "place_id": "ChIJ9QeXONkP2jERX1qB4k0cIsU", "types": ["premise"]}