{"address_components": [{"long_name": "Block 516", "short_name": "Block 516", "types": ["premise"]}, {"long_name": "516", "short_name": "516", "types": ["street_number"]}, {"long_name": "Woodlands Drive 14", "short_name": "Woodlands Drive 14", "types": ["route"]}, {"long_name": "Woodlands", "short_name": "Woodlands", "types": ["neighborhood", "political"]}, {"long_name": "Singapore", "short_name": "Singapore", "types": ["locality", "political"]}, {"long_name": "Singapore", "short_name": "SG", "types": ["country", "political"]}, {"long_name": "730516", "short_name": "730516", "types": ["postal_code"]}], "formatted_address": "516 Woodlands Drive 14, Block 516, Singapore 730516", "geometry": {"bounds": {"northeast": {"lat": 1.4350131, "lng": 103.7913108}, "southwest": {"lat": 1.4343209, "lng": 103.790707}}, "location": {"lat": 1.4347046, "lng": 103.7909724}, "location_type": "ROOFTOP", "viewport": {"northeast": {"lat": 1.436015980291502, "lng": 103.7923578802915}, "southwest": {"lat": 1.433318019708498, "lng": 103.7896599197085}}}, "place_id": "ChIJmy31IKQT2jERdYjCH07KmPI", "types": ["premise"]}