{"address_components": [{"long_name": "Block 123", "short_name": "Block 123", "types": ["premise"]}, {"long_name": "123", "short_name": "123", "types": ["street_number"]}, {"long_name": "McNair Road", "short_name": "McNair Rd", "types": ["route"]}, {"long_name": "Kallang", "short_name": "Kallang", "types": ["neighborhood", "political"]}, {"long_name": "Singapore", "short_name": "Singapore", "types": ["locality", "political"]}, {"long_name": "Singapore", "short_name": "SG", "types": ["country", "political"]}, {"long_name": "320123", "short_name": "320123", "types": ["postal_code"]}], "formatted_address": "123 McNair Rd, Block 123, Singapore 320123", "geometry": {"bounds": {"northeast": {"lat": 1.3186168, "lng": 103.8568089}, "southwest": {"lat": 1.3180018, "lng": 103.8562639}}, "location": {"lat": 1.3184036, "lng": 103.8565671}, "location_type": "ROOFTOP", "viewport": {"northeast": {"lat": 1.319658280291502, "lng": 103.8578853802915}, "southwest": {"lat": 1.316960319708498, "lng": 103.8551874197085}}}, "place_id": "ChIJ2SK3CtAZ2jER_K_0lR3fGfc", "types": ["premise"]}