{"address_components": [{"long_name": "Block 179", "short_name": "Block 179", "types": ["premise"]}, {"long_name": "179", "short_name": "179", "types": ["street_number"]}, {"long_name": "Yung Sheng Road", "short_name": "Yung Sheng Rd", "types": ["route"]}, {"long_name": "Jurong West", "short_name": "Jurong West", "types": ["neighborhood", "political"]}, {"long_name": "Singapore", "short_name": "Singapore", "types": ["locality", "political"]}, {"long_name": "Singapore", "short_name": "SG", "types": ["country", "political"]}, {"long_name": "610179", "short_name": "610179", "types": ["postal_code"]}], "formatted_address": "179 Yung Sheng Rd, Block 179, Singapore 610179", "geometry": {"bounds": {"northeast": {"lat": 1.3339104, "lng": 103.7209301}, "southwest": {"lat": 1.3336502, "lng": 103.7205718}}, "location": {"lat": 1.3338698, "lng": 103.7208167}, "location_type": "ROOFTOP", "viewport": {"northeast": {"lat": 1.335129280291502, "lng": 103.7220999302915}, "southwest": {"lat": 1.332431319708498, "lng": 103.7194019697085}}}, "place_id": "ChIJjZY3rvsP2jER3R10a37rpHI", "types": ["premise"]}