{"address_components": [{"long_name": "Block 690A", "short_name": "Block 690A", "types": ["premise"]}, {"long_name": "690A", "short_name": "690A", "types": ["street_number"]}, {"long_name": "Choa Chu Kang Crescent", "short_name": "Choa Chu Kang Cres", "types": ["route"]}, {"long_name": "Choa Chu Kang", "short_name": "Choa Chu Kang", "types": ["neighborhood", "political"]}, {"long_name": "Singapore", "short_name": "Singapore", "types": ["locality", "political"]}, {"long_name": "Singapore", "short_name": "SG", "types": ["country", "political"]}, {"long_name": "681690", "short_name": "681690", "types": ["postal_code"]}], "formatted_address": "690A Choa Chu Kang Cres, Block 690A, Singapore 681690", "geometry": {"bounds": {"northeast": {"lat": 1.4029828, "lng": 103.7518028}, "southwest": {"lat": 1.4026303, "lng": 103.7513806}}, "location": {"lat": 1.4028507, "lng": 103.7517119}, "location_type": "ROOFTOP", "viewport": {"northeast": {"lat": 1.404155530291502, "lng": 103.7529406802915}, "southwest": {"lat": 1.401457569708498, "lng": 103.7502427197085}}}, "place_id": "ChIJkVi-8R8S2jERWHv9lAIrcyk", "types": ["premise"]}