{"address_components": [{"long_name": "Block 266", "short_name": "Block 266", "types": ["premise"]}, {"long_name": "266", "short_name": "266", "types": ["street_number"]}, {"long_name": "Bukit Batok East Avenue 4", "short_name": "Bukit Batok East Ave 4", "types": ["route"]}, {"long_name": "Bukit Batok", "short_name": "Bukit Batok", "types": ["neighborhood", "political"]}, {"long_name": "Singapore", "short_name": "Singapore", "types": ["locality", "political"]}, {"long_name": "Singapore", "short_name": "SG", "types": ["country", "political"]}, {"long_name": "650266", "short_name": "650266", "types": ["postal_code"]}], "formatted_address": "266 Bukit Batok East Ave 4, Block 266, Singapore 650266", "geometry": {"bounds": {"northeast": {"lat": 1.3494586, "lng": 103.760411}, "southwest": {"lat": 1.3488124, "lng": 103.7595818}}, "location": {"lat": 1.3493256, "lng": 103.7601931}, "location_type": "ROOFTOP", "viewport": {"northeast": {"lat": 1.350484480291502, "lng": 103.7613453802915}, "southwest": {"lat": 1.347786519708498, "lng": 103.7586474197085}}}, "place_id": "ChIJ42sFvUMQ2jERIzWS-dokqLI", "types": ["premise"]}