{"address_components": [{"long_name": "Block 885", "short_name": "Block 885", "types": ["premise"]}, {"long_name": "885", "short_name": "885", "types": ["street_number"]}, {"long_name": "Tampines Street 83", "short_name": "Tampines Street 83", "types": ["route"]}, {"long_name": "Tampines", "short_name": "Tampines", "types": ["neighborhood", "political"]}, {"long_name": "Singapore", "short_name": "Singapore", "types": ["locality", "political"]}, {"long_name": "Singapore", "short_name": "SG", "types": ["country", "political"]}, {"long_name": "520885", "short_name": "520885", "types": ["postal_code"]}], "formatted_address": "885 Tampines Street 83, Block 885, Singapore 520885", "geometry": {"bounds": {"northeast": {"lat": 1.3513833, "lng": 103.9334271}, "southwest": {"lat": 1.3507741, "lng": 103.9323763}}, "location": {"lat": 1.3511359, "lng": 103.932798}, "location_type": "ROOFTOP", "viewport": {"northeast": {"lat": 1.352427680291502, "lng": 103.9342506802915}, "southwest": {"lat": 1.349729719708498, "lng": 103.9315527197085}}}, "place_id": "ChIJU64vOmw92jERjpFukY50t3I", "types": ["premise"]}