{"address_components": [{"long_name": "Block 178", "short_name": "Block 178", "types": ["premise"]}, {"long_name": "178", "short_name": "178", "types": ["street_number"]}, {"long_name": "Woodlands Street 13", "short_name": "Woodlands Street 13", "types": ["route"]}, {"long_name": "Woodlands", "short_name": "Woodlands", "types": ["neighborhood", "political"]}, {"long_name": "Singapore", "short_name": "Singapore", "types": ["locality", "political"]}, {"long_name": "Singapore", "short_name": "SG", "types": ["country", "political"]}, {"long_name": "730178", "short_name": "730178", "types": ["postal_code"]}], "formatted_address": "178 Woodlands Street 13, Block 178, Singapore 730178", "geometry": {"bounds": {"northeast": {"lat": 1.4349131, "lng": 103.777931}, "southwest": {"lat": 1.4341919, "lng": 103.7773991}}, "location": {"lat": 1.4345846, "lng": 103.77764}, "location_type": "ROOFTOP", "viewport": {"northeast": {"lat": 1.435901480291502, "lng": 103.7790140302915}, "southwest": {"lat": 1.433203519708498, "lng": 103.7763160697085}}}, "place_id": "ChIJj2ePg6wT2jERKLhz_hE8V-w", "types": ["premise"]}