{"address_components": [{"long_name": "308C", "short_name": "308C", "types": ["street_number"]}, {"long_name": "Anchorvale Road", "short_name": "Anchorvale Rd", "types": ["route"]}, {"long_name": "Sengkang", "short_name": "Sengkang", "types": ["neighborhood", "political"]}, {"long_name": "Singapore", "short_name": "Singapore", "types": ["locality", "political"]}, {"long_name": "Singapore", "short_name": "SG", "types": ["country", "political"]}, {"long_name": "543308", "short_name": "543308", "types": ["postal_code"]}], "formatted_address": "308C Anchorvale Rd, Singapore 543308", "geometry": {"bounds": {"northeast": {"lat": 1.3902467, "lng": 103.8871167}, "southwest": {"lat": 1.3891545, "lng": 103.8858133}}, "location": {"lat": 1.3896444, "lng": 103.8863974}, "location_type": "ROOFTOP", "viewport": {"northeast": {"lat": 1.391049580291502, "lng": 103.8878139802915}, "southwest": {"lat": 1.388351619708498, "lng": 103.8851160197085}}}, "place_id": "ChIJ9dxR0G0W2jERwcQlIfI8sKM", "types": ["premise"]}