{"address_components": [{"long_name": "Block 307", "short_name": "Block 307", "types": ["premise"]}, {"long_name": "307", "short_name": "307", "types": ["street_number"]}, {"long_name": "Serangoon Avenue 2", "short_name": "Serangoon Ave 2", "types": ["route"]}, {"long_name": "Serangoon", "short_name": "Serangoon", "types": ["neighborhood", "political"]}, {"long_name": "Singapore", "short_name": "Singapore", "types": ["locality", "political"]}, {"long_name": "Singapore", "short_name": "SG", "types": ["country", "political"]}, {"long_name": "550307", "short_name": "550307", "types": ["postal_code"]}], "formatted_address": "307 Serangoon Ave 2, Block 307, Singapore 550307", "geometry": {"bounds": {"northeast": {"lat": 1.3547246, "lng": 103.8676985}, "southwest": {"lat": 1.3541776, "lng": 103.8664605}}, "location": {"lat": 1.354559, "lng": 103.8669628}, "location_type": "ROOFTOP", "viewport": {"northeast": {"lat": 1.355800080291502, "lng": 103.8684284802915}, "southwest": {"lat": 1.353102119708498, "lng": 103.8657305197085}}}, "place_id": "ChIJx0PmCQgX2jERwhysikdVJU8", "types": ["premise"]}