{"address_components": [{"long_name": "Block 151", "short_name": "Block 151", "types": ["premise"]}, {"long_name": "151", "short_name": "151", "types": ["street_number"]}, {"long_name": "Serangoon North Avenue 2", "short_name": "Serangoon North Ave 2", "types": ["route"]}, {"long_name": "Serangoon", "short_name": "Serangoon", "types": ["neighborhood", "political"]}, {"long_name": "Singapore", "short_name": "Singapore", "types": ["locality", "political"]}, {"long_name": "Singapore", "short_name": "SG", "types": ["country", "political"]}, {"long_name": "550151", "short_name": "550151", "types": ["postal_code"]}], "formatted_address": "151 Serangoon North Ave 2, Block 151, Singapore 550151", "geometry": {"bounds": {"northeast": {"lat": 1.3698093, "lng": 103.8746551}, "southwest": {"lat": 1.3688102, "lng": 103.8735868}}, "location": {"lat": 1.3695973, "lng": 103.8742136}, "location_type": "ROOFTOP", "viewport": {"northeast": {"lat": 1.370658730291502, "lng": 103.8754699302915}, "southwest": {"lat": 1.367960769708498, "lng": 103.8727719697085}}}, "place_id": "ChIJc3RfTFEW2jERqBDHZCrpwXM", "types": ["premise"]}