{"address_components": [{"long_name": "Block 172A", "short_name": "Block 172A", "types": ["premise"]}, {"long_name": "172A", "short_name": "172A", "types": ["street_number"]}, {"long_name": "Lorong 1 Toa Payoh", "short_name": "Lor 1 Toa Payoh", "types": ["route"]}, {"long_name": "Toa Payoh", "short_name": "Toa Payoh", "types": ["neighborhood", "political"]}, {"long_name": "Singapore", "short_name": "Singapore", "types": ["locality", "political"]}, {"long_name": "Singapore", "short_name": "SG", "types": ["country", "political"]}, {"long_name": "311172", "short_name": "311172", "types": ["postal_code"]}], "formatted_address": "172A Lor 1 Toa Payoh, Block 172A, Singapore 311172", "geometry": {"bounds": {"northeast": {"lat": 1.3304555, "lng": 103.842821}, "southwest": {"lat": 1.3302075, "lng": 103.842107}}, "location": {"lat": 1.3303182, "lng": 103.8423244}, "location_type": "ROOFTOP", "viewport": {"northeast": {"lat": 1.331680480291502, "lng": 103.8438129802915}, "southwest": {"lat": 1.328982519708498, "lng": 103.8411150197085}}}, "place_id": "ChIJ6ex9Zl4X2jERfjp6jq5iL98", "types": ["premise"]}