{"address_components": [{"long_name": "Block 529", "short_name": "Block 529", "types": ["premise"]}, {"long_name": "529", "short_name": "529", "types": ["street_number"]}, {"long_name": "Bedok North Street 3", "short_name": "Bedok North Street 3", "types": ["route"]}, {"long_name": "Bedok", "short_name": "Bedok", "types": ["neighborhood", "political"]}, {"long_name": "Singapore", "short_name": "Singapore", "types": ["locality", "political"]}, {"long_name": "Singapore", "short_name": "SG", "types": ["country", "political"]}, {"long_name": "460529", "short_name": "460529", "types": ["postal_code"]}], "formatted_address": "529 Bedok North Street 3, Block 529, Singapore 460529", "geometry": {"bounds": {"northeast": {"lat": 1.3344654, "lng": 103.9273284}, "southwest": {"lat": 1.3340654, "lng": 103.9256545}}, "location": {"lat": 1.3342292, "lng": 103.9264986}, "location_type": "ROOFTOP", "viewport": {"northeast": {"lat": 1.335614380291502, "lng": 103.9278404302915}, "southwest": {"lat": 1.332916419708498, "lng": 103.9251424697085}}}, "place_id": "ChIJfWER50892jERhf-ehnwUi9o", "types": ["premise"]}