{"address_components": [{"long_name": "Block 601", "short_name": "Block 601", "types": ["premise"]}, {"long_name": "601", "short_name": "601", "types": ["street_number"]}, {"long_name": "Woodlands Drive 42", "short_name": "Woodlands Drive 42", "types": ["route"]}, {"long_name": "Woodlands", "short_name": "Woodlands", "types": ["neighborhood", "political"]}, {"long_name": "Singapore", "short_name": "Singapore", "types": ["locality", "political"]}, {"long_name": "Singapore", "short_name": "SG", "types": ["country", "political"]}, {"long_name": "730601", "short_name": "730601", "types": ["postal_code"]}], "formatted_address": "601 Woodlands Drive 42, Block 601, Singapore 730601", "geometry": {"bounds": {"northeast": {"lat": 1.438803, "lng": 103.7970434}, "southwest": {"lat": 1.4383858, "lng": 103.7959207}}, "location": {"lat": 1.4387069, "lng": 103.7965865}, "location_type": "ROOFTOP", "viewport": {"northeast": {"lat": 1.439943380291502, "lng": 103.7978310302915}, "southwest": {"lat": 1.437245419708498, "lng": 103.7951330697085}}}, "place_id": "ChIJs7rSbqAT2jERMnbK0Epy-10", "types": ["premise"]}