{"address_components": [{"long_name": "Anchorvale Crescent", "short_name": "Anchorvale Cres", "types": ["route"]}, {"long_name": "Sengkang", "short_name": "Sengkang", "types": ["neighborhood", "political"]}, {"long_name": "Singapore", "short_name": "Singapore", "types": ["locality", "political"]}, {"long_name": "Singapore", "short_name": "SG", "types": ["country", "political"]}, {"long_name": "544336", "short_name": "544336", "types": ["postal_code"]}], "formatted_address": "Anchorvale Cres, Singapore 544336", "geometry": {"bounds": {"northeast": {"lat": 1.3981343, "lng": 103.8885104}, "southwest": {"lat": 1.3976571, "lng": 103.888076}}, "location": {"lat": 1.3979889, "lng": 103.8882097}, "location_type": "ROOFTOP", "viewport": {"northeast": {"lat": 1.399244680291502, "lng": 103.8896421802915}, "southwest": {"lat": 1.396546719708498, "lng": 103.8869442197085}}}, "place_id": "ChIJ71Gf9nQW2jERJBjnSGnPivI", "types": ["establishment", "premise"]}