{"address_components": [{"long_name": "Block 427", "short_name": "Block 427", "types": ["premise"]}, {"long_name": "427", "short_name": "427", "types": ["street_number"]}, {"long_name": "Choa Chu Kang Avenue 4", "short_name": "Choa Chu Kang Ave 4", "types": ["route"]}, {"long_name": "Choa Chu Kang", "short_name": "Choa Chu Kang", "types": ["neighborhood", "political"]}, {"long_name": "Singapore", "short_name": "Singapore", "types": ["locality", "political"]}, {"long_name": "Singapore", "short_name": "SG", "types": ["country", "political"]}, {"long_name": "680427", "short_name": "680427", "types": ["postal_code"]}], "formatted_address": "427 Choa Chu Kang Ave 4, Block 427, Singapore 680427", "geometry": {"bounds": {"northeast": {"lat": 1.3809962, "lng": 103.7401224}, "southwest": {"lat": 1.3807249, "lng": 103.7394923}}, "location": {"lat": 1.3808769, "lng": 103.7397325}, "location_type": "ROOFTOP", "viewport": {"northeast": {"lat": 1.382209530291502, "lng": 103.7411563302915}, "southwest": {"lat": 1.379511569708498, "lng": 103.7384583697085}}}, "place_id": "ChIJyVbm2dwR2jERz6p-6X78l7Y", "types": ["premise"]}