{"address_components": [{"long_name": "282B", "short_name": "282B", "types": ["street_number"]}, {"long_name": "Sengkang East Avenue", "short_name": "Sengkang E Ave", "types": ["route"]}, {"long_name": "Sengkang", "short_name": "Sengkang", "types": ["neighborhood", "political"]}, {"long_name": "Singapore", "short_name": "Singapore", "types": ["locality", "political"]}, {"long_name": "Singapore", "short_name": "SG", "types": ["country", "political"]}, {"long_name": "542282", "short_name": "542282", "types": ["postal_code"]}], "formatted_address": "282B Sengkang E Ave, Singapore 542282", "geometry": {"bounds": {"northeast": {"lat": 1.3850141, "lng": 103.8921824}, "southwest": {"lat": 1.3847286, "lng": 103.8917453}}, "location": {"lat": 1.3848844, "lng": 103.8919701}, "location_type": "ROOFTOP", "viewport": {"northeast": {"lat": 1.386220330291502, "lng": 103.8933128302915}, "southwest": {"lat": 1.383522369708498, "lng": 103.8906148697085}}}, "place_id": "ChIJj9L31xQW2jERaOyrL4Z7Oqs", "types": ["establishment", "premise"]}