{"address_components": [{"long_name": "Block 17", "short_name": "Block 17", "types": ["premise"]}, {"long_name": "17", "short_name": "17", "types": ["street_number"]}, {"long_name": "Dover Crescent", "short_name": "Dover Cres", "types": ["route"]}, {"long_name": "Queenstown", "short_name": "Queenstown", "types": ["neighborhood", "political"]}, {"long_name": "Singapore", "short_name": "Singapore", "types": ["locality", "political"]}, {"long_name": "Singapore", "short_name": "SG", "types": ["country", "political"]}, {"long_name": "130017", "short_name": "130017", "types": ["postal_code"]}], "formatted_address": "17 Dover Cres, Block 17, Singapore 130017", "geometry": {"bounds": {"northeast": {"lat": 1.3078953, "lng": 103.783052}, "southwest": {"lat": 1.3075679, "lng": 103.7827211}}, "location": {"lat": 1.3076785, "lng": 103.782914}, "location_type": "ROOFTOP", "viewport": {"northeast": {"lat": 1.309080580291502, "lng": 103.7842355302915}, "southwest": {"lat": 1.306382619708498, "lng": 103.7815375697085}}}, "place_id": "ChIJcQQujF0a2jERqaK17BnHKY4", "types": ["premise"]}