{"address_components": [{"long_name": "Block 636", "short_name": "Block 636", "types": ["premise"]}, {"long_name": "636", "short_name": "636", "types": ["street_number"]}, {"long_name": "Ang Mo Kio Avenue 6", "short_name": "Ang Mo Kio Ave 6", "types": ["route"]}, {"long_name": "Ang Mo Kio", "short_name": "Ang Mo Kio", "types": ["neighborhood", "political"]}, {"long_name": "Singapore", "short_name": "Singapore", "types": ["locality", "political"]}, {"long_name": "Singapore", "short_name": "SG", "types": ["country", "political"]}, {"long_name": "560636", "short_name": "560636", "types": ["postal_code"]}], "formatted_address": "636 Ang Mo Kio Ave 6, Block 636, Singapore 560636", "geometry": {"bounds": {"northeast": {"lat": 1.3813237, "lng": 103.8437221}, "southwest": {"lat": 1.3810829, "lng": 103.8429399}}, "location": {"lat": 1.3812171, "lng": 103.8433188}, "location_type": "ROOFTOP", "viewport": {"northeast": {"lat": 1.382552280291502, "lng": 103.8446799802915}, "southwest": {"lat": 1.379854319708498, "lng": 103.8419820197085}}}, "place_id": "ChIJi9ibR8AW2jERfph7ZlbAt5k", "types": ["premise"]}