{"address_components": [{"long_name": "Block 766", "short_name": "Block 766", "types": ["premise"]}, {"long_name": "766", "short_name": "766", "types": ["street_number"]}, {"long_name": "Bedok Reservoir View", "short_name": "Bedok Reservoir View", "types": ["route"]}, {"long_name": "Bedok", "short_name": "Bedok", "types": ["neighborhood", "political"]}, {"long_name": "Singapore", "short_name": "Singapore", "types": ["locality", "political"]}, {"long_name": "Singapore", "short_name": "SG", "types": ["country", "political"]}, {"long_name": "470766", "short_name": "470766", "types": ["postal_code"]}], "formatted_address": "766 Bedok Reservoir View, Block 766, Singapore 470766", "geometry": {"bounds": {"northeast": {"lat": 1.3363097, "lng": 103.9366974}, "southwest": {"lat": 1.3359816, "lng": 103.9361893}}, "location": {"lat": 1.3362205, "lng": 103.9364691}, "location_type": "ROOFTOP", "viewport": {"northeast": {"lat": 1.337494630291502, "lng": 103.9377923302915}, "southwest": {"lat": 1.334796669708498, "lng": 103.9350943697085}}}, "place_id": "ChIJd-jB6Uc92jERwoagbKtO8NQ", "types": ["premise"]}