{"address_components": [{"long_name": "Block 113", "short_name": "Block 113", "types": ["premise"]}, {"long_name": "113", "short_name": "113", "types": ["street_number"]}, {"long_name": "Teck Whye Lane", "short_name": "Teck Whye Ln", "types": ["route"]}, {"long_name": "Choa Chu Kang", "short_name": "Choa Chu Kang", "types": ["neighborhood", "political"]}, {"long_name": "Singapore", "short_name": "Singapore", "types": ["locality", "political"]}, {"long_name": "Singapore", "short_name": "SG", "types": ["country", "political"]}, {"long_name": "680113", "short_name": "680113", "types": ["postal_code"]}], "formatted_address": "113 Teck Whye Ln, Block 113, Singapore 680113", "geometry": {"bounds": {"northeast": {"lat": 1.3783419, "lng": 103.75138}, "southwest": {"lat": 1.3777159, "lng": 103.750422}}, "location": {"lat": 1.3779522, "lng": 103.750866}, "location_type": "ROOFTOP", "viewport": {"northeast": {"lat": 1.379377880291502, "lng": 103.7522499802915}, "southwest": {"lat": 1.376679919708498, "lng": 103.7495520197085}}}, "place_id": "ChIJwd4iRscR2jERc4cx8PgwcVk", "types": ["premise"]}