{"address_components": [{"long_name": "Block 131", "short_name": "Block 131", "types": ["premise"]}, {"long_name": "131", "short_name": "131", "types": ["street_number"]}, {"long_name": "Cashew Road", "short_name": "Cashew Rd", "types": ["route"]}, {"long_name": "Bukit Panjang", "short_name": "Bukit Panjang", "types": ["neighborhood", "political"]}, {"long_name": "Singapore", "short_name": "Singapore", "types": ["locality", "political"]}, {"long_name": "Singapore", "short_name": "SG", "types": ["country", "political"]}, {"long_name": "670131", "short_name": "670131", "types": ["postal_code"]}], "formatted_address": "131 Cashew Rd, Block 131, Singapore 670131", "geometry": {"bounds": {"northeast": {"lat": 1.374798, "lng": 103.771229}, "southwest": {"lat": 1.3743049, "lng": 103.770535}}, "location": {"lat": 1.3746099, "lng": 103.7707819}, "location_type": "ROOFTOP", "viewport": {"northeast": {"lat": 1.375900430291502, "lng": 103.7722309802915}, "southwest": {"lat": 1.373202469708498, "lng": 103.7695330197085}}}, "place_id": "ChIJdZvRF6YR2jERf9GQiDhk_rM", "types": ["premise"]}