{"address_components": [{"long_name": "Block 129", "short_name": "Block 129", "types": ["premise"]}, {"long_name": "129", "short_name": "129", "types": ["street_number"]}, {"long_name": "Lorong Ah Soo", "short_name": "Lor Ah Soo", "types": ["route"]}, {"long_name": "Hougang", "short_name": "Hougang", "types": ["neighborhood", "political"]}, {"long_name": "Singapore", "short_name": "Singapore", "types": ["locality", "political"]}, {"long_name": "Singapore", "short_name": "SG", "types": ["country", "political"]}, {"long_name": "530129", "short_name": "530129", "types": ["postal_code"]}], "formatted_address": "129 Lor Ah Soo, Block 129, Singapore 530129", "geometry": {"bounds": {"northeast": {"lat": 1.3520819, "lng": 103.8880922}, "southwest": {"lat": 1.3514288, "lng": 103.8870792}}, "location": {"lat": 1.351509, "lng": 103.8877113}, "location_type": "ROOFTOP", "viewport": {"northeast": {"lat": 1.353104330291502, "lng": 103.8889346802915}, "southwest": {"lat": 1.350406369708498, "lng": 103.8862367197085}}}, "place_id": "ChIJoxv5BbkX2jER3NVG4B0HkAc", "types": ["premise"]}