{"address_components": [{"long_name": "Block 225", "short_name": "Block 225", "types": ["premise"]}, {"long_name": "225", "short_name": "225", "types": ["street_number"]}, {"long_name": "Serangoon Avenue 4", "short_name": "Serangoon Ave 4", "types": ["route"]}, {"long_name": "Serangoon", "short_name": "Serangoon", "types": ["neighborhood", "political"]}, {"long_name": "Singapore", "short_name": "Singapore", "types": ["locality", "political"]}, {"long_name": "Singapore", "short_name": "SG", "types": ["country", "political"]}, {"long_name": "550225", "short_name": "550225", "types": ["postal_code"]}], "formatted_address": "225 Serangoon Ave 4, Block 225, Singapore 550225", "geometry": {"bounds": {"northeast": {"lat": 1.357242, "lng": 103.8701869}, "southwest": {"lat": 1.356676, "lng": 103.8696279}}, "location": {"lat": 1.3568838, "lng": 103.8701338}, "location_type": "ROOFTOP", "viewport": {"northeast": {"lat": 1.358307980291502, "lng": 103.8712563802915}, "southwest": {"lat": 1.355610019708498, "lng": 103.8685584197085}}}, "place_id": "ChIJ2VQNs6kX2jER0qxtB_wa55A", "types": ["premise"]}