{"address_components": [{"long_name": "Block 339", "short_name": "Block 339", "types": ["premise"]}, {"long_name": "339", "short_name": "339", "types": ["street_number"]}, {"long_name": "Jurong East Avenue 1", "short_name": "Jurong East Ave 1", "types": ["route"]}, {"long_name": "Jurong East", "short_name": "Jurong East", "types": ["neighborhood", "political"]}, {"long_name": "Singapore", "short_name": "Singapore", "types": ["locality", "political"]}, {"long_name": "Singapore", "short_name": "SG", "types": ["country", "political"]}, {"long_name": "600339", "short_name": "600339", "types": ["postal_code"]}], "formatted_address": "339 Jurong East Ave 1, Block 339, Singapore 600339", "geometry": {"bounds": {"northeast": {"lat": 1.3497737, "lng": 103.7319061}, "southwest": {"lat": 1.3491856, "lng": 103.7312392}}, "location": {"lat": 1.3494724, "lng": 103.7315219}, "location_type": "ROOFTOP", "viewport": {"northeast": {"lat": 1.350828630291502, "lng": 103.7329216302915}, "southwest": {"lat": 1.348130669708498, "lng": 103.7302236697085}}}, "place_id": "ChIJe2ck3iAQ2jER1W2aCreCm6w", "types": ["premise"]}