{"address_components": [{"long_name": "Block 11", "short_name": "Block 11", "types": ["premise"]}, {"long_name": "11", "short_name": "11", "types": ["street_number"]}, {"long_name": "Farrer Park Road", "short_name": "Farrer Park Rd", "types": ["route"]}, {"long_name": "Kallang", "short_name": "Kallang", "types": ["neighborhood", "political"]}, {"long_name": "Singapore", "short_name": "Singapore", "types": ["locality", "political"]}, {"long_name": "Singapore", "short_name": "SG", "types": ["country", "political"]}, {"long_name": "210011", "short_name": "210011", "types": ["postal_code"]}], "formatted_address": "11 Farrer Park Rd, Block 11, Singapore 210011", "geometry": {"bounds": {"northeast": {"lat": 1.3126617, "lng": 103.8523073}, "southwest": {"lat": 1.3123031, "lng": 103.8519476}}, "location": {"lat": 1.3124843, "lng": 103.8521055}, "location_type": "ROOFTOP", "viewport": {"northeast": {"lat": 1.313831380291502, "lng": 103.8534764302915}, "southwest": {"lat": 1.311133419708498, "lng": 103.8507784697085}}}, "place_id": "ChIJBSJEoMYZ2jERrAzW4_vR8UQ", "types": ["premise"]}