{"address_components": [{"long_name": "664B", "short_name": "664B", "types": ["street_number"]}, {"long_name": "Punggol Drive", "short_name": "Punggol Dr", "types": ["route"]}, {"long_name": "Punggol", "short_name": "Punggol", "types": ["neighborhood", "political"]}, {"long_name": "Singapore", "short_name": "Singapore", "types": ["locality", "political"]}, {"long_name": "Singapore", "short_name": "SG", "types": ["country", "political"]}, {"long_name": "822664", "short_name": "822664", "types": ["postal_code"]}], "formatted_address": "664B Punggol Dr, Singapore 822664", "geometry": {"bounds": {"northeast": {"lat": 1.4002258, "lng": 103.9180707}, "southwest": {"lat": 1.399891, "lng": 103.9175877}}, "location": {"lat": 1.4001006, "lng": 103.9178203}, "location_type": "ROOFTOP", "viewport": {"northeast": {"lat": 1.401407380291502, "lng": 103.9191781802915}, "southwest": {"lat": 1.398709419708498, "lng": 103.9164802197085}}}, "place_id": "ChIJMSzUNf492jERen9YL34I3I0", "types": ["premise"]}