{"address_components": [{"long_name": "Block 875", "short_name": "Block 875", "types": ["premise"]}, {"long_name": "875", "short_name": "875", "types": ["street_number"]}, {"long_name": "Tampines Street 84", "short_name": "Tampines Street 84", "types": ["route"]}, {"long_name": "Tampines", "short_name": "Tampines", "types": ["neighborhood", "political"]}, {"long_name": "Singapore", "short_name": "Singapore", "types": ["locality", "political"]}, {"long_name": "Singapore", "short_name": "SG", "types": ["country", "political"]}, {"long_name": "520875", "short_name": "520875", "types": ["postal_code"]}], "formatted_address": "875 Tampines Street 84, Block 875, Singapore 520875", "geometry": {"bounds": {"northeast": {"lat": 1.352905, "lng": 103.9323}, "southwest": {"lat": 1.3524481, "lng": 103.931578}}, "location": {"lat": 1.3527154, "lng": 103.9318463}, "location_type": "ROOFTOP", "viewport": {"northeast": {"lat": 1.354025530291502, "lng": 103.9332879802915}, "southwest": {"lat": 1.351327569708498, "lng": 103.9305900197085}}}, "place_id": "ChIJAa_S2G092jERWfefTrGbrTs", "types": ["premise"]}