{"address_components": [{"long_name": "Block 409", "short_name": "Block 409", "types": ["premise"]}, {"long_name": "409", "short_name": "409", "types": ["street_number"]}, {"long_name": "Saujana Road", "short_name": "Saujana Rd", "types": ["route"]}, {"long_name": "Bukit Panjang", "short_name": "Bukit Panjang", "types": ["neighborhood", "political"]}, {"long_name": "Singapore", "short_name": "Singapore", "types": ["locality", "political"]}, {"long_name": "Singapore", "short_name": "SG", "types": ["country", "political"]}, {"long_name": "670409", "short_name": "670409", "types": ["postal_code"]}], "formatted_address": "409 Saujana Rd, Block 409, Singapore 670409", "geometry": {"bounds": {"northeast": {"lat": 1.3829615, "lng": 103.7680082}, "southwest": {"lat": 1.3822774, "lng": 103.7674641}}, "location": {"lat": 1.3823247, "lng": 103.7677038}, "location_type": "ROOFTOP", "viewport": {"northeast": {"lat": 1.383968430291502, "lng": 103.7690851302915}, "southwest": {"lat": 1.381270469708498, "lng": 103.7663871697085}}}, "place_id": "ChIJpSMFbqIR2jER8AHmz-YXomg", "types": ["premise"]}