{"address_components": [{"long_name": "Block 440", "short_name": "Block 440", "types": ["premise"]}, {"long_name": "440", "short_name": "440", "types": ["street_number"]}, {"long_name": "Tampines Street 43", "short_name": "Tampines Street 43", "types": ["route"]}, {"long_name": "Tampines", "short_name": "Tampines", "types": ["neighborhood", "political"]}, {"long_name": "Singapore", "short_name": "Singapore", "types": ["locality", "political"]}, {"long_name": "Singapore", "short_name": "SG", "types": ["country", "political"]}, {"long_name": "520440", "short_name": "520440", "types": ["postal_code"]}], "formatted_address": "440 Tampines Street 43, Block 440, Singapore 520440", "geometry": {"bounds": {"northeast": {"lat": 1.3608973, "lng": 103.9520008}, "southwest": {"lat": 1.360624, "lng": 103.9512107}}, "location": {"lat": 1.3607989, "lng": 103.9516074}, "location_type": "ROOFTOP", "viewport": {"northeast": {"lat": 1.362109630291502, "lng": 103.9529547302915}, "southwest": {"lat": 1.359411669708498, "lng": 103.9502567697085}}}, "place_id": "ChIJ8yScUQY92jER1miYXDqN93Q", "types": ["premise"]}