{"address_components": [{"long_name": "Block 336", "short_name": "Block 336", "types": ["premise"]}, {"long_name": "336", "short_name": "336", "types": ["street_number"]}, {"long_name": "Woodlands Avenue 1", "short_name": "Woodlands Ave 1", "types": ["route"]}, {"long_name": "Woodlands", "short_name": "Woodlands", "types": ["neighborhood", "political"]}, {"long_name": "Singapore", "short_name": "Singapore", "types": ["locality", "political"]}, {"long_name": "Singapore", "short_name": "SG", "types": ["country", "political"]}, {"long_name": "730336", "short_name": "730336", "types": ["postal_code"]}], "formatted_address": "336 Woodlands Ave 1, Block 336, Singapore 730336", "geometry": {"bounds": {"northeast": {"lat": 1.4306563, "lng": 103.7822946}, "southwest": {"lat": 1.4301613, "lng": 103.7813115}}, "location": {"lat": 1.43043, "lng": 103.781918}, "location_type": "ROOFTOP", "viewport": {"northeast": {"lat": 1.431757780291502, "lng": 103.7831520302915}, "southwest": {"lat": 1.429059819708498, "lng": 103.7804540697085}}}, "place_id": "ChIJgyRZA64T2jER__asQCB9aYw", "types": ["premise"]}