{"address_components": [{"long_name": "Block 474", "short_name": "Block 474", "types": ["premise"]}, {"long_name": "474", "short_name": "474", "types": ["street_number"]}, {"long_name": "Jurong West Street 41", "short_name": "Jurong West Street 41", "types": ["route"]}, {"long_name": "Jurong West", "short_name": "Jurong West", "types": ["neighborhood", "political"]}, {"long_name": "Singapore", "short_name": "Singapore", "types": ["locality", "political"]}, {"long_name": "Singapore", "short_name": "SG", "types": ["country", "political"]}, {"long_name": "640474", "short_name": "640474", "types": ["postal_code"]}], "formatted_address": "474 Jurong West Street 41, Block 474, Singapore 640474", "geometry": {"bounds": {"northeast": {"lat": 1.348177, "lng": 103.7244911}, "southwest": {"lat": 1.3479777, "lng": 103.7237211}}, "location": {"lat": 1.3480683, "lng": 103.7240777}, "location_type": "ROOFTOP", "viewport": {"northeast": {"lat": 1.349426330291502, "lng": 103.7254550802915}, "southwest": {"lat": 1.346728369708498, "lng": 103.7227571197085}}}, "place_id": "ChIJb0leYd4P2jERaWndrwKn9Fo", "types": ["premise"]}