{"address_components": [{"long_name": "Block 346", "short_name": "Block 346", "types": ["premise"]}, {"long_name": "346", "short_name": "346", "types": ["street_number"]}, {"long_name": "Bukit Batok Street 34", "short_name": "Bukit Batok Street 34", "types": ["route"]}, {"long_name": "Bukit Batok", "short_name": "Bukit Batok", "types": ["neighborhood", "political"]}, {"long_name": "Singapore", "short_name": "Singapore", "types": ["locality", "political"]}, {"long_name": "Singapore", "short_name": "SG", "types": ["country", "political"]}, {"long_name": "650346", "short_name": "650346", "types": ["postal_code"]}], "formatted_address": "346 Bukit Batok Street 34, Block 346, Singapore 650346", "geometry": {"bounds": {"northeast": {"lat": 1.362547, "lng": 103.750908}, "southwest": {"lat": 1.362399, "lng": 103.7501441}}, "location": {"lat": 1.3624896, "lng": 103.7505039}, "location_type": "ROOFTOP", "viewport": {"northeast": {"lat": 1.363821980291502, "lng": 103.7518750302915}, "southwest": {"lat": 1.361124019708498, "lng": 103.7491770697085}}}, "place_id": "ChIJD61uCzUQ2jERqTFCAyRpx60", "types": ["premise"]}