{"address_components": [{"long_name": "180C", "short_name": "180C", "types": ["street_number"]}, {"long_name": "Rivervale Crescent", "short_name": "Rivervale Cres", "types": ["route"]}, {"long_name": "Sengkang", "short_name": "Sengkang", "types": ["neighborhood", "political"]}, {"long_name": "Singapore", "short_name": "Singapore", "types": ["locality", "political"]}, {"long_name": "Singapore", "short_name": "SG", "types": ["country", "political"]}, {"long_name": "543180", "short_name": "543180", "types": ["postal_code"]}], "formatted_address": "180C Rivervale Cres, Singapore 543180", "geometry": {"bounds": {"northeast": {"lat": 1.3897429, "lng": 103.909883}, "southwest": {"lat": 1.3893406, "lng": 103.9093948}}, "location": {"lat": 1.3895416, "lng": 103.9096411}, "location_type": "ROOFTOP", "viewport": {"northeast": {"lat": 1.390890730291502, "lng": 103.9109878802915}, "southwest": {"lat": 1.388192769708498, "lng": 103.9082899197085}}}, "place_id": "ChIJ4S-VixwW2jERdOh1v0OErLU", "types": ["establishment", "premise"]}