{"address_components": [{"long_name": "Block 232", "short_name": "Block 232", "types": ["premise"]}, {"long_name": "232", "short_name": "232", "types": ["street_number"]}, {"long_name": "Bishan Street 22", "short_name": "Bishan Street 22", "types": ["route"]}, {"long_name": "Bishan", "short_name": "Bishan", "types": ["neighborhood", "political"]}, {"long_name": "Singapore", "short_name": "Singapore", "types": ["locality", "political"]}, {"long_name": "Singapore", "short_name": "SG", "types": ["country", "political"]}, {"long_name": "570232", "short_name": "570232", "types": ["postal_code"]}], "formatted_address": "232 Bishan Street 22, Block 232, Singapore 570232", "geometry": {"bounds": {"northeast": {"lat": 1.3587258, "lng": 103.8459691}, "southwest": {"lat": 1.3579767, "lng": 103.8453144}}, "location": {"lat": 1.3582718, "lng": 103.8456739}, "location_type": "ROOFTOP", "viewport": {"northeast": {"lat": 1.359700230291502, "lng": 103.8469907302915}, "southwest": {"lat": 1.357002269708498, "lng": 103.8442927697085}}}, "place_id": "ChIJOU41vRgX2jER8jWYzUSRVEo", "types": ["premise"]}