{"address_components": [{"long_name": "Block 365", "short_name": "Block 365", "types": ["premise"]}, {"long_name": "365", "short_name": "365", "types": ["street_number"]}, {"long_name": "Bukit Batok Street 31", "short_name": "Bukit Batok Street 31", "types": ["route"]}, {"long_name": "Bukit Batok", "short_name": "Bukit Batok", "types": ["neighborhood", "political"]}, {"long_name": "Singapore", "short_name": "Singapore", "types": ["locality", "political"]}, {"long_name": "Singapore", "short_name": "SG", "types": ["country", "political"]}, {"long_name": "650365", "short_name": "650365", "types": ["postal_code"]}], "formatted_address": "365 Bukit Batok Street 31, Block 365, Singapore 650365", "geometry": {"bounds": {"northeast": {"lat": 1.361029, "lng": 103.748732}, "southwest": {"lat": 1.3606491, "lng": 103.748622}}, "location": {"lat": 1.3608331, "lng": 103.7486709}, "location_type": "ROOFTOP", "viewport": {"northeast": {"lat": 1.362188030291502, "lng": 103.7500259802915}, "southwest": {"lat": 1.359490069708498, "lng": 103.7473280197085}}}, "place_id": "ChIJOUfcNjQQ2jERY7jbxU4UAEw", "types": ["premise"]}