{"address_components": [{"long_name": "Block 230", "short_name": "Block 230", "types": ["premise"]}, {"long_name": "230", "short_name": "230", "types": ["street_number"]}, {"long_name": "Simei Street 4", "short_name": "Simei Street 4", "types": ["route"]}, {"long_name": "Tampines", "short_name": "Tampines", "types": ["neighborhood", "political"]}, {"long_name": "Singapore", "short_name": "Singapore", "types": ["locality", "political"]}, {"long_name": "Singapore", "short_name": "SG", "types": ["country", "political"]}, {"long_name": "520230", "short_name": "520230", "types": ["postal_code"]}], "formatted_address": "230 Simei Street 4, Block 230, Singapore 520230", "geometry": {"bounds": {"northeast": {"lat": 1.3436296, "lng": 103.9561746}, "southwest": {"lat": 1.3431128, "lng": 103.9555108}}, "location": {"lat": 1.34328, "lng": 103.9557776}, "location_type": "ROOFTOP", "viewport": {"northeast": {"lat": 1.344720180291502, "lng": 103.9571916802915}, "southwest": {"lat": 1.342022219708498, "lng": 103.9544937197085}}}, "place_id": "ChIJAVt7kiE92jERjYKMd7GbDHU", "types": ["premise"]}