{"address_components": [{"long_name": "Block 223", "short_name": "Block 223", "types": ["premise"]}, {"long_name": "223", "short_name": "223", "types": ["street_number"]}, {"long_name": "Pending Road", "short_name": "Pending Rd", "types": ["route"]}, {"long_name": "Bukit Panjang", "short_name": "Bukit Panjang", "types": ["neighborhood", "political"]}, {"long_name": "Singapore", "short_name": "Singapore", "types": ["locality", "political"]}, {"long_name": "Singapore", "short_name": "SG", "types": ["country", "political"]}, {"long_name": "670223", "short_name": "670223", "types": ["postal_code"]}], "formatted_address": "223 Pending Rd, Block 223, Singapore 670223", "geometry": {"bounds": {"northeast": {"lat": 1.3759971, "lng": 103.7740319}, "southwest": {"lat": 1.3754061, "lng": 103.7731879}}, "location": {"lat": 1.3757666, "lng": 103.7734979}, "location_type": "ROOFTOP", "viewport": {"northeast": {"lat": 1.377050580291502, "lng": 103.7749588802915}, "southwest": {"lat": 1.374352619708498, "lng": 103.7722609197085}}}, "place_id": "ChIJCZ8Co6cR2jERCFs6RhH78r0", "types": ["premise"]}