{"address_components": [{"long_name": "440", "short_name": "440", "types": ["street_number"]}, {"long_name": "Clementi Avenue 3", "short_name": "Clementi Ave 3", "types": ["route"]}, {"long_name": "Clementi", "short_name": "Clementi", "types": ["neighborhood", "political"]}, {"long_name": "Singapore", "short_name": "Singapore", "types": ["locality", "political"]}, {"long_name": "Singapore", "short_name": "SG", "types": ["country", "political"]}], "formatted_address": "440 Clementi Ave 3, Singapore", "geometry": {"bounds": {"northeast": {"lat": 1.3172724, "lng": 103.7646669}, "southwest": {"lat": 1.3154729, "lng": 103.7630115}}, "location": {"lat": 1.3161638, "lng": 103.7640373}, "location_type": "GEOMETRIC_CENTER", "viewport": {"northeast": {"lat": 1.317721630291502, "lng": 103.7651881802915}, "southwest": {"lat": 1.315023669708498, "lng": 103.7624902197085}}}, "place_id": "ChIJUVT33o8a2jERP7CUOBsrTXc", "types": ["premise"]}