{"address_components": [{"long_name": "Block 422", "short_name": "Block 422", "types": ["premise"]}, {"long_name": "422", "short_name": "422", "types": ["street_number"]}, {"long_name": "Choa Chu Kang Avenue 4", "short_name": "Choa Chu Kang Ave 4", "types": ["route"]}, {"long_name": "Choa Chu Kang", "short_name": "Choa Chu Kang", "types": ["neighborhood", "political"]}, {"long_name": "Singapore", "short_name": "Singapore", "types": ["locality", "political"]}, {"long_name": "Singapore", "short_name": "SG", "types": ["country", "political"]}, {"long_name": "680422", "short_name": "680422", "types": ["postal_code"]}], "formatted_address": "422 Choa Chu Kang Ave 4, Block 422, Singapore 680422", "geometry": {"bounds": {"northeast": {"lat": 1.3826875, "lng": 103.7411143}, "southwest": {"lat": 1.3820412, "lng": 103.7407266}}, "location": {"lat": 1.3823357, "lng": 103.7409997}, "location_type": "ROOFTOP", "viewport": {"northeast": {"lat": 1.383713330291502, "lng": 103.7422694302915}, "southwest": {"lat": 1.381015369708498, "lng": 103.7395714697085}}}, "place_id": "ChIJjUHRtcIR2jERo6njiMZXDHc", "types": ["premise"]}