{"address_components": [{"long_name": "Block 541", "short_name": "Block 541", "types": ["premise"]}, {"long_name": "541", "short_name": "541", "types": ["street_number"]}, {"long_name": "Jurong West Avenue 1", "short_name": "Jurong West Ave 1", "types": ["route"]}, {"long_name": "Jurong West", "short_name": "Jurong West", "types": ["neighborhood", "political"]}, {"long_name": "Singapore", "short_name": "Singapore", "types": ["locality", "political"]}, {"long_name": "Singapore", "short_name": "SG", "types": ["country", "political"]}, {"long_name": "640541", "short_name": "640541", "types": ["postal_code"]}], "formatted_address": "541 Jurong West Ave 1, Block 541, Singapore 640541", "geometry": {"bounds": {"northeast": {"lat": 1.3516303, "lng": 103.7161807}, "southwest": {"lat": 1.350892, "lng": 103.7157471}}, "location": {"lat": 1.3511912, "lng": 103.7161143}, "location_type": "ROOFTOP", "viewport": {"northeast": {"lat": 1.352610130291502, "lng": 103.7173128802915}, "southwest": {"lat": 1.349912169708498, "lng": 103.7146149197085}}}, "place_id": "ChIJy5_OosQP2jERE8IbItAl99o", "types": ["premise"]}