{"address_components": [{"long_name": "Block 531", "short_name": "Block 531", "types": ["premise"]}, {"long_name": "531", "short_name": "531", "types": ["street_number"]}, {"long_name": "Woodlands Drive 14", "short_name": "Woodlands Drive 14", "types": ["route"]}, {"long_name": "Woodlands", "short_name": "Woodlands", "types": ["neighborhood", "political"]}, {"long_name": "Singapore", "short_name": "Singapore", "types": ["locality", "political"]}, {"long_name": "Singapore", "short_name": "SG", "types": ["country", "political"]}, {"long_name": "730531", "short_name": "730531", "types": ["postal_code"]}], "formatted_address": "531 Woodlands Drive 14, Block 531, Singapore 730531", "geometry": {"bounds": {"northeast": {"lat": 1.431264, "lng": 103.792912}, "southwest": {"lat": 1.4308209, "lng": 103.792579}}, "location": {"lat": 1.4310239, "lng": 103.7927834}, "location_type": "ROOFTOP", "viewport": {"northeast": {"lat": 1.432391430291502, "lng": 103.7940944802915}, "southwest": {"lat": 1.429693469708498, "lng": 103.7913965197085}}}, "place_id": "ChIJ9Z0MX6MT2jER9h8EKU19Rv0", "types": ["premise"]}