{"address_components": [{"long_name": "Block 428", "short_name": "Block 428", "types": ["premise"]}, {"long_name": "428", "short_name": "428", "types": ["street_number"]}, {"long_name": "Bedok North Road", "short_name": "Bedok North Rd", "types": ["route"]}, {"long_name": "Bedok", "short_name": "Bedok", "types": ["neighborhood", "political"]}, {"long_name": "Singapore", "short_name": "Singapore", "types": ["locality", "political"]}, {"long_name": "Singapore", "short_name": "SG", "types": ["country", "political"]}, {"long_name": "460428", "short_name": "460428", "types": ["postal_code"]}], "formatted_address": "428 Bedok North Rd, Block 428, Singapore 460428", "geometry": {"bounds": {"northeast": {"lat": 1.3297944, "lng": 103.9282212}, "southwest": {"lat": 1.3293173, "lng": 103.9269891}}, "location": {"lat": 1.3295047, "lng": 103.9273597}, "location_type": "ROOFTOP", "viewport": {"northeast": {"lat": 1.330904830291502, "lng": 103.9289541302915}, "southwest": {"lat": 1.328206869708498, "lng": 103.9262561697085}}}, "place_id": "ChIJ9YN0wE092jERK5aj7WKxxhg", "types": ["premise"]}