{"address_components": [{"long_name": "Block 229", "short_name": "Block 229", "types": ["premise"]}, {"long_name": "229", "short_name": "229", "types": ["street_number"]}, {"long_name": "Tampines Street 23", "short_name": "Tampines Street 23", "types": ["route"]}, {"long_name": "Tampines", "short_name": "Tampines", "types": ["neighborhood", "political"]}, {"long_name": "Singapore", "short_name": "Singapore", "types": ["locality", "political"]}, {"long_name": "Singapore", "short_name": "SG", "types": ["country", "political"]}, {"long_name": "521229", "short_name": "521229", "types": ["postal_code"]}], "formatted_address": "229 Tampines Street 23, Block 229, Singapore 521229", "geometry": {"bounds": {"northeast": {"lat": 1.3559956, "lng": 103.9544961}, "southwest": {"lat": 1.3557996, "lng": 103.9534321}}, "location": {"lat": 1.3559531, "lng": 103.9539645}, "location_type": "ROOFTOP", "viewport": {"northeast": {"lat": 1.357246580291502, "lng": 103.9553130802915}, "southwest": {"lat": 1.354548619708498, "lng": 103.9526151197085}}}, "place_id": "ChIJg4_ajQQ92jERX_Fe9AJwmdE", "types": ["premise"]}