{"address_components": [{"long_name": "Block 554", "short_name": "Block 554", "types": ["premise"]}, {"long_name": "554", "short_name": "554", "types": ["street_number"]}, {"long_name": "Serangoon North Avenue 3", "short_name": "Serangoon North Ave 3", "types": ["route"]}, {"long_name": "Serangoon", "short_name": "Serangoon", "types": ["neighborhood", "political"]}, {"long_name": "Singapore", "short_name": "Singapore", "types": ["locality", "political"]}, {"long_name": "Singapore", "short_name": "SG", "types": ["country", "political"]}, {"long_name": "550554", "short_name": "550554", "types": ["postal_code"]}], "formatted_address": "554 Serangoon North Ave 3, Block 554, Singapore 550554", "geometry": {"bounds": {"northeast": {"lat": 1.3720432, "lng": 103.8707941}, "southwest": {"lat": 1.3717241, "lng": 103.8699111}}, "location": {"lat": 1.3719164, "lng": 103.8703376}, "location_type": "ROOFTOP", "viewport": {"northeast": {"lat": 1.373232630291502, "lng": 103.8717015802915}, "southwest": {"lat": 1.370534669708498, "lng": 103.8690036197085}}}, "place_id": "ChIJHVPjolcW2jERCvk_SqX5xQE", "types": ["premise"]}