{"address_components": [{"long_name": "Block 733", "short_name": "Block 733", "types": ["premise"]}, {"long_name": "733", "short_name": "733", "types": ["street_number"]}, {"long_name": "Woodlands Circle", "short_name": "Woodlands Cir", "types": ["route"]}, {"long_name": "Woodlands", "short_name": "Woodlands", "types": ["neighborhood", "political"]}, {"long_name": "Singapore", "short_name": "Singapore", "types": ["locality", "political"]}, {"long_name": "Singapore", "short_name": "SG", "types": ["country", "political"]}, {"long_name": "730733", "short_name": "730733", "types": ["postal_code"]}], "formatted_address": "733 Woodlands Cir, Block 733, Singapore 730733", "geometry": {"bounds": {"northeast": {"lat": 1.4438169, "lng": 103.7990219}, "southwest": {"lat": 1.443403, "lng": 103.7984351}}, "location": {"lat": 1.443685, "lng": 103.7987597}, "location_type": "ROOFTOP", "viewport": {"northeast": {"lat": 1.444958930291502, "lng": 103.8000774802915}, "southwest": {"lat": 1.442260969708498, "lng": 103.7973795197085}}}, "place_id": "ChIJjy_GrXQT2jERwR0FxcQh7Pk", "types": ["premise"]}