{"address_components": [{"long_name": "Block 34", "short_name": "Block 34", "types": ["premise"]}, {"long_name": "34", "short_name": "34", "types": ["street_number"]}, {"long_name": "Telok Blangah Way", "short_name": "Telok Blangah Way", "types": ["route"]}, {"long_name": "Bukit Merah", "short_name": "Bukit Merah", "types": ["neighborhood", "political"]}, {"long_name": "Singapore", "short_name": "Singapore", "types": ["locality", "political"]}, {"long_name": "Singapore", "short_name": "SG", "types": ["country", "political"]}, {"long_name": "090034", "short_name": "090034", "types": ["postal_code"]}], "formatted_address": "34 Telok Blangah Way, Block 34, Singapore 090034", "geometry": {"bounds": {"northeast": {"lat": 1.2736469, "lng": 103.8228379}, "southwest": {"lat": 1.272957, "lng": 103.8221519}}, "location": {"lat": 1.2735811, "lng": 103.8224539}, "location_type": "ROOFTOP", "viewport": {"northeast": {"lat": 1.274650930291502, "lng": 103.8238438802915}, "southwest": {"lat": 1.271952969708498, "lng": 103.8211459197085}}}, "place_id": "ChIJQTXWz2EZ2jERC1LX2dpKBss", "types": ["premise"]}