{"address_components": [{"long_name": "Block 453", "short_name": "Block 453", "types": ["premise"]}, {"long_name": "453", "short_name": "453", "types": ["street_number"]}, {"long_name": "Jurong West Street 42", "short_name": "Jurong West Street 42", "types": ["route"]}, {"long_name": "Jurong West", "short_name": "Jurong West", "types": ["neighborhood", "political"]}, {"long_name": "Singapore", "short_name": "Singapore", "types": ["locality", "political"]}, {"long_name": "Singapore", "short_name": "SG", "types": ["country", "political"]}, {"long_name": "640453", "short_name": "640453", "types": ["postal_code"]}], "formatted_address": "453 Jurong West Street 42, Block 453, Singapore 640453", "geometry": {"bounds": {"northeast": {"lat": 1.3515595, "lng": 103.7179562}, "southwest": {"lat": 1.3511944, "lng": 103.7170703}}, "location": {"lat": 1.3513306, "lng": 103.7172908}, "location_type": "ROOFTOP", "viewport": {"northeast": {"lat": 1.352725930291502, "lng": 103.7188622302915}, "southwest": {"lat": 1.350027969708498, "lng": 103.7161642697085}}}, "place_id": "ChIJhR94TdsP2jERNvsiTTlqtK8", "types": ["premise"]}