{"address_components": [{"long_name": "Block 769", "short_name": "Block 769", "types": ["premise"]}, {"long_name": "769", "short_name": "769", "types": ["street_number"]}, {"long_name": "Woodlands Drive 60", "short_name": "Woodlands Drive 60", "types": ["route"]}, {"long_name": "Woodlands", "short_name": "Woodlands", "types": ["neighborhood", "political"]}, {"long_name": "Singapore", "short_name": "Singapore", "types": ["locality", "political"]}, {"long_name": "Singapore", "short_name": "SG", "types": ["country", "political"]}, {"long_name": "730769", "short_name": "730769", "types": ["postal_code"]}], "formatted_address": "769 Woodlands Drive 60, Block 769, Singapore 730769", "geometry": {"bounds": {"northeast": {"lat": 1.4473941, "lng": 103.799243}, "southwest": {"lat": 1.446788, "lng": 103.798584}}, "location": {"lat": 1.4469886, "lng": 103.7987597}, "location_type": "ROOFTOP", "viewport": {"northeast": {"lat": 1.448440030291502, "lng": 103.8002624802915}, "southwest": {"lat": 1.445742069708498, "lng": 103.7975645197085}}}, "place_id": "ChIJxzw_znIT2jERt0mtwyLr70o", "types": ["premise"]}