{"address_components": [{"long_name": "Block 633", "short_name": "Block 633", "types": ["premise"]}, {"long_name": "633", "short_name": "633", "types": ["street_number"]}, {"long_name": "Jurong West Street 65", "short_name": "Jurong West Street 65", "types": ["route"]}, {"long_name": "Jurong West", "short_name": "Jurong West", "types": ["neighborhood", "political"]}, {"long_name": "Singapore", "short_name": "Singapore", "types": ["locality", "political"]}, {"long_name": "Singapore", "short_name": "SG", "types": ["country", "political"]}, {"long_name": "640633", "short_name": "640633", "types": ["postal_code"]}], "formatted_address": "633 Jurong West Street 65, Block 633, Singapore 640633", "geometry": {"bounds": {"northeast": {"lat": 1.3437129, "lng": 103.699644}, "southwest": {"lat": 1.343138, "lng": 103.69905}}, "location": {"lat": 1.3434967, "lng": 103.6992569}, "location_type": "ROOFTOP", "viewport": {"northeast": {"lat": 1.344774430291502, "lng": 103.7006959802915}, "southwest": {"lat": 1.342076469708498, "lng": 103.6979980197085}}}, "place_id": "ChIJ6_fDhZYP2jERIYzyJUD-HSs", "types": ["premise"]}