{"address_components": [{"long_name": "Block 252", "short_name": "Block 252", "types": ["premise"]}, {"long_name": "252", "short_name": "252", "types": ["street_number"]}, {"long_name": "Hougang Avenue 3", "short_name": "Hougang Ave 3", "types": ["route"]}, {"long_name": "Hougang", "short_name": "Hougang", "types": ["neighborhood", "political"]}, {"long_name": "Singapore", "short_name": "Singapore", "types": ["locality", "political"]}, {"long_name": "Singapore", "short_name": "SG", "types": ["country", "political"]}, {"long_name": "530252", "short_name": "530252", "types": ["postal_code"]}], "formatted_address": "252 Hougang Ave 3, Block 252, Singapore 530252", "geometry": {"bounds": {"northeast": {"lat": 1.360657, "lng": 103.8927919}, "southwest": {"lat": 1.3599829, "lng": 103.892056}}, "location": {"lat": 1.3601941, "lng": 103.8926044}, "location_type": "ROOFTOP", "viewport": {"northeast": {"lat": 1.361668930291502, "lng": 103.8937729302915}, "southwest": {"lat": 1.358970969708498, "lng": 103.8910749697085}}}, "place_id": "ChIJ0eMZa8oX2jER4czXvehvgAU", "types": ["premise"]}