{"address_components": [{"long_name": "Block 23", "short_name": "Block 23", "types": ["subpremise"]}, {"long_name": "Block 1", "short_name": "Block 1", "types": ["premise"]}, {"long_name": "1", "short_name": "1", "types": ["street_number"]}, {"long_name": "Bedok South Avenue 1", "short_name": "Bedok South Ave 1", "types": ["route"]}, {"long_name": "Bedok", "short_name": "Bedok", "types": ["neighborhood", "political"]}, {"long_name": "Singapore", "short_name": "Singapore", "types": ["locality", "political"]}, {"long_name": "Singapore", "short_name": "SG", "types": ["country", "political"]}, {"long_name": "460001", "short_name": "460001", "types": ["postal_code"]}], "formatted_address": "1 Bedok South Ave 1, Block 23 Block 1, Singapore 460001", "geometry": {"bounds": {"northeast": {"lat": 1.3210448, "lng": 103.934239}, "southwest": {"lat": 1.3206918, "lng": 103.933174}}, "location": {"lat": 1.320875, "lng": 103.9337491}, "location_type": "ROOFTOP", "viewport": {"northeast": {"lat": 1.322217280291502, "lng": 103.9350554802915}, "southwest": {"lat": 1.319519319708498, "lng": 103.9323575197085}}}, "place_id": "EjcxIEJlZG9rIFNvdXRoIEF2ZSAxLCBCbG9jayAyMyBCbG9jayAxLCBTaW5nYXBvcmUgNDYwMDAxIiQaIgoWChQKEgkFyBSZtiLaMRERz-zUDSHeshIIQmxvY2sgMjM", "types": ["subpremise"]}