{"address_components": [{"long_name": "Block 257", "short_name": "Block 257", "types": ["premise"]}, {"long_name": "257", "short_name": "257", "types": ["street_number"]}, {"long_name": "Yishun Ring Road", "short_name": "Yishun Ring Rd", "types": ["route"]}, {"long_name": "Yishun", "short_name": "Yishun", "types": ["neighborhood", "political"]}, {"long_name": "Singapore", "short_name": "Singapore", "types": ["locality", "political"]}, {"long_name": "Singapore", "short_name": "SG", "types": ["country", "political"]}, {"long_name": "760257", "short_name": "760257", "types": ["postal_code"]}], "formatted_address": "257 Yishun Ring Rd, Block 257, Singapore 760257", "geometry": {"bounds": {"northeast": {"lat": 1.435017, "lng": 103.8398565}, "southwest": {"lat": 1.4342419, "lng": 103.8393376}}, "location": {"lat": 1.4345711, "lng": 103.8394917}, "location_type": "ROOFTOP", "viewport": {"northeast": {"lat": 1.435978430291502, "lng": 103.8409460302915}, "southwest": {"lat": 1.433280469708498, "lng": 103.8382480697085}}}, "place_id": "ChIJ48KjU2EU2jERL4h0t6C9ZyY", "types": ["premise"]}