{"address_components": [{"long_name": "Block 327", "short_name": "Block 327", "types": ["premise"]}, {"long_name": "327", "short_name": "327", "types": ["street_number"]}, {"long_name": "Clementi Avenue 5", "short_name": "Clementi Ave 5", "types": ["route"]}, {"long_name": "Clementi", "short_name": "Clementi", "types": ["neighborhood", "political"]}, {"long_name": "Singapore", "short_name": "Singapore", "types": ["locality", "political"]}, {"long_name": "Singapore", "short_name": "SG", "types": ["country", "political"]}, {"long_name": "120327", "short_name": "120327", "types": ["postal_code"]}], "formatted_address": "327 Clementi Ave 5, Block 327, Singapore 120327", "geometry": {"bounds": {"northeast": {"lat": 1.3140605, "lng": 103.7668009}, "southwest": {"lat": 1.3138103, "lng": 103.7661732}}, "location": {"lat": 1.3139175, "lng": 103.7665269}, "location_type": "ROOFTOP", "viewport": {"northeast": {"lat": 1.315284380291502, "lng": 103.7678360302915}, "southwest": {"lat": 1.312586419708498, "lng": 103.7651380697085}}}, "place_id": "ChIJ-UAtYI4a2jERT3uOvPaFrlI", "types": ["premise"]}