{"address_components": [{"long_name": "Block 110", "short_name": "Block 110", "types": ["premise"]}, {"long_name": "110", "short_name": "110", "types": ["street_number"]}, {"long_name": "Whampoa Road", "short_name": "Whampoa Rd", "types": ["route"]}, {"long_name": "Novena", "short_name": "Novena", "types": ["neighborhood", "political"]}, {"long_name": "Singapore", "short_name": "Singapore", "types": ["locality", "political"]}, {"long_name": "Singapore", "short_name": "SG", "types": ["country", "political"]}, {"long_name": "321110", "short_name": "321110", "types": ["postal_code"]}], "formatted_address": "110 Whampoa Rd, Block 110, Singapore 321110", "geometry": {"bounds": {"northeast": {"lat": 1.3271361, "lng": 103.8561986}, "southwest": {"lat": 1.3265839, "lng": 103.8557757}}, "location": {"lat": 1.3268505, "lng": 103.8560239}, "location_type": "ROOFTOP", "viewport": {"northeast": {"lat": 1.328208980291502, "lng": 103.8573361302915}, "southwest": {"lat": 1.325511019708498, "lng": 103.8546381697085}}}, "place_id": "ChIJQ-Mxr2IX2jERn8lUTT7u-N8", "types": ["premise"]}