{"address_components": [{"long_name": "Block 484", "short_name": "Block 484", "types": ["premise"]}, {"long_name": "484", "short_name": "484", "types": ["street_number"]}, {"long_name": "Choa Chu Kang Avenue 5", "short_name": "Choa Chu Kang Ave 5", "types": ["route"]}, {"long_name": "Choa Chu Kang", "short_name": "Choa Chu Kang", "types": ["neighborhood", "political"]}, {"long_name": "Singapore", "short_name": "Singapore", "types": ["locality", "political"]}, {"long_name": "Singapore", "short_name": "SG", "types": ["country", "political"]}, {"long_name": "680484", "short_name": "680484", "types": ["postal_code"]}], "formatted_address": "484 Choa Chu Kang Ave 5, Block 484, Singapore 680484", "geometry": {"bounds": {"northeast": {"lat": 1.3767476, "lng": 103.7375099}, "southwest": {"lat": 1.3761706, "lng": 103.7369548}}, "location": {"lat": 1.3764016, "lng": 103.7371755}, "location_type": "ROOFTOP", "viewport": {"northeast": {"lat": 1.377808080291502, "lng": 103.7385813302915}, "southwest": {"lat": 1.375110119708498, "lng": 103.7358833697085}}}, "place_id": "ChIJAVWhrNsR2jER8VFNfehpH8Q", "types": ["premise"]}