{"address_components": [{"long_name": "Block 439", "short_name": "Block 439", "types": ["premise"]}, {"long_name": "439", "short_name": "439", "types": ["street_number"]}, {"long_name": "Fajar Road", "short_name": "Fajar Rd", "types": ["route"]}, {"long_name": "Bukit Panjang", "short_name": "Bukit Panjang", "types": ["neighborhood", "political"]}, {"long_name": "Singapore", "short_name": "Singapore", "types": ["locality", "political"]}, {"long_name": "Singapore", "short_name": "SG", "types": ["country", "political"]}, {"long_name": "670439", "short_name": "670439", "types": ["postal_code"]}], "formatted_address": "439 Fajar Rd, Block 439, Singapore 670439", "geometry": {"bounds": {"northeast": {"lat": 1.3832962, "lng": 103.770855}, "southwest": {"lat": 1.3827421, "lng": 103.7700738}}, "location": {"lat": 1.3830599, "lng": 103.7704424}, "location_type": "ROOFTOP", "viewport": {"northeast": {"lat": 1.384368130291502, "lng": 103.7718133802915}, "southwest": {"lat": 1.381670169708498, "lng": 103.7691154197085}}}, "place_id": "ChIJm0yw46ER2jERPsATrJeajrM", "types": ["premise"]}