{"address_components": [{"long_name": "Block 317", "short_name": "Block 317", "types": ["premise"]}, {"long_name": "317", "short_name": "317", "types": ["street_number"]}, {"long_name": "Woodlands Street 31", "short_name": "Woodlands Street 31", "types": ["route"]}, {"long_name": "Woodlands", "short_name": "Woodlands", "types": ["neighborhood", "political"]}, {"long_name": "Singapore", "short_name": "Singapore", "types": ["locality", "political"]}, {"long_name": "Singapore", "short_name": "SG", "types": ["country", "political"]}, {"long_name": "730317", "short_name": "730317", "types": ["postal_code"]}], "formatted_address": "317 Woodlands Street 31, Block 317, Singapore 730317", "geometry": {"bounds": {"northeast": {"lat": 1.431926, "lng": 103.7766771}, "southwest": {"lat": 1.4317929, "lng": 103.775716}}, "location": {"lat": 1.4318593, "lng": 103.776214}, "location_type": "ROOFTOP", "viewport": {"northeast": {"lat": 1.433208430291502, "lng": 103.7775455302915}, "southwest": {"lat": 1.430510469708498, "lng": 103.7748475697085}}}, "place_id": "ChIJh18vO60T2jER_MxQ06Mnlx8", "types": ["premise"]}