{"address_components": [{"long_name": "1G", "short_name": "1G", "types": ["street_number"]}, {"long_name": "Cantonment Road", "short_name": "Cantonment Rd", "types": ["route"]}, {"long_name": "Outram", "short_name": "Outram", "types": ["neighborhood", "political"]}, {"long_name": "Singapore", "short_name": "Singapore", "types": ["locality", "political"]}, {"long_name": "Singapore", "short_name": "SG", "types": ["country", "political"]}, {"long_name": "085701", "short_name": "085701", "types": ["postal_code"]}], "formatted_address": "1G Cantonment Rd, Singapore 085701", "geometry": {"bounds": {"northeast": {"lat": 1.2762313, "lng": 103.8414253}, "southwest": {"lat": 1.2753082, "lng": 103.8410071}}, "location": {"lat": 1.2755784, "lng": 103.8412807}, "location_type": "ROOFTOP", "viewport": {"northeast": {"lat": 1.277118730291502, "lng": 103.8425651802915}, "southwest": {"lat": 1.274420769708498, "lng": 103.8398672197085}}}, "place_id": "ChIJ87-fZWwZ2jERUjFg-NSHgkE", "types": ["premise"]}