{"address_components": [{"long_name": "Block 119", "short_name": "Block 119", "types": ["premise"]}, {"long_name": "119", "short_name": "119", "types": ["street_number"]}, {"long_name": "Hougang Avenue 1", "short_name": "Hougang Ave 1", "types": ["route"]}, {"long_name": "Hougang", "short_name": "Hougang", "types": ["neighborhood", "political"]}, {"long_name": "Singapore", "short_name": "Singapore", "types": ["locality", "political"]}, {"long_name": "Singapore", "short_name": "SG", "types": ["country", "political"]}, {"long_name": "530119", "short_name": "530119", "types": ["postal_code"]}], "formatted_address": "119 Hougang Ave 1, Block 119, Singapore 530119", "geometry": {"bounds": {"northeast": {"lat": 1.3541618, "lng": 103.8881041}, "southwest": {"lat": 1.3538577, "lng": 103.8872971}}, "location": {"lat": 1.3539985, "lng": 103.8877113}, "location_type": "ROOFTOP", "viewport": {"northeast": {"lat": 1.355358730291502, "lng": 103.8890495802915}, "southwest": {"lat": 1.352660769708498, "lng": 103.8863516197085}}}, "place_id": "ChIJiVAc0bkX2jERstNJ9wBrLhY", "types": ["premise"]}