{"address_components": [{"long_name": "Block 725", "short_name": "Block 725", "types": ["premise"]}, {"long_name": "725", "short_name": "725", "types": ["street_number"]}, {"long_name": "Tampines Street 71", "short_name": "Tampines Street 71", "types": ["route"]}, {"long_name": "Tampines", "short_name": "Tampines", "types": ["neighborhood", "political"]}, {"long_name": "Singapore", "short_name": "Singapore", "types": ["locality", "political"]}, {"long_name": "Singapore", "short_name": "SG", "types": ["country", "political"]}, {"long_name": "520725", "short_name": "520725", "types": ["postal_code"]}], "formatted_address": "725 Tampines Street 71, Block 725, Singapore 520725", "geometry": {"bounds": {"northeast": {"lat": 1.357299, "lng": 103.935581}, "southwest": {"lat": 1.3568409, "lng": 103.935019}}, "location": {"lat": 1.3572353, "lng": 103.9351094}, "location_type": "ROOFTOP", "viewport": {"northeast": {"lat": 1.358418930291502, "lng": 103.9366489802915}, "southwest": {"lat": 1.355720969708498, "lng": 103.9339510197085}}}, "place_id": "ChIJVyyPD3M92jER85GbZXyd4yk", "types": ["premise"]}