{"address_components": [{"long_name": "Block 854", "short_name": "Block 854", "types": ["premise"]}, {"long_name": "854", "short_name": "854", "types": ["street_number"]}, {"long_name": "Jurong West Street 81", "short_name": "Jurong West Street 81", "types": ["route"]}, {"long_name": "Jurong West", "short_name": "Jurong West", "types": ["neighborhood", "political"]}, {"long_name": "Singapore", "short_name": "Singapore", "types": ["locality", "political"]}, {"long_name": "Singapore", "short_name": "SG", "types": ["country", "political"]}, {"long_name": "640854", "short_name": "640854", "types": ["postal_code"]}], "formatted_address": "854 Jurong West Street 81, Block 854, Singapore 640854", "geometry": {"bounds": {"northeast": {"lat": 1.3479766, "lng": 103.6963471}, "southwest": {"lat": 1.3472186, "lng": 103.6957594}}, "location": {"lat": 1.3473154, "lng": 103.6961112}, "location_type": "ROOFTOP", "viewport": {"northeast": {"lat": 1.348946580291502, "lng": 103.6974022302915}, "southwest": {"lat": 1.346248619708498, "lng": 103.6947042697085}}}, "place_id": "ChIJtxVfEb0P2jERU5-LiE7BoOQ", "types": ["premise"]}