{"address_components": [{"long_name": "Block 74", "short_name": "Block 74", "types": ["premise"]}, {"long_name": "74", "short_name": "74", "types": ["street_number"]}, {"long_name": "Marine Drive", "short_name": "Marine Dr", "types": ["route"]}, {"long_name": "Marine Parade", "short_name": "Marine Parade", "types": ["neighborhood", "political"]}, {"long_name": "Singapore", "short_name": "Singapore", "types": ["locality", "political"]}, {"long_name": "Singapore", "short_name": "SG", "types": ["country", "political"]}, {"long_name": "440074", "short_name": "440074", "types": ["postal_code"]}], "formatted_address": "74 Marine Dr, Block 74, Singapore 440074", "geometry": {"bounds": {"northeast": {"lat": 1.3038514, "lng": 103.9075278}, "southwest": {"lat": 1.3033793, "lng": 103.9068996}}, "location": {"lat": 1.3036338, "lng": 103.9072622}, "location_type": "ROOFTOP", "viewport": {"northeast": {"lat": 1.304964330291502, "lng": 103.9085626802915}, "southwest": {"lat": 1.302266369708498, "lng": 103.9058647197085}}}, "place_id": "ChIJURjpwXMY2jER9JGaetTEKOI", "types": ["premise"]}