{"address_components": [{"long_name": "Block 625", "short_name": "Block 625", "types": ["premise"]}, {"long_name": "625", "short_name": "625", "types": ["street_number"]}, {"long_name": "Bukit Batok Central", "short_name": "Bukit Batok Central", "types": ["route"]}, {"long_name": "Bukit Batok", "short_name": "Bukit Batok", "types": ["neighborhood", "political"]}, {"long_name": "Singapore", "short_name": "Singapore", "types": ["locality", "political"]}, {"long_name": "Singapore", "short_name": "SG", "types": ["country", "political"]}, {"long_name": "650625", "short_name": "650625", "types": ["postal_code"]}], "formatted_address": "625 Bukit Batok Central, Block 625, Singapore 650625", "geometry": {"bounds": {"northeast": {"lat": 1.3518907, "lng": 103.7489482}, "southwest": {"lat": 1.3511438, "lng": 103.7484901}}, "location": {"lat": 1.3512218, "lng": 103.7487876}, "location_type": "ROOFTOP", "viewport": {"northeast": {"lat": 1.352866230291502, "lng": 103.7500681302915}, "southwest": {"lat": 1.350168269708498, "lng": 103.7473701697085}}}, "place_id": "ChIJ_1vBIzkQ2jER63B9XRKh2WY", "types": ["premise"]}