{"address_components": [{"long_name": "Block 639", "short_name": "Block 639", "types": ["premise"]}, {"long_name": "639", "short_name": "639", "types": ["street_number"]}, {"long_name": "Ang Mo Kio Avenue 6", "short_name": "Ang Mo Kio Ave 6", "types": ["route"]}, {"long_name": "Ang Mo Kio", "short_name": "Ang Mo Kio", "types": ["neighborhood", "political"]}, {"long_name": "Singapore", "short_name": "Singapore", "types": ["locality", "political"]}, {"long_name": "Singapore", "short_name": "SG", "types": ["country", "political"]}, {"long_name": "560639", "short_name": "560639", "types": ["postal_code"]}], "formatted_address": "639 Ang Mo Kio Ave 6, Block 639, Singapore 560639", "geometry": {"bounds": {"northeast": {"lat": 1.3800211, "lng": 103.842961}, "southwest": {"lat": 1.3797473, "lng": 103.8420148}}, "location": {"lat": 1.3799029, "lng": 103.8425036}, "location_type": "ROOFTOP", "viewport": {"northeast": {"lat": 1.381233180291502, "lng": 103.8438368802915}, "southwest": {"lat": 1.378535219708498, "lng": 103.8411389197085}}}, "place_id": "ChIJ7wJhr8EW2jERgKDnNoAjf6U", "types": ["premise"]}