{"address_components": [{"long_name": "Block 158", "short_name": "Block 158", "types": ["premise"]}, {"long_name": "158", "short_name": "158", "types": ["street_number"]}, {"long_name": "Woodlands Street 13", "short_name": "Woodlands Street 13", "types": ["route"]}, {"long_name": "Woodlands", "short_name": "Woodlands", "types": ["neighborhood", "political"]}, {"long_name": "Singapore", "short_name": "Singapore", "types": ["locality", "political"]}, {"long_name": "Singapore", "short_name": "SG", "types": ["country", "political"]}, {"long_name": "730158", "short_name": "730158", "types": ["postal_code"]}], "formatted_address": "158 Woodlands Street 13, Block 158, Singapore 730158", "geometry": {"bounds": {"northeast": {"lat": 1.434112, "lng": 103.7751461}, "southwest": {"lat": 1.4339691, "lng": 103.774376}}, "location": {"lat": 1.4340701, "lng": 103.7747655}, "location_type": "ROOFTOP", "viewport": {"northeast": {"lat": 1.435389530291502, "lng": 103.7761100302915}, "southwest": {"lat": 1.432691569708498, "lng": 103.7734120697085}}}, "place_id": "ChIJu8jnTlMS2jERgGZn2Xk-Skw", "types": ["premise"]}