{"address_components": [{"long_name": "27", "short_name": "27", "types": ["street_number"]}, {"long_name": "Ghim Moh Link", "short_name": "Ghim Moh Link", "types": ["route"]}, {"long_name": "Queenstown", "short_name": "Queenstown", "types": ["neighborhood", "political"]}, {"long_name": "Singapore", "short_name": "Singapore", "types": ["locality", "political"]}, {"long_name": "Singapore", "short_name": "SG", "types": ["country", "political"]}, {"long_name": "270027", "short_name": "270027", "types": ["postal_code"]}], "formatted_address": "27 Ghim Moh Link, Singapore 270027", "geometry": {"bounds": {"northeast": {"lat": 1.3085575, "lng": 103.7853422}, "southwest": {"lat": 1.3082069, "lng": 103.7849125}}, "location": {"lat": 1.3083426, "lng": 103.7852002}, "location_type": "ROOFTOP", "viewport": {"northeast": {"lat": 1.309731180291502, "lng": 103.7864763302915}, "southwest": {"lat": 1.307033219708498, "lng": 103.7837783697085}}}, "place_id": "ChIJ4xvki2ca2jER8aUvkCvfo0A", "types": ["premise"]}