{"address_components": [{"long_name": "Block 111", "short_name": "Block 111", "types": ["premise"]}, {"long_name": "111", "short_name": "111", "types": ["street_number"]}, {"long_name": "Lengkong Tiga", "short_name": "Lengkong Tiga", "types": ["route"]}, {"long_name": "Bedok", "short_name": "Bedok", "types": ["neighborhood", "political"]}, {"long_name": "Singapore", "short_name": "Singapore", "types": ["locality", "political"]}, {"long_name": "Singapore", "short_name": "SG", "types": ["country", "political"]}, {"long_name": "410111", "short_name": "410111", "types": ["postal_code"]}], "formatted_address": "111 Lengkong Tiga, Block 111, Singapore 410111", "geometry": {"bounds": {"northeast": {"lat": 1.3244267, "lng": 103.9115824}, "southwest": {"lat": 1.3238602, "lng": 103.9104623}}, "location": {"lat": 1.3241496, "lng": 103.9111766}, "location_type": "ROOFTOP", "viewport": {"northeast": {"lat": 1.325492430291502, "lng": 103.9123713302915}, "southwest": {"lat": 1.322794469708498, "lng": 103.9096733697085}}}, "place_id": "ChIJ8ajPrgEY2jERbuQTHksNhbw", "types": ["premise"]}