{"address_components": [{"long_name": "Block 116", "short_name": "Block 116", "types": ["premise"]}, {"long_name": "116", "short_name": "116", "types": ["street_number"]}, {"long_name": "Bedok Reservoir Road", "short_name": "Bedok Reservoir Rd", "types": ["route"]}, {"long_name": "Bedok", "short_name": "Bedok", "types": ["neighborhood", "political"]}, {"long_name": "Singapore", "short_name": "Singapore", "types": ["locality", "political"]}, {"long_name": "Singapore", "short_name": "SG", "types": ["country", "political"]}, {"long_name": "470116", "short_name": "470116", "types": ["postal_code"]}], "formatted_address": "116 Bedok Reservoir Rd, Block 116, Singapore 470116", "geometry": {"bounds": {"northeast": {"lat": 1.3312306, "lng": 103.9089264}, "southwest": {"lat": 1.3310396, "lng": 103.9081696}}, "location": {"lat": 1.3311124, "lng": 103.9086442}, "location_type": "ROOFTOP", "viewport": {"northeast": {"lat": 1.332484080291502, "lng": 103.9098969802915}, "southwest": {"lat": 1.329786119708498, "lng": 103.9071990197085}}}, "place_id": "ChIJz0lm__sX2jERbQf-aMX5qV4", "types": ["premise"]}