{"address_components": [{"long_name": "Block 533", "short_name": "Block 533", "types": ["premise"]}, {"long_name": "533", "short_name": "533", "types": ["street_number"]}, {"long_name": "Bukit Panjang Ring Road", "short_name": "Bukit Panjang Ring Rd", "types": ["route"]}, {"long_name": "Bukit Panjang", "short_name": "Bukit Panjang", "types": ["neighborhood", "political"]}, {"long_name": "Singapore", "short_name": "Singapore", "types": ["locality", "political"]}, {"long_name": "Singapore", "short_name": "SG", "types": ["country", "political"]}, {"long_name": "670533", "short_name": "670533", "types": ["postal_code"]}], "formatted_address": "533 Bukit Panjang Ring Rd, Block 533, Singapore 670533", "geometry": {"bounds": {"northeast": {"lat": 1.3853064, "lng": 103.7638491}, "southwest": {"lat": 1.3846263, "lng": 103.763464}}, "location": {"lat": 1.3849693, "lng": 103.7636979}, "location_type": "ROOFTOP", "viewport": {"northeast": {"lat": 1.386315330291502, "lng": 103.7650055302915}, "southwest": {"lat": 1.383617369708498, "lng": 103.7623075697085}}}, "place_id": "ChIJb1UliJcR2jERrTrXtMLnLsE", "types": ["premise"]}