{"address_components": [{"long_name": "Block 116", "short_name": "Block 116", "types": ["premise"]}, {"long_name": "116", "short_name": "116", "types": ["street_number"]}, {"long_name": "Bukit Batok West Avenue 6", "short_name": "Bukit Batok West Ave 6", "types": ["route"]}, {"long_name": "Bukit Batok", "short_name": "Bukit Batok", "types": ["neighborhood", "political"]}, {"long_name": "Singapore", "short_name": "Singapore", "types": ["locality", "political"]}, {"long_name": "Singapore", "short_name": "SG", "types": ["country", "political"]}, {"long_name": "650116", "short_name": "650116", "types": ["postal_code"]}], "formatted_address": "116 Bukit Batok West Ave 6, Block 116, Singapore 650116", "geometry": {"bounds": {"northeast": {"lat": 1.3497538, "lng": 103.7468331}, "southwest": {"lat": 1.3491316, "lng": 103.7459191}}, "location": {"lat": 1.3496257, "lng": 103.7462528}, "location_type": "ROOFTOP", "viewport": {"northeast": {"lat": 1.350791680291502, "lng": 103.7477250802915}, "southwest": {"lat": 1.348093719708498, "lng": 103.7450271197085}}}, "place_id": "ChIJz8o9oD4Q2jER_vW2X06pCL8", "types": ["premise"]}