{"address_components": [{"long_name": "Block 511", "short_name": "Block 511", "types": ["premise"]}, {"long_name": "511", "short_name": "511", "types": ["street_number"]}, {"long_name": "Bukit Batok Street 52", "short_name": "Bukit Batok Street 52", "types": ["route"]}, {"long_name": "Bukit Batok", "short_name": "Bukit Batok", "types": ["neighborhood", "political"]}, {"long_name": "Singapore", "short_name": "Singapore", "types": ["locality", "political"]}, {"long_name": "Singapore", "short_name": "SG", "types": ["country", "political"]}, {"long_name": "650511", "short_name": "650511", "types": ["postal_code"]}], "formatted_address": "511 Bukit Batok Street 52, Block 511, Singapore 650511", "geometry": {"bounds": {"northeast": {"lat": 1.3530739, "lng": 103.754145}, "southwest": {"lat": 1.352067, "lng": 103.7532941}}, "location": {"lat": 1.3530173, "lng": 103.7540343}, "location_type": "ROOFTOP", "viewport": {"northeast": {"lat": 1.353919430291502, "lng": 103.7550685302915}, "southwest": {"lat": 1.351221469708498, "lng": 103.7523705697085}}}, "place_id": "ChIJd4eCC0cQ2jERayj6aM3w7jM", "types": ["premise"]}