{"address_components": [{"long_name": "Block 319", "short_name": "Block 319", "types": ["premise"]}, {"long_name": "319", "short_name": "319", "types": ["street_number"]}, {"long_name": "Hougang Avenue 5", "short_name": "Hougang Ave 5", "types": ["route"]}, {"long_name": "Hougang", "short_name": "Hougang", "types": ["neighborhood", "political"]}, {"long_name": "Singapore", "short_name": "Singapore", "types": ["locality", "political"]}, {"long_name": "Singapore", "short_name": "SG", "types": ["country", "political"]}, {"long_name": "530319", "short_name": "530319", "types": ["postal_code"]}], "formatted_address": "319 Hougang Ave 5, Block 319, Singapore 530319", "geometry": {"bounds": {"northeast": {"lat": 1.3659109, "lng": 103.8971934}, "southwest": {"lat": 1.3654918, "lng": 103.8963975}}, "location": {"lat": 1.3657345, "lng": 103.896954}, "location_type": "ROOFTOP", "viewport": {"northeast": {"lat": 1.367050330291502, "lng": 103.8981444302915}, "southwest": {"lat": 1.364352369708498, "lng": 103.8954464697085}}}, "place_id": "ChIJ958TgzQW2jERCMm3ti90ITs", "types": ["premise"]}