{"address_components": [{"long_name": "Block 279", "short_name": "Block 279", "types": ["premise"]}, {"long_name": "279", "short_name": "279", "types": ["street_number"]}, {"long_name": "Toh Guan Road", "short_name": "Toh Guan Rd", "types": ["route"]}, {"long_name": "Jurong East", "short_name": "Jurong East", "types": ["neighborhood", "political"]}, {"long_name": "Singapore", "short_name": "Singapore", "types": ["locality", "political"]}, {"long_name": "Singapore", "short_name": "SG", "types": ["country", "political"]}, {"long_name": "600279", "short_name": "600279", "types": ["postal_code"]}], "formatted_address": "279 Toh Guan Rd, Block 279, Singapore 600279", "geometry": {"bounds": {"northeast": {"lat": 1.34087, "lng": 103.7471318}, "southwest": {"lat": 1.3405361, "lng": 103.746657}}, "location": {"lat": 1.3407517, "lng": 103.7469737}, "location_type": "ROOFTOP", "viewport": {"northeast": {"lat": 1.342052030291502, "lng": 103.7482433802915}, "southwest": {"lat": 1.339354069708498, "lng": 103.7455454197085}}}, "place_id": "ChIJ-R33-hMQ2jERvbB1yFoZZsk", "types": ["premise"]}