{"address_components": [{"long_name": "Block 23B", "short_name": "Block 23B", "types": ["premise"]}, {"long_name": "23B", "short_name": "23B", "types": ["street_number"]}, {"long_name": "Queen's Close", "short_name": "Queen's Cl", "types": ["route"]}, {"long_name": "Queenstown", "short_name": "Queenstown", "types": ["neighborhood", "political"]}, {"long_name": "Singapore", "short_name": "Singapore", "types": ["locality", "political"]}, {"long_name": "Singapore", "short_name": "SG", "types": ["country", "political"]}, {"long_name": "141023", "short_name": "141023", "types": ["postal_code"]}], "formatted_address": "23B Queen's Cl, Block 23B, Singapore 141023", "geometry": {"bounds": {"northeast": {"lat": 1.2942168, "lng": 103.8005443}, "southwest": {"lat": 1.2933178, "lng": 103.7998793}}, "location": {"lat": 1.293681, "lng": 103.8004802}, "location_type": "ROOFTOP", "viewport": {"northeast": {"lat": 1.295116280291502, "lng": 103.8015607802915}, "southwest": {"lat": 1.292418319708498, "lng": 103.7988628197085}}}, "place_id": "ChIJP04w3DUa2jER-AgnJFxJZ38", "types": ["premise"]}