{"address_components": [{"long_name": "115", "short_name": "115", "types": ["street_number"]}, {"long_name": "Rivervale Walk", "short_name": "Rivervale Walk", "types": ["route"]}, {"long_name": "Sengkang", "short_name": "Sengkang", "types": ["neighborhood", "political"]}, {"long_name": "Singapore", "short_name": "Singapore", "types": ["locality", "political"]}, {"long_name": "Singapore", "short_name": "SG", "types": ["country", "political"]}, {"long_name": "540115", "short_name": "540115", "types": ["postal_code"]}], "formatted_address": "115 Rivervale Walk, Singapore 540115", "geometry": {"bounds": {"northeast": {"lat": 1.3849722, "lng": 103.9014316}, "southwest": {"lat": 1.3844142, "lng": 103.900724}}, "location": {"lat": 1.3846832, "lng": 103.9011225}, "location_type": "ROOFTOP", "viewport": {"northeast": {"lat": 1.386042180291502, "lng": 103.9024267802915}, "southwest": {"lat": 1.383344219708498, "lng": 103.8997288197085}}}, "place_id": "ChIJpWb3oBcW2jERQSqH8DU1FBw", "types": ["premise"]}