{"address_components": [{"long_name": "Block 504", "short_name": "Block 504", "types": ["premise"]}, {"long_name": "504", "short_name": "504", "types": ["street_number"]}, {"long_name": "Hougang Avenue 8", "short_name": "Hougang Ave 8", "types": ["route"]}, {"long_name": "Hougang", "short_name": "Hougang", "types": ["neighborhood", "political"]}, {"long_name": "Singapore", "short_name": "Singapore", "types": ["locality", "political"]}, {"long_name": "Singapore", "short_name": "SG", "types": ["country", "political"]}, {"long_name": "530504", "short_name": "530504", "types": ["postal_code"]}], "formatted_address": "504 Hougang Ave 8, Block 504, Singapore 530504", "geometry": {"bounds": {"northeast": {"lat": 1.3738332, "lng": 103.8882648}, "southwest": {"lat": 1.3731471, "lng": 103.8877708}}, "location": {"lat": 1.3734591, "lng": 103.888187}, "location_type": "ROOFTOP", "viewport": {"northeast": {"lat": 1.374839130291502, "lng": 103.8893667802915}, "southwest": {"lat": 1.372141169708498, "lng": 103.8866688197085}}}, "place_id": "ChIJc_OSK0YW2jERNC0_9hubI-8", "types": ["premise"]}