{"address_components": [{"long_name": "Block 448", "short_name": "Block 448", "types": ["premise"]}, {"long_name": "448", "short_name": "448", "types": ["street_number"]}, {"long_name": "Tampines Street 42", "short_name": "Tampines Street 42", "types": ["route"]}, {"long_name": "Tampines", "short_name": "Tampines", "types": ["neighborhood", "political"]}, {"long_name": "Singapore", "short_name": "Singapore", "types": ["locality", "political"]}, {"long_name": "Singapore", "short_name": "SG", "types": ["country", "political"]}, {"long_name": "520448", "short_name": "520448", "types": ["postal_code"]}], "formatted_address": "448 Tampines Street 42, Block 448, Singapore 520448", "geometry": {"bounds": {"northeast": {"lat": 1.3574736, "lng": 103.9513928}, "southwest": {"lat": 1.3573376, "lng": 103.9506378}}, "location": {"lat": 1.3574349, "lng": 103.9509729}, "location_type": "ROOFTOP", "viewport": {"northeast": {"lat": 1.358754580291502, "lng": 103.9523642802915}, "southwest": {"lat": 1.356056619708498, "lng": 103.9496663197085}}}, "place_id": "ChIJhUTevgU92jERlBcxzzVSay4", "types": ["premise"]}