{"address_components": [{"long_name": "Block 708", "short_name": "Block 708", "types": ["premise"]}, {"long_name": "708", "short_name": "708", "types": ["street_number"]}, {"long_name": "Woodlands Drive 70", "short_name": "Woodlands Drive 70", "types": ["route"]}, {"long_name": "Woodlands", "short_name": "Woodlands", "types": ["neighborhood", "political"]}, {"long_name": "Singapore", "short_name": "Singapore", "types": ["locality", "political"]}, {"long_name": "Singapore", "short_name": "SG", "types": ["country", "political"]}, {"long_name": "730708", "short_name": "730708", "types": ["postal_code"]}], "formatted_address": "708 Woodlands Drive 70, Block 708, Singapore 730708", "geometry": {"bounds": {"northeast": {"lat": 1.440406, "lng": 103.797615}, "southwest": {"lat": 1.439955, "lng": 103.7970381}}, "location": {"lat": 1.4400237, "lng": 103.7973109}, "location_type": "ROOFTOP", "viewport": {"northeast": {"lat": 1.441529480291502, "lng": 103.7986755302915}, "southwest": {"lat": 1.438831519708498, "lng": 103.7959775697085}}}, "place_id": "ChIJoR5xvAoT2jERnTtpvEhlh0o", "types": ["premise"]}