{"address_components": [{"long_name": "Block 986A", "short_name": "Block 986A", "types": ["premise"]}, {"long_name": "986A", "short_name": "986A", "types": ["street_number"]}, {"long_name": "Jurong West Street 93", "short_name": "Jurong West Street 93", "types": ["route"]}, {"long_name": "Jurong West", "short_name": "Jurong West", "types": ["neighborhood", "political"]}, {"long_name": "Singapore", "short_name": "Singapore", "types": ["locality", "political"]}, {"long_name": "Singapore", "short_name": "SG", "types": ["country", "political"]}, {"long_name": "641986", "short_name": "641986", "types": ["postal_code"]}], "formatted_address": "986A Jurong West Street 93, Block 986A, Singapore 641986", "geometry": {"bounds": {"northeast": {"lat": 1.3373812, "lng": 103.6953824}, "southwest": {"lat": 1.3371113, "lng": 103.6949934}}, "location": {"lat": 1.3372634, "lng": 103.6951854}, "location_type": "ROOFTOP", "viewport": {"northeast": {"lat": 1.338595230291502, "lng": 103.6965368802915}, "southwest": {"lat": 1.335897269708498, "lng": 103.6938389197085}}}, "place_id": "ChIJw_q4G5AP2jERBY8Rk1HcNpc", "types": ["premise"]}