{"address_components": [{"long_name": "Block 484", "short_name": "Block 484", "types": ["premise"]}, {"long_name": "484", "short_name": "484", "types": ["street_number"]}, {"long_name": "Jurong West Avenue 1", "short_name": "Jurong West Ave 1", "types": ["route"]}, {"long_name": "Jurong West", "short_name": "Jurong West", "types": ["neighborhood", "political"]}, {"long_name": "Singapore", "short_name": "Singapore", "types": ["locality", "political"]}, {"long_name": "Singapore", "short_name": "SG", "types": ["country", "political"]}, {"long_name": "640484", "short_name": "640484", "types": ["postal_code"]}], "formatted_address": "484 Jurong West Ave 1, Block 484, Singapore 640484", "geometry": {"bounds": {"northeast": {"lat": 1.3484739, "lng": 103.7267542}, "southwest": {"lat": 1.348073, "lng": 103.7258812}}, "location": {"lat": 1.3481291, "lng": 103.7262498}, "location_type": "ROOFTOP", "viewport": {"northeast": {"lat": 1.349622430291502, "lng": 103.7276666802915}, "southwest": {"lat": 1.346924469708498, "lng": 103.7249687197085}}}, "place_id": "ChIJSbKqAN8P2jERzvXAlyFpUbg", "types": ["premise"]}