{"address_components": [{"long_name": "Block 289", "short_name": "Block 289", "types": ["premise"]}, {"long_name": "289", "short_name": "289", "types": ["street_number"]}, {"long_name": "Choa Chu Kang Avenue 3", "short_name": "Choa Chu Kang Ave 3", "types": ["route"]}, {"long_name": "Choa Chu Kang", "short_name": "Choa Chu Kang", "types": ["neighborhood", "political"]}, {"long_name": "Singapore", "short_name": "Singapore", "types": ["locality", "political"]}, {"long_name": "Singapore", "short_name": "SG", "types": ["country", "political"]}, {"long_name": "680289", "short_name": "680289", "types": ["postal_code"]}], "formatted_address": "289 Choa Chu Kang Ave 3, Block 289, Singapore 680289", "geometry": {"bounds": {"northeast": {"lat": 1.3796323, "lng": 103.741223}, "southwest": {"lat": 1.3790567, "lng": 103.7404051}}, "location": {"lat": 1.3794765, "lng": 103.7409997}, "location_type": "ROOFTOP", "viewport": {"northeast": {"lat": 1.380693480291502, "lng": 103.7421630302915}, "southwest": {"lat": 1.377995519708498, "lng": 103.7394650697085}}}, "place_id": "ChIJB0DrTcMR2jERpKqUr825lrw", "types": ["premise"]}