{"address_components": [{"long_name": "134", "short_name": "134", "types": ["street_number"]}, {"long_name": "Geylang East Avenue 1", "short_name": "Geylang East Ave 1", "types": ["route"]}, {"long_name": "Geylang", "short_name": "Geylang", "types": ["neighborhood", "political"]}, {"long_name": "Singapore", "short_name": "Singapore", "types": ["locality", "political"]}, {"long_name": "Singapore", "short_name": "SG", "types": ["country", "political"]}, {"long_name": "380134", "short_name": "380134", "types": ["postal_code"]}], "formatted_address": "134 Geylang East Ave 1, Singapore 380134", "geometry": {"bounds": {"northeast": {"lat": 1.3161359, "lng": 103.8864745}, "southwest": {"lat": 1.3158479, "lng": 103.885565}}, "location": {"lat": 1.315949, "lng": 103.8859029}, "location_type": "ROOFTOP", "viewport": {"northeast": {"lat": 1.317340880291502, "lng": 103.8873687302915}, "southwest": {"lat": 1.314642919708498, "lng": 103.8846707697085}}}, "place_id": "ChIJaxcVozwY2jER5aF0JfIWpx0", "types": ["premise"]}