{"address_components": [{"long_name": "Block 272A", "short_name": "Block 272A", "types": ["premise"]}, {"long_name": "272A", "short_name": "272A", "types": ["street_number"]}, {"long_name": "Jurong West Street 24", "short_name": "Jurong West Street 24", "types": ["route"]}, {"long_name": "Jurong West", "short_name": "Jurong West", "types": ["neighborhood", "political"]}, {"long_name": "Singapore", "short_name": "Singapore", "types": ["locality", "political"]}, {"long_name": "Singapore", "short_name": "SG", "types": ["country", "political"]}, {"long_name": "641272", "short_name": "641272", "types": ["postal_code"]}], "formatted_address": "272A Jurong West Street 24, Block 272A, Singapore 641272", "geometry": {"bounds": {"northeast": {"lat": 1.350592, "lng": 103.7054382}, "southwest": {"lat": 1.350226, "lng": 103.7050464}}, "location": {"lat": 1.3504482, "lng": 103.7051646}, "location_type": "ROOFTOP", "viewport": {"northeast": {"lat": 1.351757980291502, "lng": 103.7065912802915}, "southwest": {"lat": 1.349060019708498, "lng": 103.7038933197085}}}, "place_id": "ChIJuSo8UL8P2jER2CsZNM2d1wE", "types": ["premise"]}