{"address_components": [{"long_name": "Block 650C", "short_name": "Block 650C", "types": ["premise"]}, {"long_name": "650C", "short_name": "650C", "types": ["street_number"]}, {"long_name": "Jurong West Street 61", "short_name": "Jurong West Street 61", "types": ["route"]}, {"long_name": "Jurong West", "short_name": "Jurong West", "types": ["neighborhood", "political"]}, {"long_name": "Singapore", "short_name": "Singapore", "types": ["locality", "political"]}, {"long_name": "Singapore", "short_name": "SG", "types": ["country", "political"]}, {"long_name": "643650", "short_name": "643650", "types": ["postal_code"]}], "formatted_address": "650C Jurong West Street 61, Block 650C, Singapore 643650", "geometry": {"bounds": {"northeast": {"lat": 1.3386165, "lng": 103.6967032}, "southwest": {"lat": 1.3383126, "lng": 103.6962621}}, "location": {"lat": 1.3385495, "lng": 103.6964745}, "location_type": "ROOFTOP", "viewport": {"northeast": {"lat": 1.339813530291502, "lng": 103.6978316302915}, "southwest": {"lat": 1.337115569708498, "lng": 103.6951336697085}}}, "place_id": "ChIJR0O3T5AP2jERKX5_1tD6P_I", "types": ["premise"]}