{"address_components": [{"long_name": "Block 729", "short_name": "Block 729", "types": ["premise"]}, {"long_name": "729", "short_name": "729", "types": ["street_number"]}, {"long_name": "Clementi West Street 2", "short_name": "Clementi West Street 2", "types": ["route"]}, {"long_name": "Clementi", "short_name": "Clementi", "types": ["neighborhood", "political"]}, {"long_name": "Singapore", "short_name": "Singapore", "types": ["locality", "political"]}, {"long_name": "Singapore", "short_name": "SG", "types": ["country", "political"]}, {"long_name": "120729", "short_name": "120729", "types": ["postal_code"]}], "formatted_address": "729 Clementi West Street 2, Block 729, Singapore 120729", "geometry": {"bounds": {"northeast": {"lat": 1.305434, "lng": 103.763688}, "southwest": {"lat": 1.304666, "lng": 103.7629681}}, "location": {"lat": 1.3050799, "lng": 103.7634489}, "location_type": "ROOFTOP", "viewport": {"northeast": {"lat": 1.306398980291502, "lng": 103.7646770302915}, "southwest": {"lat": 1.303701019708498, "lng": 103.7619790697085}}}, "place_id": "ChIJn7tVie0a2jERcHTbufdca8M", "types": ["premise"]}