{"address_components": [{"long_name": "Block 404", "short_name": "Block 404", "types": ["premise"]}, {"long_name": "404", "short_name": "404", "types": ["street_number"]}, {"long_name": "Choa Chu Kang Avenue 3", "short_name": "Choa Chu Kang Ave 3", "types": ["route"]}, {"long_name": "Choa Chu Kang", "short_name": "Choa Chu Kang", "types": ["neighborhood", "political"]}, {"long_name": "Singapore", "short_name": "Singapore", "types": ["locality", "political"]}, {"long_name": "Singapore", "short_name": "SG", "types": ["country", "political"]}, {"long_name": "680404", "short_name": "680404", "types": ["postal_code"]}], "formatted_address": "404 Choa Chu Kang Ave 3, Block 404, Singapore 680404", "geometry": {"bounds": {"northeast": {"lat": 1.380261, "lng": 103.7392169}, "southwest": {"lat": 1.3797951, "lng": 103.7384919}}, "location": {"lat": 1.3800942, "lng": 103.7388047}, "location_type": "ROOFTOP", "viewport": {"northeast": {"lat": 1.381377030291502, "lng": 103.7402033802915}, "southwest": {"lat": 1.378679069708498, "lng": 103.7375054197085}}}, "place_id": "ChIJdyMB69wR2jERDVKGW9opIgI", "types": ["premise"]}