{"address_components": [{"long_name": "Block 840", "short_name": "Block 840", "types": ["premise"]}, {"long_name": "840", "short_name": "840", "types": ["street_number"]}, {"long_name": "Tampines Street 82", "short_name": "Tampines Street 82", "types": ["route"]}, {"long_name": "Tampines", "short_name": "Tampines", "types": ["neighborhood", "political"]}, {"long_name": "Singapore", "short_name": "Singapore", "types": ["locality", "political"]}, {"long_name": "Singapore", "short_name": "SG", "types": ["country", "political"]}, {"long_name": "520840", "short_name": "520840", "types": ["postal_code"]}], "formatted_address": "840 Tampines Street 82, Block 840, Singapore 520840", "geometry": {"bounds": {"northeast": {"lat": 1.3513713, "lng": 103.9361609}, "southwest": {"lat": 1.3506643, "lng": 103.9350477}}, "location": {"lat": 1.3510826, "lng": 103.9356533}, "location_type": "ROOFTOP", "viewport": {"northeast": {"lat": 1.352366780291502, "lng": 103.9369532802915}, "southwest": {"lat": 1.349668819708498, "lng": 103.9342553197085}}}, "place_id": "ChIJG8NR7mw92jERC2fQDcjq09Q", "types": ["premise"]}