{"address_components": [{"long_name": "Block 842", "short_name": "Block 842", "types": ["premise"]}, {"long_name": "842", "short_name": "842", "types": ["street_number"]}, {"long_name": "Tampines Street 82", "short_name": "Tampines Street 82", "types": ["route"]}, {"long_name": "Tampines", "short_name": "Tampines", "types": ["neighborhood", "political"]}, {"long_name": "Singapore", "short_name": "Singapore", "types": ["locality", "political"]}, {"long_name": "Singapore", "short_name": "SG", "types": ["country", "political"]}, {"long_name": "520842", "short_name": "520842", "types": ["postal_code"]}], "formatted_address": "842 Tampines Street 82, Block 842, Singapore 520842", "geometry": {"bounds": {"northeast": {"lat": 1.3521479, "lng": 103.9364339}, "southwest": {"lat": 1.3515218, "lng": 103.9354381}}, "location": {"lat": 1.3517954, "lng": 103.9358119}, "location_type": "ROOFTOP", "viewport": {"northeast": {"lat": 1.353183830291502, "lng": 103.9372849802915}, "southwest": {"lat": 1.350485869708498, "lng": 103.9345870197085}}}, "place_id": "ChIJ2yA3Hm092jERY5MTdCUJWE4", "types": ["premise"]}