{"address_components": [{"long_name": "Block 919", "short_name": "Block 919", "types": ["premise"]}, {"long_name": "919", "short_name": "919", "types": ["street_number"]}, {"long_name": "Hougang Avenue 4", "short_name": "Hougang Ave 4", "types": ["route"]}, {"long_name": "Hougang", "short_name": "Hougang", "types": ["neighborhood", "political"]}, {"long_name": "Singapore", "short_name": "Singapore", "types": ["locality", "political"]}, {"long_name": "Singapore", "short_name": "SG", "types": ["country", "political"]}, {"long_name": "530919", "short_name": "530919", "types": ["postal_code"]}], "formatted_address": "919 Hougang Ave 4, Block 919, Singapore 530919", "geometry": {"bounds": {"northeast": {"lat": 1.3762113, "lng": 103.8843786}, "southwest": {"lat": 1.3758593, "lng": 103.8837546}}, "location": {"lat": 1.3760647, "lng": 103.8842681}, "location_type": "ROOFTOP", "viewport": {"northeast": {"lat": 1.377384280291502, "lng": 103.8854155802915}, "southwest": {"lat": 1.374686319708498, "lng": 103.8827176197085}}}, "place_id": "ChIJz0a-N0QW2jERH00u5PZxARc", "types": ["premise"]}