{"address_components": [{"long_name": "Block 292", "short_name": "Block 292", "types": ["premise"]}, {"long_name": "292", "short_name": "292", "types": ["street_number"]}, {"long_name": "Tampines Street 22", "short_name": "Tampines Street 22", "types": ["route"]}, {"long_name": "Tampines", "short_name": "Tampines", "types": ["neighborhood", "political"]}, {"long_name": "Singapore", "short_name": "Singapore", "types": ["locality", "political"]}, {"long_name": "Singapore", "short_name": "SG", "types": ["country", "political"]}, {"long_name": "520292", "short_name": "520292", "types": ["postal_code"]}], "formatted_address": "292 Tampines Street 22, Block 292, Singapore 520292", "geometry": {"bounds": {"northeast": {"lat": 1.3505379, "lng": 103.9558643}, "southwest": {"lat": 1.3498269, "lng": 103.9556525}}, "location": {"lat": 1.3501597, "lng": 103.9557776}, "location_type": "ROOFTOP", "viewport": {"northeast": {"lat": 1.351531380291502, "lng": 103.9571073802915}, "southwest": {"lat": 1.348833419708498, "lng": 103.9544094197085}}}, "place_id": "ChIJNef9ERw92jERZcuEN9CMGRQ", "types": ["premise"]}