{"address_components": [{"long_name": "Block 804", "short_name": "Block 804", "types": ["premise"]}, {"long_name": "804", "short_name": "804", "types": ["street_number"]}, {"long_name": "Tampines Avenue 4", "short_name": "Tampines Ave 4", "types": ["route"]}, {"long_name": "Tampines", "short_name": "Tampines", "types": ["neighborhood", "political"]}, {"long_name": "Singapore", "short_name": "Singapore", "types": ["locality", "political"]}, {"long_name": "Singapore", "short_name": "SG", "types": ["country", "political"]}, {"long_name": "520804", "short_name": "520804", "types": ["postal_code"]}], "formatted_address": "804 Tampines Ave 4, Block 804, Singapore 520804", "geometry": {"bounds": {"northeast": {"lat": 1.3459822, "lng": 103.9378232}, "southwest": {"lat": 1.3455451, "lng": 103.9369874}}, "location": {"lat": 1.3457286, "lng": 103.9374662}, "location_type": "ROOFTOP", "viewport": {"northeast": {"lat": 1.347112630291502, "lng": 103.9387542802915}, "southwest": {"lat": 1.344414669708498, "lng": 103.9360563197085}}}, "place_id": "ChIJVZwztGo92jERrjZ7eWTIhek", "types": ["premise"]}