{"address_components": [{"long_name": "Block 301", "short_name": "Block 301", "types": ["premise"]}, {"long_name": "301", "short_name": "301", "types": ["street_number"]}, {"long_name": "Hougang Avenue 5", "short_name": "Hougang Ave 5", "types": ["route"]}, {"long_name": "Hougang", "short_name": "Hougang", "types": ["neighborhood", "political"]}, {"long_name": "Singapore", "short_name": "Singapore", "types": ["locality", "political"]}, {"long_name": "Singapore", "short_name": "SG", "types": ["country", "political"]}, {"long_name": "530301", "short_name": "530301", "types": ["postal_code"]}], "formatted_address": "301 Hougang Ave 5, Block 301, Singapore 530301", "geometry": {"bounds": {"northeast": {"lat": 1.3679539, "lng": 103.894154}, "southwest": {"lat": 1.3677121, "lng": 103.8934031}}, "location": {"lat": 1.367804, "lng": 103.8937824}, "location_type": "ROOFTOP", "viewport": {"northeast": {"lat": 1.369181980291502, "lng": 103.8951275302915}, "southwest": {"lat": 1.366484019708498, "lng": 103.8924295697085}}}, "place_id": "ChIJPzH4zTUW2jER5vWQ3JsmT4o", "types": ["premise"]}