{"address_components": [{"long_name": "Block 113", "short_name": "Block 113", "types": ["premise"]}, {"long_name": "113", "short_name": "113", "types": ["street_number"]}, {"long_name": "Jurong East Street 13", "short_name": "Jurong East Street 13", "types": ["route"]}, {"long_name": "Jurong East", "short_name": "Jurong East", "types": ["neighborhood", "political"]}, {"long_name": "Singapore", "short_name": "Singapore", "types": ["locality", "political"]}, {"long_name": "Singapore", "short_name": "SG", "types": ["country", "political"]}, {"long_name": "600113", "short_name": "600113", "types": ["postal_code"]}], "formatted_address": "113 Jurong East Street 13, Block 113, Singapore 600113", "geometry": {"bounds": {"northeast": {"lat": 1.3391305, "lng": 103.735317}, "southwest": {"lat": 1.3388486, "lng": 103.7343539}}, "location": {"lat": 1.3389167, "lng": 103.7348449}, "location_type": "ROOFTOP", "viewport": {"northeast": {"lat": 1.340338530291502, "lng": 103.7361844302915}, "southwest": {"lat": 1.337640569708498, "lng": 103.7334864697085}}}, "place_id": "ChIJQYz3fxwQ2jERndMy8nWX8dg", "types": ["premise"]}