{"address_components": [{"long_name": "Block 330", "short_name": "Block 330", "types": ["premise"]}, {"long_name": "330", "short_name": "330", "types": ["street_number"]}, {"long_name": "Sembawang Close", "short_name": "Sembawang Cl", "types": ["route"]}, {"long_name": "Sembawang", "short_name": "Sembawang", "types": ["neighborhood", "political"]}, {"long_name": "Singapore", "short_name": "Singapore", "types": ["locality", "political"]}, {"long_name": "Singapore", "short_name": "SG", "types": ["country", "political"]}, {"long_name": "750330", "short_name": "750330", "types": ["postal_code"]}], "formatted_address": "330 Sembawang Cl, Block 330, Singapore 750330", "geometry": {"bounds": {"northeast": {"lat": 1.4469827, "lng": 103.8181887}, "southwest": {"lat": 1.4464007, "lng": 103.8174768}}, "location": {"lat": 1.4468518, "lng": 103.8178449}, "location_type": "ROOFTOP", "viewport": {"northeast": {"lat": 1.448040680291502, "lng": 103.8191817302915}, "southwest": {"lat": 1.445342719708498, "lng": 103.8164837697085}}}, "place_id": "ChIJZUUn8XwT2jERg5U_HPAEVos", "types": ["premise"]}