{"address_components": [{"long_name": "Block 212", "short_name": "Block 212", "types": ["premise"]}, {"long_name": "212", "short_name": "212", "types": ["street_number"]}, {"long_name": "Tampines Street 23", "short_name": "Tampines Street 23", "types": ["route"]}, {"long_name": "Tampines", "short_name": "Tampines", "types": ["neighborhood", "political"]}, {"long_name": "Singapore", "short_name": "Singapore", "types": ["locality", "political"]}, {"long_name": "Singapore", "short_name": "SG", "types": ["country", "political"]}, {"long_name": "520212", "short_name": "520212", "types": ["postal_code"]}], "formatted_address": "212 Tampines Street 23, Block 212, Singapore 520212", "geometry": {"bounds": {"northeast": {"lat": 1.3545024, "lng": 103.9546376}, "southwest": {"lat": 1.3543603, "lng": 103.9537175}}, "location": {"lat": 1.3544148, "lng": 103.9541458}, "location_type": "ROOFTOP", "viewport": {"northeast": {"lat": 1.355780330291502, "lng": 103.9555265302915}, "southwest": {"lat": 1.353082369708498, "lng": 103.9528285697085}}}, "place_id": "ChIJu-AHsQQ92jERRHA4rKMToOY", "types": ["premise"]}