{"address_components": [{"long_name": "Block 409", "short_name": "Block 409", "types": ["premise"]}, {"long_name": "409", "short_name": "409", "types": ["street_number"]}, {"long_name": "Yishun Ring Road", "short_name": "Yishun Ring Rd", "types": ["route"]}, {"long_name": "Yishun", "short_name": "Yishun", "types": ["neighborhood", "political"]}, {"long_name": "Singapore", "short_name": "Singapore", "types": ["locality", "political"]}, {"long_name": "Singapore", "short_name": "SG", "types": ["country", "political"]}, {"long_name": "760409", "short_name": "760409", "types": ["postal_code"]}], "formatted_address": "409 Yishun Ring Rd, Block 409, Singapore 760409", "geometry": {"bounds": {"northeast": {"lat": 1.426332, "lng": 103.8477447}, "southwest": {"lat": 1.4261791, "lng": 103.8469788}}, "location": {"lat": 1.4262854, "lng": 103.8475762}, "location_type": "ROOFTOP", "viewport": {"northeast": {"lat": 1.427604530291502, "lng": 103.8487107302915}, "southwest": {"lat": 1.424906569708498, "lng": 103.8460127697085}}}, "place_id": "ChIJE-aPSUIU2jERG3fi7RXFvEo", "types": ["premise"]}