{"address_components": [{"long_name": "Block 737", "short_name": "Block 737", "types": ["premise"]}, {"long_name": "737", "short_name": "737", "types": ["street_number"]}, {"long_name": "Woodlands Circle", "short_name": "Woodlands Cir", "types": ["route"]}, {"long_name": "Woodlands", "short_name": "Woodlands", "types": ["neighborhood", "political"]}, {"long_name": "Singapore", "short_name": "Singapore", "types": ["locality", "political"]}, {"long_name": "Singapore", "short_name": "SG", "types": ["country", "political"]}, {"long_name": "730737", "short_name": "730737", "types": ["postal_code"]}], "formatted_address": "737 Woodlands Cir, Block 737, Singapore 730737", "geometry": {"bounds": {"northeast": {"lat": 1.4438898, "lng": 103.7971161}, "southwest": {"lat": 1.4433141, "lng": 103.7964311}}, "location": {"lat": 1.4436424, "lng": 103.7967449}, "location_type": "ROOFTOP", "viewport": {"northeast": {"lat": 1.444950930291502, "lng": 103.7981225802915}, "southwest": {"lat": 1.442252969708498, "lng": 103.7954246197085}}}, "place_id": "ChIJucBIZgsT2jERQ27EGey3v3k", "types": ["premise"]}