{"address_components": [{"long_name": "Block 318", "short_name": "Block 318", "types": ["premise"]}, {"long_name": "318", "short_name": "318", "types": ["street_number"]}, {"long_name": "Woodlands Street 31", "short_name": "Woodlands Street 31", "types": ["route"]}, {"long_name": "Woodlands", "short_name": "Woodlands", "types": ["neighborhood", "political"]}, {"long_name": "Singapore", "short_name": "Singapore", "types": ["locality", "political"]}, {"long_name": "Singapore", "short_name": "SG", "types": ["country", "political"]}, {"long_name": "730318", "short_name": "730318", "types": ["postal_code"]}], "formatted_address": "318 Woodlands Street 31, Block 318, Singapore 730318", "geometry": {"bounds": {"northeast": {"lat": 1.431928, "lng": 103.777722}, "southwest": {"lat": 1.431795, "lng": 103.7767609}}, "location": {"lat": 1.4318532, "lng": 103.77721}, "location_type": "ROOFTOP", "viewport": {"northeast": {"lat": 1.433210480291502, "lng": 103.7785904302915}, "southwest": {"lat": 1.430512519708498, "lng": 103.7758924697085}}}, "place_id": "ChIJE1eGEK0T2jERlnhEPs_cHIk", "types": ["premise"]}