{"address_components": [{"long_name": "Block 639", "short_name": "Block 639", "types": ["premise"]}, {"long_name": "639", "short_name": "639", "types": ["street_number"]}, {"long_name": "Yishun Street 61", "short_name": "Yishun Street 61", "types": ["route"]}, {"long_name": "Yishun", "short_name": "Yishun", "types": ["neighborhood", "political"]}, {"long_name": "Singapore", "short_name": "Singapore", "types": ["locality", "political"]}, {"long_name": "Singapore", "short_name": "SG", "types": ["country", "political"]}, {"long_name": "760639", "short_name": "760639", "types": ["postal_code"]}], "formatted_address": "639 Yishun Street 61, Block 639, Singapore 760639", "geometry": {"bounds": {"northeast": {"lat": 1.4207818, "lng": 103.8388682}, "southwest": {"lat": 1.4203328, "lng": 103.8379672}}, "location": {"lat": 1.4206009, "lng": 103.8384501}, "location_type": "ROOFTOP", "viewport": {"northeast": {"lat": 1.421906280291502, "lng": 103.8397666802915}, "southwest": {"lat": 1.419208319708498, "lng": 103.8370687197085}}}, "place_id": "ChIJiRD3rWwU2jERp2zzqTaZZxQ", "types": ["premise"]}