{"address_components": [{"long_name": "Block 103", "short_name": "Block 103", "types": ["premise"]}, {"long_name": "103", "short_name": "103", "types": ["street_number"]}, {"long_name": "Hougang Avenue 1", "short_name": "Hougang Ave 1", "types": ["route"]}, {"long_name": "Hougang", "short_name": "Hougang", "types": ["neighborhood", "political"]}, {"long_name": "Singapore", "short_name": "Singapore", "types": ["locality", "political"]}, {"long_name": "Singapore", "short_name": "SG", "types": ["country", "political"]}, {"long_name": "530103", "short_name": "530103", "types": ["postal_code"]}], "formatted_address": "103 Hougang Ave 1, Block 103, Singapore 530103", "geometry": {"bounds": {"northeast": {"lat": 1.3554194, "lng": 103.8908865}, "southwest": {"lat": 1.3550006, "lng": 103.8902859}}, "location": {"lat": 1.3553733, "lng": 103.8905203}, "location_type": "ROOFTOP", "viewport": {"northeast": {"lat": 1.356558980291502, "lng": 103.8919351802915}, "southwest": {"lat": 1.353861019708498, "lng": 103.8892372197085}}}, "place_id": "ChIJZ1pD77cX2jER76eLVuIaCrA", "types": ["premise"]}