{"address_components": [{"long_name": "Block 565", "short_name": "Block 565", "types": ["premise"]}, {"long_name": "565", "short_name": "565", "types": ["street_number"]}, {"long_name": "Pasir Ris Street 51", "short_name": "Pasir Ris Street 51", "types": ["route"]}, {"long_name": "Pasir Ris", "short_name": "Pasir Ris", "types": ["neighborhood", "political"]}, {"long_name": "Singapore", "short_name": "Singapore", "types": ["locality", "political"]}, {"long_name": "Singapore", "short_name": "SG", "types": ["country", "political"]}, {"long_name": "510565", "short_name": "510565", "types": ["postal_code"]}], "formatted_address": "565 Pasir Ris Street 51, Block 565, Singapore 510565", "geometry": {"bounds": {"northeast": {"lat": 1.369303, "lng": 103.9504329}, "southwest": {"lat": 1.368531, "lng": 103.950065}}, "location": {"lat": 1.3689528, "lng": 103.9502703}, "location_type": "ROOFTOP", "viewport": {"northeast": {"lat": 1.370265980291502, "lng": 103.9515979302915}, "southwest": {"lat": 1.367568019708498, "lng": 103.9488999697085}}}, "place_id": "ChIJYwEaRK892jERspwtshnxM1A", "types": ["premise"]}