{"address_components": [{"long_name": "Block 113", "short_name": "Block 113", "types": ["premise"]}, {"long_name": "113", "short_name": "113", "types": ["street_number"]}, {"long_name": "Bukit Batok West Avenue 6", "short_name": "Bukit Batok West Ave 6", "types": ["route"]}, {"long_name": "Bukit Batok", "short_name": "Bukit Batok", "types": ["neighborhood", "political"]}, {"long_name": "Singapore", "short_name": "Singapore", "types": ["locality", "political"]}, {"long_name": "Singapore", "short_name": "SG", "types": ["country", "political"]}, {"long_name": "650113", "short_name": "650113", "types": ["postal_code"]}], "formatted_address": "113 Bukit Batok West Ave 6, Block 113, Singapore 650113", "geometry": {"bounds": {"northeast": {"lat": 1.3489089, "lng": 103.7455301}, "southwest": {"lat": 1.34857, "lng": 103.7448431}}, "location": {"lat": 1.3488261, "lng": 103.7451665}, "location_type": "ROOFTOP", "viewport": {"northeast": {"lat": 1.350088430291502, "lng": 103.7465355802915}, "southwest": {"lat": 1.347390469708498, "lng": 103.7438376197085}}}, "place_id": "ChIJvQe1MDwQ2jERoYo3V-g0EiU", "types": ["premise"]}