{"address_components": [{"long_name": "183A", "short_name": "183A", "types": ["street_number"]}, {"long_name": "Boon Lay Avenue", "short_name": "Boon Lay Ave", "types": ["route"]}, {"long_name": "Jurong West", "short_name": "Jurong West", "types": ["neighborhood", "political"]}, {"long_name": "Singapore", "short_name": "Singapore", "types": ["locality", "political"]}, {"long_name": "Singapore", "short_name": "SG", "types": ["country", "political"]}, {"long_name": "641183", "short_name": "641183", "types": ["postal_code"]}], "formatted_address": "183A Boon Lay Ave, Singapore 641183", "geometry": {"bounds": {"northeast": {"lat": 1.3490755, "lng": 103.7100617}, "southwest": {"lat": 1.3485307, "lng": 103.7095564}}, "location": {"lat": 1.3488103, "lng": 103.7096888}, "location_type": "ROOFTOP", "viewport": {"northeast": {"lat": 1.350152080291502, "lng": 103.7111580302915}, "southwest": {"lat": 1.347454119708498, "lng": 103.7084600697085}}}, "place_id": "ChIJ-4BYDsEP2jERTotVIZu4eQw", "types": ["premise"]}