{"address_components": [{"long_name": "Block 862A", "short_name": "Block 862A", "types": ["premise"]}, {"long_name": "862A", "short_name": "862A", "types": ["street_number"]}, {"long_name": "Tampines Street 83", "short_name": "Tampines Street 83", "types": ["route"]}, {"long_name": "Tampines", "short_name": "Tampines", "types": ["neighborhood", "political"]}, {"long_name": "Singapore", "short_name": "Singapore", "types": ["locality", "political"]}, {"long_name": "Singapore", "short_name": "SG", "types": ["country", "political"]}, {"long_name": "521862", "short_name": "521862", "types": ["postal_code"]}], "formatted_address": "862A Tampines Street 83, Block 862A, Singapore 521862", "geometry": {"bounds": {"northeast": {"lat": 1.355257, "lng": 103.9368121}, "southwest": {"lat": 1.3548699, "lng": 103.9361891}}, "location": {"lat": 1.3550855, "lng": 103.9365371}, "location_type": "ROOFTOP", "viewport": {"northeast": {"lat": 1.356412430291502, "lng": 103.9378495802915}, "southwest": {"lat": 1.353714469708498, "lng": 103.9351516197085}}}, "place_id": "ChIJyZm1vnI92jERqxCMIVO_NNA", "types": ["premise"]}