{"address_components": [{"long_name": "Block 237", "short_name": "Block 237", "types": ["premise"]}, {"long_name": "237", "short_name": "237", "types": ["street_number"]}, {"long_name": "Bukit Panjang Ring Road", "short_name": "Bukit Panjang Ring Rd", "types": ["route"]}, {"long_name": "Bukit Panjang", "short_name": "Bukit Panjang", "types": ["neighborhood", "political"]}, {"long_name": "Singapore", "short_name": "Singapore", "types": ["locality", "political"]}, {"long_name": "Singapore", "short_name": "SG", "types": ["country", "political"]}, {"long_name": "670237", "short_name": "670237", "types": ["postal_code"]}], "formatted_address": "237 Bukit Panjang Ring Rd, Block 237, Singapore 670237", "geometry": {"bounds": {"northeast": {"lat": 1.378932, "lng": 103.771066}, "southwest": {"lat": 1.3783939, "lng": 103.7703049}}, "location": {"lat": 1.3784947, "lng": 103.7707819}, "location_type": "ROOFTOP", "viewport": {"northeast": {"lat": 1.380011930291502, "lng": 103.7720344302915}, "southwest": {"lat": 1.377313969708498, "lng": 103.7693364697085}}}, "place_id": "ChIJmccIS6ER2jER2lICV7clfb0", "types": ["premise"]}