{"address_components": [{"long_name": "156", "short_name": "156", "types": ["street_number"]}, {"long_name": "Rivervale Crescent", "short_name": "Rivervale Cres", "types": ["route"]}, {"long_name": "Sengkang", "short_name": "Sengkang", "types": ["neighborhood", "political"]}, {"long_name": "Singapore", "short_name": "Singapore", "types": ["locality", "political"]}, {"long_name": "Singapore", "short_name": "SG", "types": ["country", "political"]}, {"long_name": "540156", "short_name": "540156", "types": ["postal_code"]}], "formatted_address": "156 Rivervale Cres, Singapore 540156", "geometry": {"bounds": {"northeast": {"lat": 1.3913723, "lng": 103.9076122}, "southwest": {"lat": 1.3907967, "lng": 103.9071598}}, "location": {"lat": 1.3910197, "lng": 103.9075567}, "location_type": "ROOFTOP", "viewport": {"northeast": {"lat": 1.392433480291502, "lng": 103.9087349802915}, "southwest": {"lat": 1.389735519708498, "lng": 103.9060370197085}}}, "place_id": "ChIJlbGcSBsW2jERKmWtA4fMC-c", "types": ["premise"]}