{"address_components": [{"long_name": "Block 272", "short_name": "Block 272", "types": ["premise"]}, {"long_name": "272", "short_name": "272", "types": ["street_number"]}, {"long_name": "Yishun Street 22", "short_name": "Yishun Street 22", "types": ["route"]}, {"long_name": "Yishun", "short_name": "Yishun", "types": ["neighborhood", "political"]}, {"long_name": "Singapore", "short_name": "Singapore", "types": ["locality", "political"]}, {"long_name": "Singapore", "short_name": "SG", "types": ["country", "political"]}, {"long_name": "760272", "short_name": "760272", "types": ["postal_code"]}], "formatted_address": "272 Yishun Street 22, Block 272, Singapore 760272", "geometry": {"bounds": {"northeast": {"lat": 1.43824, "lng": 103.8400886}, "southwest": {"lat": 1.437869, "lng": 103.8391497}}, "location": {"lat": 1.4380745, "lng": 103.839605}, "location_type": "ROOFTOP", "viewport": {"northeast": {"lat": 1.439403480291502, "lng": 103.8409681302915}, "southwest": {"lat": 1.436705519708498, "lng": 103.8382701697085}}}, "place_id": "ChIJs0IB82EU2jERBqp5OxuLhRI", "types": ["premise"]}