{"address_components": [{"long_name": "Block 249", "short_name": "Block 249", "types": ["premise"]}, {"long_name": "249", "short_name": "249", "types": ["street_number"]}, {"long_name": "Yishun Avenue 9", "short_name": "Yishun Ave 9", "types": ["route"]}, {"long_name": "Yishun", "short_name": "Yishun", "types": ["neighborhood", "political"]}, {"long_name": "Singapore", "short_name": "Singapore", "types": ["locality", "political"]}, {"long_name": "Singapore", "short_name": "SG", "types": ["country", "political"]}, {"long_name": "760249", "short_name": "760249", "types": ["postal_code"]}], "formatted_address": "249 Yishun Ave 9, Block 249, Singapore 760249", "geometry": {"bounds": {"northeast": {"lat": 1.435597, "lng": 103.8421659}, "southwest": {"lat": 1.434845, "lng": 103.8413861}}, "location": {"lat": 1.4351991, "lng": 103.8417789}, "location_type": "ROOFTOP", "viewport": {"northeast": {"lat": 1.436569980291502, "lng": 103.8431249802915}, "southwest": {"lat": 1.433872019708498, "lng": 103.8404270197085}}}, "place_id": "ChIJ6xUhJ2EU2jERR48Tb1tTLzY", "types": ["premise"]}